{"success":true,"remaining_lookups":8816,"0":{"id":"8621599","label":"Liwa\u2019 Ban\u012b Kin\u0101nah","value":"8621599","lat":32.6778699999999986403054208494722843170166015625,"lon":35.7887199999999978672349243424832820892333984375,"poi_name":"Liwa\u2019 Ban\u012b Kin\u0101nah","parent_id":"248944","long":35.7887199999999978672349243424832820892333984375},"1":{"id":"8621605","label":"Liw\u0101\u2019 Ban\u012b \u2018Ubayd","value":"8621605","lat":32.45387000000000199406713363714516162872314453125,"lon":35.91732999999999975671016727574169635772705078125,"poi_name":"Liw\u0101\u2019 Ban\u012b \u2018Ubayd","parent_id":"248944","long":35.91732999999999975671016727574169635772705078125},"2":{"id":"8621602","label":"Liw\u0101\u2019 Qa\u015fabat Irbid","value":"8621602","lat":32.5707000000000022055246517993509769439697265625,"lon":35.84823999999999699639374739490449428558349609375,"poi_name":"Liw\u0101\u2019 Qa\u015fabat Irbid","parent_id":"248944","long":35.84823999999999699639374739490449428558349609375},"3":{"id":"8621604","label":"Liw\u0101\u2019 al Aghw\u0101r ash Sham\u0101l\u012byah","value":"8621604","lat":32.47091000000000349245965480804443359375,"lon":35.59546000000000276486389338970184326171875,"poi_name":"Liw\u0101\u2019 al Aghw\u0101r ash Sham\u0101l\u012byah","parent_id":"248944","long":35.59546000000000276486389338970184326171875},"4":{"id":"8621603","label":"Liw\u0101\u2019 al K\u016brah","value":"8621603","lat":32.46625000000000227373675443232059478759765625,"lon":35.6876299999999986312104738317430019378662109375,"poi_name":"Liw\u0101\u2019 al K\u016brah","parent_id":"248944","long":35.6876299999999986312104738317430019378662109375},"5":{"id":"8621606","label":"Liw\u0101\u2019 al Maz\u0101r ash Sham\u0101l\u012b","value":"8621606","lat":32.4580399999999968940755934454500675201416015625,"lon":35.79699000000000097543306765146553516387939453125,"poi_name":"Liw\u0101\u2019 al Maz\u0101r ash Sham\u0101l\u012b","parent_id":"248944","long":35.79699000000000097543306765146553516387939453125},"6":{"id":"8621630","label":"Liw\u0101\u2019 al Wasa\u0163\u012byah","value":"8621630","lat":32.58805000000000262616595136933028697967529296875,"lon":35.704689999999999372448655776679515838623046875,"poi_name":"Liw\u0101\u2019 al Wasa\u0163\u012byah","parent_id":"248944","long":35.704689999999999372448655776679515838623046875},"7":{"id":"8621601","label":"Liw\u0101\u2019 ar Ramth\u0101","value":"8621601","lat":32.584980000000001609805622138082981109619140625,"lon":35.99481999999999715100784669630229473114013671875,"poi_name":"Liw\u0101\u2019 ar Ramth\u0101","parent_id":"248944","long":35.99481999999999715100784669630229473114013671875},"8":{"id":"8621607","label":"Liw\u0101\u2019 a\u0163 \u0162ayyibah","value":"8621607","lat":32.5537599999999969213604344986379146575927734375,"lon":35.692959999999999354258761741220951080322265625,"poi_name":"Liw\u0101\u2019 a\u0163 \u0162ayyibah","parent_id":"248944","long":35.692959999999999354258761741220951080322265625}}