{"success":true,"remaining_lookups":9948,"0":{"id":"10944422","label":"Bashkia Delvin\u00eb","value":"10944422","lat":39.99824000000000268073563347570598125457763671875,"lon":20.049029999999998352677721413783729076385498046875,"poi_name":"Bashkia Delvin\u00eb","parent_id":"3344952","long":20.049029999999998352677721413783729076385498046875},"1":{"id":"10944423","label":"Bashkia Finiq","value":"10944423","lat":39.8439300000000002910383045673370361328125,"lon":20.1665899999999993497112882323563098907470703125,"poi_name":"Bashkia Finiq","parent_id":"3344952","long":20.1665899999999993497112882323563098907470703125},"2":{"id":"10944424","label":"Bashkia Himar\u00eb","value":"10944424","lat":40.11581000000000329919203068129718303680419921875,"lon":19.8138900000000006684786058031022548675537109375,"poi_name":"Bashkia Himar\u00eb","parent_id":"3344952","long":19.8138900000000006684786058031022548675537109375},"3":{"id":"10944425","label":"Bashkia Konispol","value":"10944425","lat":39.70063999999999992951416061259806156158447265625,"lon":20.13353000000000037061909097246825695037841796875,"poi_name":"Bashkia Konispol","parent_id":"3344952","long":20.13353000000000037061909097246825695037841796875},"4":{"id":"10944426","label":"Bashkia Sarand\u00eb","value":"10944426","lat":39.855829999999997426129993982613086700439453125,"lon":20.0204599999999999226929503493010997772216796875,"poi_name":"Bashkia Sarand\u00eb","parent_id":"3344952","long":20.0204599999999999226929503493010997772216796875},"5":{"id":"10944427","label":"Bashkia Selenic\u00eb","value":"10944427","lat":40.39502999999999843794284970499575138092041015625,"lon":19.65957999999999827878127689473330974578857421875,"poi_name":"Bashkia Selenic\u00eb","parent_id":"3344952","long":19.65957999999999827878127689473330974578857421875},"6":{"id":"10944428","label":"Bashkia Vlor\u00eb","value":"10944428","lat":40.41340000000000287627699435688555240631103515625,"lon":19.49792000000000058435034588910639286041259765625,"poi_name":"Bashkia Vlor\u00eb","parent_id":"3344952","long":19.49792000000000058435034588910639286041259765625},"7":{"id":"414383","label":"Rrethi i Delvin\u00ebs","value":"414383","lat":39.91667000000000342652128892950713634490966796875,"lon":20.083330000000000126192389870993793010711669921875,"poi_name":"Rrethi i Delvin\u00ebs","parent_id":"3344952","long":20.083330000000000126192389870993793010711669921875},"8":{"id":"363245","label":"Rrethi i Sarand\u00ebs","value":"363245","lat":39.83332999999999657347871107049286365509033203125,"lon":20.083330000000000126192389870993793010711669921875,"poi_name":"Rrethi i Sarand\u00ebs","parent_id":"3344952","long":20.083330000000000126192389870993793010711669921875},"9":{"id":"3183721","label":"Rrethi i Vlor\u00ebs","value":"3183721","lat":40.33332999999999657347871107049286365509033203125,"lon":19.550000000000000710542735760100185871124267578125,"poi_name":"Rrethi i Vlor\u00ebs","parent_id":"3344952","long":19.550000000000000710542735760100185871124267578125}}