{"success":true,"remaining_lookups":9954,"0":{"id":"10944393","label":"Bashkia Dropull","value":"10944393","lat":39.98584000000000315822035190649330615997314453125,"lon":20.3052899999999993951860233210027217864990234375,"poi_name":"Bashkia Dropull","parent_id":"865733","long":20.3052899999999993951860233210027217864990234375},"1":{"id":"10944394","label":"Bashkia Gjirokast\u00ebr","value":"10944394","lat":40.12774999999999891997504164464771747589111328125,"lon":20.07291000000000025238477974198758602142333984375,"poi_name":"Bashkia Gjirokast\u00ebr","parent_id":"865733","long":20.07291000000000025238477974198758602142333984375},"2":{"id":"10944395","label":"Bashkia Kelcyr\u00eb","value":"10944395","lat":40.36196000000000339014150085859000682830810546875,"lon":20.1647600000000011277734301984310150146484375,"poi_name":"Bashkia Kelcyr\u00eb","parent_id":"865733","long":20.1647600000000011277734301984310150146484375},"3":{"id":"10944396","label":"Bashkia Libohov\u00eb","value":"10944396","lat":40.107540000000000190993887372314929962158203125,"lon":20.257529999999999148485585465095937252044677734375,"poi_name":"Bashkia Libohov\u00eb","parent_id":"865733","long":20.257529999999999148485585465095937252044677734375},"4":{"id":"10944397","label":"Bashkia Memaliaj","value":"10944397","lat":40.4152399999999971669240039773285388946533203125,"lon":19.969110000000000582076609134674072265625,"poi_name":"Bashkia Memaliaj","parent_id":"865733","long":19.969110000000000582076609134674072265625},"5":{"id":"10944398","label":"Bashkia P\u00ebrmet","value":"10944398","lat":40.23246000000000321961124427616596221923828125,"lon":20.41091000000000121872290037572383880615234375,"poi_name":"Bashkia P\u00ebrmet","parent_id":"865733","long":20.41091000000000121872290037572383880615234375},"6":{"id":"10944399","label":"Bashkia Tepelen\u00eb","value":"10944399","lat":40.26735999999999648935045115649700164794921875,"lon":19.97003000000000128011379274539649486541748046875,"poi_name":"Bashkia Tepelen\u00eb","parent_id":"865733","long":19.97003000000000128011379274539649486541748046875},"7":{"id":"783151","label":"Rrethi i Gjirokastr\u00ebs","value":"783151","lat":40.03332999999999941564965411089360713958740234375,"lon":20.166669999999999873807610129006206989288330078125,"poi_name":"Rrethi i Gjirokastr\u00ebs","parent_id":"865733","long":20.166669999999999873807610129006206989288330078125},"8":{"id":"782072","label":"Rrethi i P\u00ebrmetit","value":"782072","lat":40.28332999999999941564965411089360713958740234375,"lon":20.333330000000000126192389870993793010711669921875,"poi_name":"Rrethi i P\u00ebrmetit","parent_id":"865733","long":20.333330000000000126192389870993793010711669921875},"9":{"id":"3183911","label":"Rrethi i Tepelen\u00ebs","value":"3183911","lat":40.33332999999999657347871107049286365509033203125,"lon":19.96667000000000058435034588910639286041259765625,"poi_name":"Rrethi i Tepelen\u00ebs","parent_id":"865733","long":19.96667000000000058435034588910639286041259765625}}