{"success":true,"remaining_lookups":8312,"0":{"id":"2444218","label":"D\u00e9partement de Gour\u00e9","value":"2444218","lat":15,"lon":10.75,"poi_name":"D\u00e9partement de Gour\u00e9","parent_id":"2437797","long":10.75},"1":{"id":"2441474","label":"D\u00e9partement de Magaria","value":"2441474","lat":13.25,"lon":9.25,"poi_name":"D\u00e9partement de Magaria","parent_id":"2437797","long":9.25},"2":{"id":"2441216","label":"D\u00e9partement de Matameye","value":"2441216","lat":13.4000000000000003552713678800500929355621337890625,"lon":8.5999999999999996447286321199499070644378662109375,"poi_name":"D\u00e9partement de Matameye","parent_id":"2437797","long":8.5999999999999996447286321199499070644378662109375},"3":{"id":"2440920","label":"D\u00e9partement de Mirria","value":"2440920","lat":13.699999999999999289457264239899814128875732421875,"lon":9.199999999999999289457264239899814128875732421875,"poi_name":"D\u00e9partement de Mirria","parent_id":"2437797","long":9.199999999999999289457264239899814128875732421875},"4":{"id":"2439154","label":"D\u00e9partement de T\u00e2nout","value":"2439154","lat":14.75,"lon":8.333330000000000126192389870993793010711669921875,"poi_name":"D\u00e9partement de T\u00e2nout","parent_id":"2437797","long":8.333330000000000126192389870993793010711669921875},"5":{"id":"11204206","label":"Magaria Department","value":"11204206","lat":12.9980600000000006133404895081184804439544677734375,"lon":8.90972000000000008412825991399586200714111328125,"poi_name":"Magaria Department","parent_id":"2437797","long":8.90972000000000008412825991399586200714111328125},"6":{"id":"10943048","label":"Mirriah Department","value":"10943048","lat":13.70721999999999951569407130591571331024169921875,"lon":9.1500000000000003552713678800500929355621337890625,"poi_name":"Mirriah Department","parent_id":"2437797","long":9.1500000000000003552713678800500929355621337890625}}