{"success":true,"remaining_lookups":8672,"0":{"id":"11352727","label":"Katvaru pagasts","value":"11352727","lat":57.5868099999999998317434801720082759857177734375,"lon":24.810680000000001399484972353093326091766357421875,"poi_name":"Katvaru pagasts","parent_id":"457889","long":24.810680000000001399484972353093326091766357421875},"1":{"id":"11352728","label":"Limba\u017ei","value":"11352728","lat":57.51098999999999961119101499207317829132080078125,"lon":24.71676000000000072986949817277491092681884765625,"poi_name":"Limba\u017ei","parent_id":"457889","long":24.71676000000000072986949817277491092681884765625},"2":{"id":"11352729","label":"Limba\u017eu pagasts","value":"11352729","lat":57.46549999999999869260136620141565799713134765625,"lon":24.6914900000000017143975128419697284698486328125,"poi_name":"Limba\u017eu pagasts","parent_id":"457889","long":24.6914900000000017143975128419697284698486328125},"3":{"id":"11352730","label":"P\u0101les pagasts","value":"11352730","lat":57.6949800000000010413714335300028324127197265625,"lon":24.714569999999998373141352203674614429473876953125,"poi_name":"P\u0101les pagasts","parent_id":"457889","long":24.714569999999998373141352203674614429473876953125},"4":{"id":"11352731","label":"Skultes pagasts","value":"11352731","lat":57.3721699999999970032149576582014560699462890625,"lon":24.509570000000000078443918027915060520172119140625,"poi_name":"Skultes pagasts","parent_id":"457889","long":24.509570000000000078443918027915060520172119140625},"5":{"id":"11352733","label":"Umurgas pagasts","value":"11352733","lat":57.50397000000000247155185206793248653411865234375,"lon":24.912099999999998800603862036950886249542236328125,"poi_name":"Umurgas pagasts","parent_id":"457889","long":24.912099999999998800603862036950886249542236328125},"6":{"id":"11352734","label":"Vidri\u017eu pagasts","value":"11352734","lat":57.31571000000000282170731225050985813140869140625,"lon":24.64802999999999855162968742661178112030029296875,"poi_name":"Vidri\u017eu pagasts","parent_id":"457889","long":24.64802999999999855162968742661178112030029296875},"7":{"id":"11352735","label":"Vi\u013c\u0137enes pagasts","value":"11352735","lat":57.61110000000000042064129956997931003570556640625,"lon":24.579599999999999226929503493010997772216796875,"poi_name":"Vi\u013c\u0137enes pagasts","parent_id":"457889","long":24.579599999999999226929503493010997772216796875}}