{"success":true,"remaining_lookups":8676,"0":{"id":"11352714","label":"Gudenieku pagasts","value":"11352714","lat":56.88669999999999760120772407390177249908447265625,"lon":21.620129999999999625970303895883262157440185546875,"poi_name":"Gudenieku pagasts","parent_id":"458459","long":21.620129999999999625970303895883262157440185546875},"1":{"id":"11352716","label":"Kabiles pagasts","value":"11352716","lat":56.9602000000000003865352482534945011138916015625,"lon":22.353370000000001738271748763509094715118408203125,"poi_name":"Kabiles pagasts","parent_id":"458459","long":22.353370000000001738271748763509094715118408203125},"2":{"id":"11352717","label":"Kuld\u012bga","value":"11352717","lat":56.967860000000001718944986350834369659423828125,"lon":21.968849999999999766941982670687139034271240234375,"poi_name":"Kuld\u012bga","parent_id":"458459","long":21.968849999999999766941982670687139034271240234375},"3":{"id":"11352718","label":"Kurm\u0101les pagasts","value":"11352718","lat":56.90973000000000325826476910151541233062744140625,"lon":21.8542699999999996407495927996933460235595703125,"poi_name":"Kurm\u0101les pagasts","parent_id":"458459","long":21.8542699999999996407495927996933460235595703125},"4":{"id":"11352719","label":"Laidu pagasts","value":"11352719","lat":56.75166999999999717374521424062550067901611328125,"lon":21.84073000000000064346750150434672832489013671875,"poi_name":"Laidu pagasts","parent_id":"458459","long":21.84073000000000064346750150434672832489013671875},"5":{"id":"11352720","label":"Padures pagasts","value":"11352720","lat":57.0364000000000004320099833421409130096435546875,"lon":21.86274999999999835154085303656756877899169921875,"poi_name":"Padures pagasts","parent_id":"458459","long":21.86274999999999835154085303656756877899169921875},"6":{"id":"11352715","label":"Pel\u010du pagasts","value":"11352715","lat":56.9059400000000010777512216009199619293212890625,"lon":22.00046999999999997044142219237983226776123046875,"poi_name":"Pel\u010du pagasts","parent_id":"458459","long":22.00046999999999997044142219237983226776123046875},"7":{"id":"11352721","label":"Rendas pagasts","value":"11352721","lat":57.05939000000000049794834922067821025848388671875,"lon":22.217130000000000933368937694467604160308837890625,"poi_name":"Rendas pagasts","parent_id":"458459","long":22.217130000000000933368937694467604160308837890625},"8":{"id":"11352722","label":"Rumbas pagasts","value":"11352722","lat":56.99616999999999933379513095133006572723388671875,"lon":22.055330000000001433591023669578135013580322265625,"poi_name":"Rumbas pagasts","parent_id":"458459","long":22.055330000000001433591023669578135013580322265625},"9":{"id":"11352702","label":"Sn\u0113peles pagasts","value":"11352702","lat":56.8433500000000009322320693172514438629150390625,"lon":21.946909999999999030251274234615266323089599609375,"poi_name":"Sn\u0113peles pagasts","parent_id":"458459","long":21.946909999999999030251274234615266323089599609375},"10":{"id":"11352723","label":"Turlavas pagasts","value":"11352723","lat":56.82760999999999995679900166578590869903564453125,"lon":21.743770000000001374473868054337799549102783203125,"poi_name":"Turlavas pagasts","parent_id":"458459","long":21.743770000000001374473868054337799549102783203125},"11":{"id":"11352724","label":"V\u0101rmes pagasts","value":"11352724","lat":56.85629999999999739657141617499291896820068359375,"lon":22.18921999999999883357304497621953487396240234375,"poi_name":"V\u0101rmes pagasts","parent_id":"458459","long":22.18921999999999883357304497621953487396240234375},"12":{"id":"11352712","label":"\u0112doles pagasts","value":"11352712","lat":57.0513600000000025147528504021465778350830078125,"lon":21.683170000000000499085217597894370555877685546875,"poi_name":"\u0112doles pagasts","parent_id":"458459","long":21.683170000000000499085217597894370555877685546875},"13":{"id":"11352709","label":"\u012avandes pagasts","value":"11352709","lat":56.97005999999999659166860510595142841339111328125,"lon":21.78363999999999833789843250997364521026611328125,"poi_name":"\u012avandes pagasts","parent_id":"458459","long":21.78363999999999833789843250997364521026611328125}}