{"success":true,"remaining_lookups":8686,"0":{"id":"11352640","label":"Elejas pagasts","value":"11352640","lat":56.41958000000000339468897436745464801788330078125,"lon":23.70161999999999835608832654543220996856689453125,"poi_name":"Elejas pagasts","parent_id":"459278","long":23.70161999999999835608832654543220996856689453125},"1":{"id":"11352641","label":"Gl\u016bdas pagasts","value":"11352641","lat":56.6152900000000016689227777533233165740966796875,"lon":23.53999999999999914734871708787977695465087890625,"poi_name":"Gl\u016bdas pagasts","parent_id":"459278","long":23.53999999999999914734871708787977695465087890625},"2":{"id":"11352642","label":"Jaunsvirlaukas pagasts","value":"11352642","lat":56.57012999999999891542756813578307628631591796875,"lon":23.8918800000000004501998773775994777679443359375,"poi_name":"Jaunsvirlaukas pagasts","parent_id":"459278","long":23.8918800000000004501998773775994777679443359375},"3":{"id":"11352549","label":"Kalnciema pagasts","value":"11352549","lat":56.78717999999999932470018393360078334808349609375,"lon":23.60222999999999871079126023687422275543212890625,"poi_name":"Kalnciema pagasts","parent_id":"459278","long":23.60222999999999871079126023687422275543212890625},"4":{"id":"11352643","label":"Lielplatones pagasts","value":"11352643","lat":56.4514300000000019963408703915774822235107421875,"lon":23.64059999999999917008608463220298290252685546875,"poi_name":"Lielplatones pagasts","parent_id":"459278","long":23.64059999999999917008608463220298290252685546875},"5":{"id":"11352644","label":"L\u012bvb\u0113rzes pagasts","value":"11352644","lat":56.70669000000000181671566679142415523529052734375,"lon":23.562670000000000669615474180318415164947509765625,"poi_name":"L\u012bvb\u0113rzes pagasts","parent_id":"459278","long":23.562670000000000669615474180318415164947509765625},"6":{"id":"11352647","label":"Platones pagasts","value":"11352647","lat":56.53752999999999673264028388075530529022216796875,"lon":23.707319999999999282636053976602852344512939453125,"poi_name":"Platones pagasts","parent_id":"459278","long":23.707319999999999282636053976602852344512939453125},"7":{"id":"11352648","label":"Sesavas pagasts","value":"11352648","lat":56.40371999999999985675458447076380252838134765625,"lon":23.799070000000000391082721762359142303466796875,"poi_name":"Sesavas pagasts","parent_id":"459278","long":23.799070000000000391082721762359142303466796875},"8":{"id":"11352649","label":"Sv\u0113tes pagasts","value":"11352649","lat":56.56036000000000285581336356699466705322265625,"lon":23.623780000000000001136868377216160297393798828125,"poi_name":"Sv\u0113tes pagasts","parent_id":"459278","long":23.623780000000000001136868377216160297393798828125},"9":{"id":"11352650","label":"Valgundes pagasts","value":"11352650","lat":56.8137200000000035515768104232847690582275390625,"lon":23.62601000000000084355633589439094066619873046875,"poi_name":"Valgundes pagasts","parent_id":"459278","long":23.62601000000000084355633589439094066619873046875},"10":{"id":"11352651","label":"Vilces pagasts","value":"11352651","lat":56.39305999999999841065800865180790424346923828125,"lon":23.52680000000000148929757415316998958587646484375,"poi_name":"Vilces pagasts","parent_id":"459278","long":23.52680000000000148929757415316998958587646484375},"11":{"id":"11352652","label":"Vircavas pagasts","value":"11352652","lat":56.523200000000002773958840407431125640869140625,"lon":23.829119999999999635065250913612544536590576171875,"poi_name":"Vircavas pagasts","parent_id":"459278","long":23.829119999999999635065250913612544536590576171875},"12":{"id":"11352654","label":"Za\u013cenieku pagasts","value":"11352654","lat":56.50806999999999646888682036660611629486083984375,"lon":23.512049999999998561861502821557223796844482421875,"poi_name":"Za\u013cenieku pagasts","parent_id":"459278","long":23.512049999999998561861502821557223796844482421875}}