{"success":true,"remaining_lookups":8631,"0":{"id":"11352918","label":"Bilskas pagasts","value":"11352918","lat":57.48592000000000012960299500264227390289306640625,"lon":26.059449999999998226485331542789936065673828125,"poi_name":"Bilskas pagasts","parent_id":"7628380","long":26.059449999999998226485331542789936065673828125},"1":{"id":"11352919","label":"Blomes pagasts","value":"11352919","lat":57.4469100000000025829649530351161956787109375,"lon":25.740179999999998727844285895116627216339111328125,"poi_name":"Blomes pagasts","parent_id":"7628380","long":25.740179999999998727844285895116627216339111328125},"2":{"id":"11352920","label":"Brantu pagasts","value":"11352920","lat":57.3764800000000008139977580867707729339599609375,"lon":25.798249999999999459987520822323858737945556640625,"poi_name":"Brantu pagasts","parent_id":"7628380","long":25.798249999999999459987520822323858737945556640625},"3":{"id":"11352921","label":"Grundz\u0101les pagasts","value":"11352921","lat":57.47222000000000008412825991399586200714111328125,"lon":26.2324100000000015597834135405719280242919921875,"poi_name":"Grundz\u0101les pagasts","parent_id":"7628380","long":26.2324100000000015597834135405719280242919921875},"4":{"id":"11352922","label":"Launkalnes pagasts","value":"11352922","lat":57.34425999999999845613274374045431613922119140625,"lon":25.9317300000000017234924598596990108489990234375,"poi_name":"Launkalnes pagasts","parent_id":"7628380","long":25.9317300000000017234924598596990108489990234375},"5":{"id":"11352863","label":"Palsmanes pagasts","value":"11352863","lat":57.38253999999999876990841585211455821990966796875,"lon":26.166830000000000922000253922306001186370849609375,"poi_name":"Palsmanes pagasts","parent_id":"7628380","long":26.166830000000000922000253922306001186370849609375},"6":{"id":"11352892","label":"Smiltene","value":"11352892","lat":57.42072999999999893816493568010628223419189453125,"lon":25.9039700000000010504663805477321147918701171875,"poi_name":"Smiltene","parent_id":"7628380","long":25.9039700000000010504663805477321147918701171875},"7":{"id":"11352901","label":"Smiltenes pagasts","value":"11352901","lat":57.4578699999999997771737980656325817108154296875,"lon":25.87613999999999947476680972613394260406494140625,"poi_name":"Smiltenes pagasts","parent_id":"7628380","long":25.87613999999999947476680972613394260406494140625},"8":{"id":"11352916","label":"Vari\u0146u pagasts","value":"11352916","lat":57.31622999999999734654920757748186588287353515625,"lon":26.15574000000000154386725625954568386077880859375,"poi_name":"Vari\u0146u pagasts","parent_id":"7628380","long":26.15574000000000154386725625954568386077880859375}}