{"success":true,"remaining_lookups":8666,"0":{"id":"11352986","label":"Mazsalaca","value":"11352986","lat":57.86218999999999823558027856051921844482421875,"lon":25.052099999999999369038050645031034946441650390625,"poi_name":"Mazsalaca","parent_id":"7628371","long":25.052099999999999369038050645031034946441650390625},"1":{"id":"11352771","label":"Mazsalacas pagasts","value":"11352771","lat":57.89193999999999817873685969971120357513427734375,"lon":25.076139999999998764224073966033756732940673828125,"poi_name":"Mazsalacas pagasts","parent_id":"7628371","long":25.076139999999998764224073966033756732940673828125},"2":{"id":"11352773","label":"Ramatas pagasts","value":"11352773","lat":57.9733700000000027330315788276493549346923828125,"lon":24.9939600000000012869350030086934566497802734375,"poi_name":"Ramatas pagasts","parent_id":"7628371","long":24.9939600000000012869350030086934566497802734375},"3":{"id":"11352775","label":"Ska\u0146kalnes pagasts","value":"11352775","lat":57.85701000000000249201548285782337188720703125,"lon":24.984519999999999839701558812521398067474365234375,"poi_name":"Ska\u0146kalnes pagasts","parent_id":"7628371","long":24.984519999999999839701558812521398067474365234375},"4":{"id":"11352774","label":"S\u0113\u013cu pagasts","value":"11352774","lat":57.8690100000000029467628337442874908447265625,"lon":25.18806000000000011596057447604835033416748046875,"poi_name":"S\u0113\u013cu pagasts","parent_id":"7628371","long":25.18806000000000011596057447604835033416748046875}}