{"success":true,"remaining_lookups":8649,"0":{"id":"11352859","label":"Gal\u0113nu pagasts","value":"11352859","lat":56.4594900000000023965185391716659069061279296875,"lon":26.84740000000000037516656448133289813995361328125,"poi_name":"Gal\u0113nu pagasts","parent_id":"7628344","long":26.84740000000000037516656448133289813995361328125},"1":{"id":"11352860","label":"Riebi\u0146u pagasts","value":"11352860","lat":56.34696000000000282170731225050985813140869140625,"lon":26.761089999999999378132997662760317325592041015625,"poi_name":"Riebi\u0146u pagasts","parent_id":"7628344","long":26.761089999999999378132997662760317325592041015625},"2":{"id":"11352861","label":"Ru\u0161onas pagasts","value":"11352861","lat":56.22867000000000103909769677557051181793212890625,"lon":26.915259999999999962483343551866710186004638671875,"poi_name":"Ru\u0161onas pagasts","parent_id":"7628344","long":26.915259999999999962483343551866710186004638671875},"3":{"id":"11352862","label":"Silaj\u0101\u0146u pagasts","value":"11352862","lat":56.3545500000000032514435588382184505462646484375,"lon":26.9069199999999995043253875337541103363037109375,"poi_name":"Silaj\u0101\u0146u pagasts","parent_id":"7628344","long":26.9069199999999995043253875337541103363037109375},"4":{"id":"11352865","label":"Stabulnieku pagasts","value":"11352865","lat":56.4427299999999974033926264382898807525634765625,"lon":26.743849999999998345856511150486767292022705078125,"poi_name":"Stabulnieku pagasts","parent_id":"7628344","long":26.743849999999998345856511150486767292022705078125},"5":{"id":"11352864","label":"S\u012b\u013cukalna pagasts","value":"11352864","lat":56.50619999999999976125764078460633754730224609375,"lon":26.681850000000000733280103304423391819000244140625,"poi_name":"S\u012b\u013cukalna pagasts","parent_id":"7628344","long":26.681850000000000733280103304423391819000244140625}}