{"success":true,"remaining_lookups":8704,"0":{"id":"11352530","label":"Andrupenes pagasts","value":"11352530","lat":56.14773000000000280351741821505129337310791015625,"lon":27.36946999999999974306774674914777278900146484375,"poi_name":"Andrupenes pagasts","parent_id":"7628350","long":27.36946999999999974306774674914777278900146484375},"1":{"id":"11352532","label":"Andze\u013cu pagasts","value":"11352532","lat":56.187759999999997262420947663486003875732421875,"lon":27.526830000000000353566065314225852489471435546875,"poi_name":"Andze\u013cu pagasts","parent_id":"7628350","long":27.526830000000000353566065314225852489471435546875},"2":{"id":"11352534","label":"As\u016bnes pagasts","value":"11352534","lat":56.03446999999999889041646383702754974365234375,"lon":27.597339999999999093915903358720242977142333984375,"poi_name":"As\u016bnes pagasts","parent_id":"7628350","long":27.597339999999999093915903358720242977142333984375},"3":{"id":"11352535","label":"B\u0113rzi\u0146u pagasts","value":"11352535","lat":56.0828699999999997771737980656325817108154296875,"lon":27.84687999999999874489731155335903167724609375,"poi_name":"B\u0113rzi\u0146u pagasts","parent_id":"7628350","long":27.84687999999999874489731155335903167724609375},"4":{"id":"11352536","label":"Dagda","value":"11352536","lat":56.09705999999999903593561612069606781005859375,"lon":27.531890000000000640056896372698247432708740234375,"poi_name":"Dagda","parent_id":"7628350","long":27.531890000000000640056896372698247432708740234375},"5":{"id":"11352538","label":"Dagdas pagasts","value":"11352538","lat":56.09940999999999888814272708259522914886474609375,"lon":27.55178000000000082536644185893237590789794921875,"poi_name":"Dagdas pagasts","parent_id":"7628350","long":27.55178000000000082536644185893237590789794921875},"6":{"id":"11352539","label":"Ezernieku pagasts","value":"11352539","lat":56.1805499999999966576069709844887256622314453125,"lon":27.6761699999999990495780366472899913787841796875,"poi_name":"Ezernieku pagasts","parent_id":"7628350","long":27.6761699999999990495780366472899913787841796875},"7":{"id":"11352541","label":"Konstantinovas pagasts","value":"11352541","lat":56.068950000000000954969436861574649810791015625,"lon":27.428999999999998493649400188587605953216552734375,"poi_name":"Konstantinovas pagasts","parent_id":"7628350","long":27.428999999999998493649400188587605953216552734375},"8":{"id":"11352543","label":"Svari\u0146u pagasts","value":"11352543","lat":56.10215000000000173940861714072525501251220703125,"lon":27.718450000000000699174051987938582897186279296875,"poi_name":"Svari\u0146u pagasts","parent_id":"7628350","long":27.718450000000000699174051987938582897186279296875},"9":{"id":"11352540","label":"\u0136epovas pagasts","value":"11352540","lat":56.0137399999999985311660566367208957672119140625,"lon":27.750460000000000349018591805361211299896240234375,"poi_name":"\u0136epovas pagasts","parent_id":"7628350","long":27.750460000000000349018591805361211299896240234375},"10":{"id":"11352542","label":"\u0160\u0137aunes pagasts","value":"11352542","lat":56.16253999999999990677679306827485561370849609375,"lon":27.94977000000000089130480773746967315673828125,"poi_name":"\u0160\u0137aunes pagasts","parent_id":"7628350","long":27.94977000000000089130480773746967315673828125}}