{"success":true,"remaining_lookups":8696,"0":{"id":"11352595","label":"B\u0101rtas pagasts","value":"11352595","lat":56.3777299999999996771293808706104755401611328125,"lon":21.32851000000000141199052450247108936309814453125,"poi_name":"B\u0101rtas pagasts","parent_id":"7628303","long":21.32851000000000141199052450247108936309814453125},"1":{"id":"11352596","label":"Gaviezes pagasts","value":"11352596","lat":56.46938000000000101863406598567962646484375,"lon":21.31336999999999903820935287512838840484619140625,"poi_name":"Gaviezes pagasts","parent_id":"7628303","long":21.31336999999999903820935287512838840484619140625},"2":{"id":"11352985","label":"Grobi\u0146a","value":"11352985","lat":56.53875000000000028421709430404007434844970703125,"lon":21.166820000000001300577423535287380218505859375,"poi_name":"Grobi\u0146a","parent_id":"7628303","long":21.166820000000001300577423535287380218505859375},"3":{"id":"11352597","label":"Grobi\u0146as pagasts","value":"11352597","lat":56.50822000000000144837031257338821887969970703125,"lon":21.1691900000000003956301952712237834930419921875,"poi_name":"Grobi\u0146as pagasts","parent_id":"7628303","long":21.1691900000000003956301952712237834930419921875},"4":{"id":"11352599","label":"Medzes pagasts","value":"11352599","lat":56.610140000000001236912794411182403564453125,"lon":21.154849999999999710098563809879124164581298828125,"poi_name":"Medzes pagasts","parent_id":"7628303","long":21.154849999999999710098563809879124164581298828125}}