{"success":true,"remaining_lookups":8678,"0":{"id":"11352705","label":"Ata\u0161ienes pagasts","value":"11352705","lat":56.545479999999997744453139603137969970703125,"lon":26.452079999999998705106918350793421268463134765625,"poi_name":"Ata\u0161ienes pagasts","parent_id":"7628355","long":26.452079999999998705106918350793421268463134765625},"1":{"id":"11352706","label":"Krustpils pagasts","value":"11352706","lat":56.56855999999999795591065776534378528594970703125,"lon":25.82775000000000176214598468504846096038818359375,"poi_name":"Krustpils pagasts","parent_id":"7628355","long":25.82775000000000176214598468504846096038818359375},"2":{"id":"11352689","label":"K\u016bku pagasts","value":"11352689","lat":56.51910000000000167119651450775563716888427734375,"lon":26.019929999999998671000867034308612346649169921875,"poi_name":"K\u016bku pagasts","parent_id":"7628355","long":26.019929999999998671000867034308612346649169921875},"3":{"id":"11352707","label":"Me\u017e\u0101res pagasts","value":"11352707","lat":56.5555599999999998317434801720082759857177734375,"lon":26.220819999999999794226823723874986171722412109375,"poi_name":"Me\u017e\u0101res pagasts","parent_id":"7628355","long":26.220819999999999794226823723874986171722412109375},"4":{"id":"11352710","label":"Varie\u0161u pagasts","value":"11352710","lat":56.6032799999999980400389176793396472930908203125,"lon":26.01514999999999844249032321386039257049560546875,"poi_name":"Varie\u0161u pagasts","parent_id":"7628355","long":26.01514999999999844249032321386039257049560546875},"5":{"id":"11352711","label":"V\u012bpes pagasts","value":"11352711","lat":56.46961999999999903820935287512838840484619140625,"lon":26.117020000000000123918653116561472415924072265625,"poi_name":"V\u012bpes pagasts","parent_id":"7628355","long":26.117020000000000123918653116561472415924072265625}}