{"success":true,"remaining_lookups":8639,"0":{"id":"11352837","label":"Aina\u017ei","value":"11352837","lat":57.85860000000000269437805400229990482330322265625,"lon":24.355599999999999027977537480182945728302001953125,"poi_name":"Aina\u017ei","parent_id":"7628367","long":24.355599999999999027977537480182945728302001953125},"1":{"id":"11352853","label":"Aina\u017eu pagasts","value":"11352853","lat":57.87075999999999709189069108106195926666259765625,"lon":24.50207999999999941564965411089360713958740234375,"poi_name":"Aina\u017eu pagasts","parent_id":"7628367","long":24.50207999999999941564965411089360713958740234375},"2":{"id":"11352880","label":"Liepupes pagasts","value":"11352880","lat":57.4844599999999985584508976899087429046630859375,"lon":24.461690000000000821955836727283895015716552734375,"poi_name":"Liepupes pagasts","parent_id":"7628367","long":24.461690000000000821955836727283895015716552734375},"3":{"id":"11352881","label":"Salacgr\u012bva","value":"11352881","lat":57.75647000000000019781509763561189174652099609375,"lon":24.362159999999999371311787399463355541229248046875,"poi_name":"Salacgr\u012bva","parent_id":"7628367","long":24.362159999999999371311787399463355541229248046875},"4":{"id":"11352882","label":"Salacgr\u012bvas pagasts","value":"11352882","lat":57.730220000000002755768946371972560882568359375,"lon":24.48038999999999987267074175179004669189453125,"poi_name":"Salacgr\u012bvas pagasts","parent_id":"7628367","long":24.48038999999999987267074175179004669189453125}}