{"success":true,"remaining_lookups":8468,"0":{"id":"8583859","label":"Abal\u00e1","value":"8583859","lat":20.664929999999998244675225578248500823974609375,"lon":-89.65672000000000707586877979338169097900390625,"poi_name":"Abal\u00e1","parent_id":"3514211","long":-89.65672000000000707586877979338169097900390625},"1":{"id":"8583860","label":"Acanceh","value":"8583860","lat":20.842189999999998661905920016579329967498779296875,"lon":-89.453440000000000509317032992839813232421875,"poi_name":"Acanceh","parent_id":"3514211","long":-89.453440000000000509317032992839813232421875},"2":{"id":"8583861","label":"Akil","value":"8583861","lat":20.2640099999999989677235134877264499664306640625,"lon":-89.3485199999999935016603558324277400970458984375,"poi_name":"Akil","parent_id":"3514211","long":-89.3485199999999935016603558324277400970458984375},"3":{"id":"8583862","label":"Baca","value":"8583862","lat":21.115809999999999746478351880796253681182861328125,"lon":-89.402029999999996334736351855099201202392578125,"poi_name":"Baca","parent_id":"3514211","long":-89.402029999999996334736351855099201202392578125},"4":{"id":"8583863","label":"Bokob\u00e1","value":"8583863","lat":21.006409999999998916564436512999236583709716796875,"lon":-89.176410000000004174580681137740612030029296875,"poi_name":"Bokob\u00e1","parent_id":"3514211","long":-89.176410000000004174580681137740612030029296875},"5":{"id":"8583864","label":"Buctzotz","value":"8583864","lat":21.2237200000000001409716787748038768768310546875,"lon":-88.6697999999999950659912428818643093109130859375,"poi_name":"Buctzotz","parent_id":"3514211","long":-88.6697999999999950659912428818643093109130859375},"6":{"id":"8583865","label":"Cacalch\u00e9n","value":"8583865","lat":20.988040000000001583657649462111294269561767578125,"lon":-89.238020000000005893525667488574981689453125,"poi_name":"Cacalch\u00e9n","parent_id":"3514211","long":-89.238020000000005893525667488574981689453125},"7":{"id":"8583866","label":"Calotmul","value":"8583866","lat":21.0249400000000008503775461576879024505615234375,"lon":-88.12581000000000130967237055301666259765625,"poi_name":"Calotmul","parent_id":"3514211","long":-88.12581000000000130967237055301666259765625},"8":{"id":"8583867","label":"Cansahcab","value":"8583867","lat":21.165780000000001592752596479840576648712158203125,"lon":-89.08881999999999834471964277327060699462890625,"poi_name":"Cansahcab","parent_id":"3514211","long":-89.08881999999999834471964277327060699462890625},"9":{"id":"8583868","label":"Cantamayec","value":"8583868","lat":20.431860000000000354702933691442012786865234375,"lon":-89.0717599999999976034814608283340930938720703125,"poi_name":"Cantamayec","parent_id":"3514211","long":-89.0717599999999976034814608283340930938720703125},"10":{"id":"8583869","label":"Celest\u00fan","value":"8583869","lat":20.887100000000000221689333557151257991790771484375,"lon":-90.308549999999996771293808706104755401611328125,"poi_name":"Celest\u00fan","parent_id":"3514211","long":-90.308549999999996771293808706104755401611328125},"11":{"id":"8583870","label":"Cenotillo","value":"8583870","lat":21.064009999999999678266249247826635837554931640625,"lon":-88.5838700000000045520209823735058307647705078125,"poi_name":"Cenotillo","parent_id":"3514211","long":-88.5838700000000045520209823735058307647705078125},"12":{"id":"8583874","label":"Chacsink\u00edn","value":"8583874","lat":20.181760000000000587760951020754873752593994140625,"lon":-89.00785999999999376086634583771228790283203125,"poi_name":"Chacsink\u00edn","parent_id":"3514211","long":-89.00785999999999376086634583771228790283203125},"13":{"id":"8583875","label":"Chankom","value":"8583875","lat":20.496559999999998780140231247060000896453857421875,"lon":-88.5692800000000062254912336356937885284423828125,"poi_name":"Chankom","parent_id":"3514211","long":-88.5692800000000062254912336356937885284423828125},"14":{"id":"8583876","label":"Chapab","value":"8583876","lat":20.486329999999998818793756072409451007843017578125,"lon":-89.4677899999999937108441372402012348175048828125,"poi_name":"Chapab","parent_id":"3514211","long":-89.4677899999999937108441372402012348175048828125},"15":{"id":"8583877","label":"Chemax","value":"8583877","lat":20.72491000000000127556631923653185367584228515625,"lon":-87.879400000000003956301952712237834930419921875,"poi_name":"Chemax","parent_id":"3514211","long":-87.879400000000003956301952712237834930419921875},"16":{"id":"8583879","label":"Chichimil\u00e1","value":"8583879","lat":20.466409999999999769215719425119459629058837890625,"lon":-88.180440000000004374669515527784824371337890625,"poi_name":"Chichimil\u00e1","parent_id":"3514211","long":-88.180440000000004374669515527784824371337890625},"17":{"id":"8583878","label":"Chicxulub Pueblo","value":"8583878","lat":21.145270000000000010231815394945442676544189453125,"lon":-89.5133100000000041518433135934174060821533203125,"poi_name":"Chicxulub Pueblo","parent_id":"3514211","long":-89.5133100000000041518433135934174060821533203125},"18":{"id":"8583880","label":"Chikindzonot","value":"8583880","lat":20.260239999999999582769305561669170856475830078125,"lon":-88.547100000000000363797880709171295166015625,"poi_name":"Chikindzonot","parent_id":"3514211","long":-88.547100000000000363797880709171295166015625},"19":{"id":"8583881","label":"Chochol\u00e1","value":"8583881","lat":20.7511200000000002319211489520967006683349609375,"lon":-89.845470000000005939000402577221393585205078125,"poi_name":"Chochol\u00e1","parent_id":"3514211","long":-89.845470000000005939000402577221393585205078125},"20":{"id":"8583882","label":"Chumayel","value":"8583882","lat":20.453559999999999519104676437564194202423095703125,"lon":-89.2932100000000019690560293383896350860595703125,"poi_name":"Chumayel","parent_id":"3514211","long":-89.2932100000000019690560293383896350860595703125},"21":{"id":"8583871","label":"Conkal","value":"8583871","lat":21.081430000000001001581040327437222003936767578125,"lon":-89.516829999999998790372046642005443572998046875,"poi_name":"Conkal","parent_id":"3514211","long":-89.516829999999998790372046642005443572998046875},"22":{"id":"8583872","label":"Cuncunul","value":"8583872","lat":20.623329999999999273541106958873569965362548828125,"lon":-88.3463699999999931833372102119028568267822265625,"poi_name":"Cuncunul","parent_id":"3514211","long":-88.3463699999999931833372102119028568267822265625},"23":{"id":"8583873","label":"Cuzam\u00e1","value":"8583873","lat":20.721759999999999735109668108634650707244873046875,"lon":-89.33463000000000420186552219092845916748046875,"poi_name":"Cuzam\u00e1","parent_id":"3514211","long":-89.33463000000000420186552219092845916748046875},"24":{"id":"8583884","label":"Dzemul","value":"8583884","lat":21.248560000000001224407242261804640293121337890625,"lon":-89.33220000000000027284841053187847137451171875,"poi_name":"Dzemul","parent_id":"3514211","long":-89.33220000000000027284841053187847137451171875},"25":{"id":"8583885","label":"Dzidzant\u00fan","value":"8583885","lat":21.289320000000000021600499167107045650482177734375,"lon":-89.0284400000000033514879760332405567169189453125,"poi_name":"Dzidzant\u00fan","parent_id":"3514211","long":-89.0284400000000033514879760332405567169189453125},"26":{"id":"8583887","label":"Dzilam Gonz\u00e1lez","value":"8583887","lat":21.3358699999999998908606357872486114501953125,"lon":-88.7228900000000066938810050487518310546875,"poi_name":"Dzilam Gonz\u00e1lez","parent_id":"3514211","long":-88.7228900000000066938810050487518310546875},"27":{"id":"8583886","label":"Dzilam de Bravo","value":"8583886","lat":21.4336100000000016052581486292183399200439453125,"lon":-88.6683799999999990859578247182071208953857421875,"poi_name":"Dzilam de Bravo","parent_id":"3514211","long":-88.6683799999999990859578247182071208953857421875},"28":{"id":"8583888","label":"Dzit\u00e1s","value":"8583888","lat":20.827709999999999723740984336473047733306884765625,"lon":-88.520589999999998553903424181044101715087890625,"poi_name":"Dzit\u00e1s","parent_id":"3514211","long":-88.520589999999998553903424181044101715087890625},"29":{"id":"8583889","label":"Dzoncauich","value":"8583889","lat":21.098259999999999791953086969442665576934814453125,"lon":-88.8540200000000055524651543237268924713134765625,"poi_name":"Dzoncauich","parent_id":"3514211","long":-88.8540200000000055524651543237268924713134765625},"30":{"id":"8583883","label":"Dz\u00e1n","value":"8583883","lat":20.3903600000000011505107977427542209625244140625,"lon":-89.461849999999998317434801720082759857177734375,"poi_name":"Dz\u00e1n","parent_id":"3514211","long":-89.461849999999998317434801720082759857177734375},"31":{"id":"8583890","label":"Espita","value":"8583890","lat":21.035160000000001190301190945319831371307373046875,"lon":-88.36453000000000201907823793590068817138671875,"poi_name":"Espita","parent_id":"3514211","long":-88.36453000000000201907823793590068817138671875},"32":{"id":"8583891","label":"Halach\u00f3","value":"8583891","lat":20.505880000000001217586031998507678508758544921875,"lon":-90.1138399999999961664798320271074771881103515625,"poi_name":"Halach\u00f3","parent_id":"3514211","long":-90.1138399999999961664798320271074771881103515625},"33":{"id":"8583892","label":"Hocab\u00e1","value":"8583892","lat":20.808409999999998518660504487343132495880126953125,"lon":-89.237899999999996225596987642347812652587890625,"poi_name":"Hocab\u00e1","parent_id":"3514211","long":-89.237899999999996225596987642347812652587890625},"34":{"id":"8583893","label":"Hoct\u00fan","value":"8583893","lat":20.872710000000001429043550160713493824005126953125,"lon":-89.196470000000005029505700804293155670166015625,"poi_name":"Hoct\u00fan","parent_id":"3514211","long":-89.196470000000005029505700804293155670166015625},"35":{"id":"8583894","label":"Hom\u00fan","value":"8583894","lat":20.690580000000000637783159618265926837921142578125,"lon":-89.2446400000000039653968997299671173095703125,"poi_name":"Hom\u00fan","parent_id":"3514211","long":-89.2446400000000039653968997299671173095703125},"36":{"id":"8583895","label":"Huh\u00ed","value":"8583895","lat":20.70776000000000038880898500792682170867919921875,"lon":-89.1523399999999952569851302541792392730712890625,"poi_name":"Huh\u00ed","parent_id":"3514211","long":-89.1523399999999952569851302541792392730712890625},"37":{"id":"8583896","label":"Hunucm\u00e1","value":"8583896","lat":21.030930000000001456328391213901340961456298828125,"lon":-89.88047000000000252839527092874050140380859375,"poi_name":"Hunucm\u00e1","parent_id":"3514211","long":-89.88047000000000252839527092874050140380859375},"38":{"id":"8583897","label":"Ixil","value":"8583897","lat":21.178039999999999309920895029790699481964111328125,"lon":-89.4792400000000043291947804391384124755859375,"poi_name":"Ixil","parent_id":"3514211","long":-89.4792400000000043291947804391384124755859375},"39":{"id":"8583898","label":"Izamal","value":"8583898","lat":20.9313700000000011414158507250249385833740234375,"lon":-88.9965799999999944702722132205963134765625,"poi_name":"Izamal","parent_id":"3514211","long":-88.9965799999999944702722132205963134765625},"40":{"id":"8583899","label":"Kanas\u00edn","value":"8583899","lat":20.925630000000001729176801745779812335968017578125,"lon":-89.532769999999999299689079634845256805419921875,"poi_name":"Kanas\u00edn","parent_id":"3514211","long":-89.532769999999999299689079634845256805419921875},"41":{"id":"8583900","label":"Kantunil","value":"8583900","lat":20.78056000000000125282895169220864772796630859375,"lon":-88.9998599999999981946530169807374477386474609375,"poi_name":"Kantunil","parent_id":"3514211","long":-88.9998599999999981946530169807374477386474609375},"42":{"id":"8583901","label":"Kaua","value":"8583901","lat":20.624759999999998427711034310050308704376220703125,"lon":-88.4244000000000056616045185364782810211181640625,"poi_name":"Kaua","parent_id":"3514211","long":-88.4244000000000056616045185364782810211181640625},"43":{"id":"8583902","label":"Kinchil","value":"8583902","lat":20.88262999999999891542756813578307628631591796875,"lon":-90.009669999999999845385900698602199554443359375,"poi_name":"Kinchil","parent_id":"3514211","long":-90.009669999999999845385900698602199554443359375},"44":{"id":"8583903","label":"Kopom\u00e1","value":"8583903","lat":20.642579999999998818793756072409451007843017578125,"lon":-89.9076500000000038426151149906218051910400390625,"poi_name":"Kopom\u00e1","parent_id":"3514211","long":-89.9076500000000038426151149906218051910400390625},"45":{"id":"8583904","label":"Mama","value":"8583904","lat":20.49667000000000172121872310526669025421142578125,"lon":-89.3769400000000047157300286926329135894775390625,"poi_name":"Mama","parent_id":"3514211","long":-89.3769400000000047157300286926329135894775390625},"46":{"id":"8583905","label":"Man\u00ed","value":"8583905","lat":20.37096999999999979991116560995578765869140625,"lon":-89.377600000000001045918907038867473602294921875,"poi_name":"Man\u00ed","parent_id":"3514211","long":-89.377600000000001045918907038867473602294921875},"47":{"id":"8583906","label":"Maxcan\u00fa","value":"8583906","lat":20.6247800000000012232703738845884799957275390625,"lon":-90.04977999999999838109943084418773651123046875,"poi_name":"Maxcan\u00fa","parent_id":"3514211","long":-90.04977999999999838109943084418773651123046875},"48":{"id":"8583907","label":"Mayap\u00e1n","value":"8583907","lat":20.494820000000000703721525496803224086761474609375,"lon":-89.1910500000000041609382606111466884613037109375,"poi_name":"Mayap\u00e1n","parent_id":"3514211","long":-89.1910500000000041609382606111466884613037109375},"49":{"id":"8583909","label":"Mococh\u00e1","value":"8583909","lat":21.111000000000000653699316899292171001434326171875,"lon":-89.4540300000000030422597774304449558258056640625,"poi_name":"Mococh\u00e1","parent_id":"3514211","long":-89.4540300000000030422597774304449558258056640625},"50":{"id":"8583910","label":"Motul","value":"8583910","lat":21.1210099999999982856024871580302715301513671875,"lon":-89.2849899999999934152583591639995574951171875,"poi_name":"Motul","parent_id":"3514211","long":-89.2849899999999934152583591639995574951171875},"51":{"id":"8583911","label":"Muna","value":"8583911","lat":20.48149000000000086174622992984950542449951171875,"lon":-89.7227599999999938518158160150051116943359375,"poi_name":"Muna","parent_id":"3514211","long":-89.7227599999999938518158160150051116943359375},"52":{"id":"8583912","label":"Muxupip","value":"8583912","lat":21.047280000000000654836185276508331298828125,"lon":-89.32810000000000627551344223320484161376953125,"poi_name":"Muxupip","parent_id":"3514211","long":-89.32810000000000627551344223320484161376953125},"53":{"id":"8583908","label":"M\u00e9rida","value":"8583908","lat":20.9952100000000001500666257925331592559814453125,"lon":-89.61615000000000463842297904193401336669921875,"poi_name":"M\u00e9rida","parent_id":"3514211","long":-89.61615000000000463842297904193401336669921875},"54":{"id":"8583913","label":"Opich\u00e9n","value":"8583913","lat":20.55769000000000090722096501849591732025146484375,"lon":-89.872399999999998954081092961132526397705078125,"poi_name":"Opich\u00e9n","parent_id":"3514211","long":-89.872399999999998954081092961132526397705078125},"55":{"id":"8583914","label":"Oxkutzcab","value":"8583914","lat":20.240860000000001406306182616390287876129150390625,"lon":-89.445999999999997953636921010911464691162109375,"poi_name":"Oxkutzcab","parent_id":"3514211","long":-89.445999999999997953636921010911464691162109375},"56":{"id":"8583915","label":"Panab\u00e1","value":"8583915","lat":21.34649999999999891997504164464771747589111328125,"lon":-88.29604000000000496584107168018817901611328125,"poi_name":"Panab\u00e1","parent_id":"3514211","long":-88.29604000000000496584107168018817901611328125},"57":{"id":"8583916","label":"Peto","value":"8583916","lat":20.07423000000000001818989403545856475830078125,"lon":-88.8442500000000023874235921539366245269775390625,"poi_name":"Peto","parent_id":"3514211","long":-88.8442500000000023874235921539366245269775390625},"58":{"id":"8583917","label":"Progreso","value":"8583917","lat":21.235209999999998586872607120312750339508056640625,"lon":-89.6204699999999974124875734560191631317138671875,"poi_name":"Progreso","parent_id":"3514211","long":-89.6204699999999974124875734560191631317138671875},"59":{"id":"8583918","label":"Quintana Roo","value":"8583918","lat":20.844639999999998281055013649165630340576171875,"lon":-88.650810000000006994014256633818149566650390625,"poi_name":"Quintana Roo","parent_id":"3514211","long":-88.650810000000006994014256633818149566650390625},"60":{"id":"8583919","label":"R\u00edo Lagartos","value":"8583919","lat":21.502410000000001133457772084511816501617431640625,"lon":-88.1244300000000038153302739374339580535888671875,"poi_name":"R\u00edo Lagartos","parent_id":"3514211","long":-88.1244300000000038153302739374339580535888671875},"61":{"id":"8583920","label":"Sacalum","value":"8583920","lat":20.519749999999998379962562466971576213836669921875,"lon":-89.60894999999999299689079634845256805419921875,"poi_name":"Sacalum","parent_id":"3514211","long":-89.60894999999999299689079634845256805419921875},"62":{"id":"8583921","label":"Samahil","value":"8583921","lat":20.864329999999998932480593794025480747222900390625,"lon":-89.9139799999999951296558720059692859649658203125,"poi_name":"Samahil","parent_id":"3514211","long":-89.9139799999999951296558720059692859649658203125},"63":{"id":"8583923","label":"San Felipe","value":"8583923","lat":21.461600000000000676436684443615376949310302734375,"lon":-88.2667000000000001591615728102624416351318359375,"poi_name":"San Felipe","parent_id":"3514211","long":-88.2667000000000001591615728102624416351318359375},"64":{"id":"8583922","label":"Sanahcat","value":"8583922","lat":20.775870000000001169837560155428946018218994140625,"lon":-89.2109099999999983765519573353230953216552734375,"poi_name":"Sanahcat","parent_id":"3514211","long":-89.2109099999999983765519573353230953216552734375},"65":{"id":"8583924","label":"Santa Elena","value":"8583924","lat":20.309809999999998808561940677464008331298828125,"lon":-89.71264999999999645297066308557987213134765625,"poi_name":"Santa Elena","parent_id":"3514211","long":-89.71264999999999645297066308557987213134765625},"66":{"id":"8583925","label":"Sey\u00e9","value":"8583925","lat":20.851710000000000633235686109401285648345947265625,"lon":-89.3728899999999981673681759275496006011962890625,"poi_name":"Sey\u00e9","parent_id":"3514211","long":-89.3728899999999981673681759275496006011962890625},"67":{"id":"8583926","label":"Sinanch\u00e9","value":"8583926","lat":21.276230000000001751914169290103018283843994140625,"lon":-89.2009599999999949204720905981957912445068359375,"poi_name":"Sinanch\u00e9","parent_id":"3514211","long":-89.2009599999999949204720905981957912445068359375},"68":{"id":"8583927","label":"Sotuta","value":"8583927","lat":20.59803000000000139380063046701252460479736328125,"lon":-89.0044099999999929195837466977536678314208984375,"poi_name":"Sotuta","parent_id":"3514211","long":-89.0044099999999929195837466977536678314208984375},"69":{"id":"8583928","label":"Sucil\u00e1","value":"8583928","lat":21.212469999999999714646037318743765354156494140625,"lon":-88.37851000000000567524693906307220458984375,"poi_name":"Sucil\u00e1","parent_id":"3514211","long":-88.37851000000000567524693906307220458984375},"70":{"id":"8583929","label":"Sudzal","value":"8583929","lat":20.81427000000000049340087571181356906890869140625,"lon":-88.9003000000000014324541552923619747161865234375,"poi_name":"Sudzal","parent_id":"3514211","long":-88.9003000000000014324541552923619747161865234375},"71":{"id":"8583186","label":"Suma","value":"8583186","lat":21.10591000000000150293999467976391315460205078125,"lon":-89.1548700000000025056579033844172954559326171875,"poi_name":"Suma","parent_id":"3514211","long":-89.1548700000000025056579033844172954559326171875},"72":{"id":"8583291","label":"Tahdzi\u00fa","value":"8583291","lat":20.2421700000000015506884665228426456451416015625,"lon":-88.9097699999999946385287330485880374908447265625,"poi_name":"Tahdzi\u00fa","parent_id":"3514211","long":-88.9097699999999946385287330485880374908447265625},"73":{"id":"8583930","label":"Tahmek","value":"8583930","lat":20.8815799999999995861799106933176517486572265625,"lon":-89.28248999999999568899511359632015228271484375,"poi_name":"Tahmek","parent_id":"3514211","long":-89.28248999999999568899511359632015228271484375},"74":{"id":"8583931","label":"Teabo","value":"8583931","lat":20.387709999999998444764059968292713165283203125,"lon":-89.2420699999999982310328050516545772552490234375,"poi_name":"Teabo","parent_id":"3514211","long":-89.2420699999999982310328050516545772552490234375},"75":{"id":"8583932","label":"Tecoh","value":"8583932","lat":20.696400000000000574118530494160950183868408203125,"lon":-89.451740000000000918589648790657520294189453125,"poi_name":"Tecoh","parent_id":"3514211","long":-89.451740000000000918589648790657520294189453125},"76":{"id":"8583933","label":"Tekal de Venegas","value":"8583933","lat":21.01671999999999940200723358429968357086181640625,"lon":-88.861040000000002692104317247867584228515625,"poi_name":"Tekal de Venegas","parent_id":"3514211","long":-88.861040000000002692104317247867584228515625},"77":{"id":"8583934","label":"Tekant\u00f3","value":"8583934","lat":21.005849999999998800603862036950886249542236328125,"lon":-89.1055199999999985038812155835330486297607421875,"poi_name":"Tekant\u00f3","parent_id":"3514211","long":-89.1055199999999985038812155835330486297607421875},"78":{"id":"8583935","label":"Tekax","value":"8583935","lat":20.040389999999998593693817383609712123870849609375,"lon":-89.2644800000000060435922932811081409454345703125,"poi_name":"Tekax","parent_id":"3514211","long":-89.2644800000000060435922932811081409454345703125},"79":{"id":"8583936","label":"Tekit","value":"8583936","lat":20.5505500000000012050804798491299152374267578125,"lon":-89.2873100000000050613380153663456439971923828125,"poi_name":"Tekit","parent_id":"3514211","long":-89.2873100000000050613380153663456439971923828125},"80":{"id":"8583937","label":"Tekom","value":"8583937","lat":20.53020000000000067075234255753457546234130859375,"lon":-88.34591000000000349245965480804443359375,"poi_name":"Tekom","parent_id":"3514211","long":-88.34591000000000349245965480804443359375},"81":{"id":"8583938","label":"Telchac Pueblo","value":"8583938","lat":21.1957799999999991769072948954999446868896484375,"lon":-89.2695700000000016416379367001354694366455078125,"poi_name":"Telchac Pueblo","parent_id":"3514211","long":-89.2695700000000016416379367001354694366455078125},"82":{"id":"8583939","label":"Telchac Puerto","value":"8583939","lat":21.313590000000001367652657791040837764739990234375,"lon":-89.2646299999999968122210702858865261077880859375,"poi_name":"Telchac Puerto","parent_id":"3514211","long":-89.2646299999999968122210702858865261077880859375},"83":{"id":"8583940","label":"Temax","value":"8583940","lat":21.161359999999998393604982993565499782562255859375,"lon":-88.9067500000000023874235921539366245269775390625,"poi_name":"Temax","parent_id":"3514211","long":-88.9067500000000023874235921539366245269775390625},"84":{"id":"8583941","label":"Temoz\u00f3n","value":"8583941","lat":20.86317999999999983629095368087291717529296875,"lon":-88.1212799999999987221599440090358257293701171875,"poi_name":"Temoz\u00f3n","parent_id":"3514211","long":-88.1212799999999987221599440090358257293701171875},"85":{"id":"8583942","label":"Tepak\u00e1n","value":"8583942","lat":21.06184999999999973852027324028313159942626953125,"lon":-89.02240000000000463842297904193401336669921875,"poi_name":"Tepak\u00e1n","parent_id":"3514211","long":-89.02240000000000463842297904193401336669921875},"86":{"id":"8583943","label":"Tetiz","value":"8583943","lat":20.97037999999999868805389269255101680755615234375,"lon":-89.95656999999999925421434454619884490966796875,"poi_name":"Tetiz","parent_id":"3514211","long":-89.95656999999999925421434454619884490966796875},"87":{"id":"8583944","label":"Teya","value":"8583944","lat":21.06848000000000098452801466919481754302978515625,"lon":-89.0714200000000033696778700686991214752197265625,"poi_name":"Teya","parent_id":"3514211","long":-89.0714200000000033696778700686991214752197265625},"88":{"id":"8583945","label":"Ticul","value":"8583945","lat":20.380160000000000053432813729159533977508544921875,"lon":-89.5270900000000011687006917782127857208251953125,"poi_name":"Ticul","parent_id":"3514211","long":-89.5270900000000011687006917782127857208251953125},"89":{"id":"8583946","label":"Timucuy","value":"8583946","lat":20.831779999999998409521140274591743946075439453125,"lon":-89.5274399999999985766407917253673076629638671875,"poi_name":"Timucuy","parent_id":"3514211","long":-89.5274399999999985766407917253673076629638671875},"90":{"id":"8583947","label":"Tinum","value":"8583947","lat":20.70004000000000132786226458847522735595703125,"lon":-88.516310000000004265530151315033435821533203125,"poi_name":"Tinum","parent_id":"3514211","long":-88.516310000000004265530151315033435821533203125},"91":{"id":"8583948","label":"Tixcacalcupul","value":"8583948","lat":20.439289999999999736246536485850811004638671875,"lon":-88.3002800000000007685230229981243610382080078125,"poi_name":"Tixcacalcupul","parent_id":"3514211","long":-88.3002800000000007685230229981243610382080078125},"92":{"id":"8583949","label":"Tixkokob","value":"8583949","lat":20.981100000000001415401129634119570255279541015625,"lon":-89.380619999999993297024047933518886566162109375,"poi_name":"Tixkokob","parent_id":"3514211","long":-89.380619999999993297024047933518886566162109375},"93":{"id":"8583950","label":"Tixmehuac","value":"8583950","lat":20.2468199999999995952748577110469341278076171875,"lon":-89.0869500000000016370904631912708282470703125,"poi_name":"Tixmehuac","parent_id":"3514211","long":-89.0869500000000016370904631912708282470703125},"94":{"id":"8583951","label":"Tixp\u00e9hual","value":"8583951","lat":20.96761000000000052523319027386605739593505859375,"lon":-89.4674399999999963029040372930467128753662109375,"poi_name":"Tixp\u00e9hual","parent_id":"3514211","long":-89.4674399999999963029040372930467128753662109375},"95":{"id":"8583952","label":"Tizim\u00edn","value":"8583952","lat":21.236219999999999430428943014703691005706787109375,"lon":-87.95756000000000085492501966655254364013671875,"poi_name":"Tizim\u00edn","parent_id":"3514211","long":-87.95756000000000085492501966655254364013671875},"96":{"id":"8583953","label":"Tunk\u00e1s","value":"8583953","lat":20.890319999999999112105797394178807735443115234375,"lon":-88.7533700000000038698999560438096523284912109375,"poi_name":"Tunk\u00e1s","parent_id":"3514211","long":-88.7533700000000038698999560438096523284912109375},"97":{"id":"8583954","label":"Tzucacab","value":"8583954","lat":19.9600200000000000954969436861574649810791015625,"lon":-89.0365100000000069258021540008485317230224609375,"poi_name":"Tzucacab","parent_id":"3514211","long":-89.0365100000000069258021540008485317230224609375},"98":{"id":"8583955","label":"Uayma","value":"8583955","lat":20.743919999999999248530002660118043422698974609375,"lon":-88.35223999999999477950041182339191436767578125,"poi_name":"Uayma","parent_id":"3514211","long":-88.35223999999999477950041182339191436767578125},"99":{"id":"8583956","label":"Uc\u00fa","value":"8583956","lat":21.0260999999999995679900166578590869903564453125,"lon":-89.7392099999999999226929503493010997772216796875,"poi_name":"Uc\u00fa","parent_id":"3514211","long":-89.7392099999999999226929503493010997772216796875}}