{"success":true,"remaining_lookups":8469,"0":{"id":"8583549","label":"Acajete","value":"8583549","lat":19.568149999999999266719896695576608180999755859375,"lon":-97.033330000000006521077011711895465850830078125,"poi_name":"Acajete","parent_id":"3514780","long":-97.033330000000006521077011711895465850830078125},"1":{"id":"8583550","label":"Acatl\u00e1n","value":"8583550","lat":19.69648000000000109821485239081084728240966796875,"lon":-96.843670000000003028617356903851032257080078125,"poi_name":"Acatl\u00e1n","parent_id":"3514780","long":-96.843670000000003028617356903851032257080078125},"2":{"id":"8583551","label":"Acayucan","value":"8583551","lat":18.021969999999999600959199597127735614776611328125,"lon":-95.0035500000000041609382606111466884613037109375,"poi_name":"Acayucan","parent_id":"3514780","long":-95.0035500000000041609382606111466884613037109375},"3":{"id":"8583552","label":"Actopan","value":"8583552","lat":19.53208000000000055251803132705390453338623046875,"lon":-96.5144700000000028694557840935885906219482421875,"poi_name":"Actopan","parent_id":"3514780","long":-96.5144700000000028694557840935885906219482421875},"4":{"id":"8583553","label":"Acula","value":"8583553","lat":18.52953000000000116642695502378046512603759765625,"lon":-95.7877600000000057889337767846882343292236328125,"poi_name":"Acula","parent_id":"3514780","long":-95.7877600000000057889337767846882343292236328125},"5":{"id":"8583554","label":"Acultzingo","value":"8583554","lat":18.72332000000000107320374809205532073974609375,"lon":-97.2770799999999979945641825906932353973388671875,"poi_name":"Acultzingo","parent_id":"3514780","long":-97.2770799999999979945641825906932353973388671875},"6":{"id":"8583850","label":"Agua Dulce","value":"8583850","lat":18.08944999999999936335370875895023345947265625,"lon":-94.165629999999993060555425472557544708251953125,"poi_name":"Agua Dulce","parent_id":"3514780","long":-94.165629999999993060555425472557544708251953125},"7":{"id":"8583556","label":"Alpatl\u00e1huac","value":"8583556","lat":19.101549999999999585043042316101491451263427734375,"lon":-97.1217400000000026238922146148979663848876953125,"poi_name":"Alpatl\u00e1huac","parent_id":"3514780","long":-97.1217400000000026238922146148979663848876953125},"8":{"id":"8583557","label":"Alto Lucero de Guti\u00e9rrez Barrios","value":"8583557","lat":19.745909999999998518660504487343132495880126953125,"lon":-96.5594200000000029149305191822350025177001953125,"poi_name":"Alto Lucero de Guti\u00e9rrez Barrios","parent_id":"3514780","long":-96.5594200000000029149305191822350025177001953125},"9":{"id":"8583558","label":"Altotonga","value":"8583558","lat":19.777640000000001663238435867242515087127685546875,"lon":-97.1367599999999953297447063960134983062744140625,"poi_name":"Altotonga","parent_id":"3514780","long":-97.1367599999999953297447063960134983062744140625},"10":{"id":"8583559","label":"Alvarado","value":"8583559","lat":18.799980000000001467697074986062943935394287109375,"lon":-95.850290000000001100488589145243167877197265625,"poi_name":"Alvarado","parent_id":"3514780","long":-95.850290000000001100488589145243167877197265625},"11":{"id":"8583560","label":"Amatitl\u00e1n","value":"8583560","lat":18.433710000000001372200131299905478954315185546875,"lon":-95.6838800000000020418156054802238941192626953125,"poi_name":"Amatitl\u00e1n","parent_id":"3514780","long":-95.6838800000000020418156054802238941192626953125},"12":{"id":"8583562","label":"Amatl\u00e1n de los Reyes","value":"8583562","lat":18.857060000000000599129634792916476726531982421875,"lon":-96.881200000000006866684998385608196258544921875,"poi_name":"Amatl\u00e1n de los Reyes","parent_id":"3514780","long":-96.881200000000006866684998385608196258544921875},"13":{"id":"8583563","label":"Angel R. Cabada","value":"8583563","lat":18.607980000000001297166818403638899326324462890625,"lon":-95.3972399999999964848029776476323604583740234375,"poi_name":"Angel R. Cabada","parent_id":"3514780","long":-95.3972399999999964848029776476323604583740234375},"14":{"id":"8583565","label":"Apazapan","value":"8583565","lat":19.33174999999999954525264911353588104248046875,"lon":-96.6505800000000050431481213308870792388916015625,"poi_name":"Apazapan","parent_id":"3514780","long":-96.6505800000000050431481213308870792388916015625},"15":{"id":"8583566","label":"Aquila","value":"8583566","lat":18.7895800000000008367351256310939788818359375,"lon":-97.3231899999999967576513881795108318328857421875,"poi_name":"Aquila","parent_id":"3514780","long":-97.3231899999999967576513881795108318328857421875},"16":{"id":"8583567","label":"Astacinga","value":"8583567","lat":18.565729999999998511839294224046170711517333984375,"lon":-97.1035200000000031650415621697902679443359375,"poi_name":"Astacinga","parent_id":"3514780","long":-97.1035200000000031650415621697902679443359375},"17":{"id":"8583568","label":"Atlahuilco","value":"8583568","lat":18.683080000000000353566065314225852489471435546875,"lon":-97.115530000000006793925422243773937225341796875,"poi_name":"Atlahuilco","parent_id":"3514780","long":-97.115530000000006793925422243773937225341796875},"18":{"id":"8583570","label":"Atoyac","value":"8583570","lat":18.931819999999998316297933342866599559783935546875,"lon":-96.80203000000000201907823793590068817138671875,"poi_name":"Atoyac","parent_id":"3514780","long":-96.80203000000000201907823793590068817138671875},"19":{"id":"8583571","label":"Atzacan","value":"8583571","lat":18.93392000000000052750692702829837799072265625,"lon":-97.0764400000000051704773795790970325469970703125,"poi_name":"Atzacan","parent_id":"3514780","long":-97.0764400000000051704773795790970325469970703125},"20":{"id":"8583572","label":"Atzalan","value":"8583572","lat":19.906980000000000785576048656366765499114990234375,"lon":-97.105670000000003483364707790315151214599609375,"poi_name":"Atzalan","parent_id":"3514780","long":-97.105670000000003483364707790315151214599609375},"21":{"id":"8583574","label":"Ayahualulco","value":"8583574","lat":19.38613000000000141653799801133573055267333984375,"lon":-97.14852999999999383362592197954654693603515625,"poi_name":"Ayahualulco","parent_id":"3514780","long":-97.14852999999999383362592197954654693603515625},"22":{"id":"8583575","label":"Banderilla","value":"8583575","lat":19.582589999999999719193510827608406543731689453125,"lon":-96.939989999999994552126736380159854888916015625,"poi_name":"Banderilla","parent_id":"3514780","long":-96.939989999999994552126736380159854888916015625},"23":{"id":"8583775","label":"Benito Ju\u00e1rez","value":"8583775","lat":20.8205099999999987403498380444943904876708984375,"lon":-98.1959800000000058162186178378760814666748046875,"poi_name":"Benito Ju\u00e1rez","parent_id":"3514780","long":-98.1959800000000058162186178378760814666748046875},"24":{"id":"8583576","label":"Boca del R\u00edo","value":"8583576","lat":19.11740999999999957026375341229140758514404296875,"lon":-96.1210099999999982856024871580302715301513671875,"poi_name":"Boca del R\u00edo","parent_id":"3514780","long":-96.1210099999999982856024871580302715301513671875},"25":{"id":"8583577","label":"Calcahualco","value":"8583577","lat":19.13698000000000121190169011242687702178955078125,"lon":-97.142009999999999081410351209342479705810546875,"poi_name":"Calcahualco","parent_id":"3514780","long":-97.142009999999999081410351209342479705810546875},"26":{"id":"8583555","label":"Camar\u00f3n de Tejeda","value":"8583555","lat":19.0080999999999988858689903281629085540771484375,"lon":-96.568070000000005848050932399928569793701171875,"poi_name":"Camar\u00f3n de Tejeda","parent_id":"3514780","long":-96.568070000000005848050932399928569793701171875},"27":{"id":"8583578","label":"Camerino Z. Mendoza","value":"8583578","lat":18.7824600000000003774403012357652187347412109375,"lon":-97.1601600000000047430148697458207607269287109375,"poi_name":"Camerino Z. Mendoza","parent_id":"3514780","long":-97.1601600000000047430148697458207607269287109375},"28":{"id":"8583854","label":"Carlos A. Carrillo","value":"8583854","lat":18.33236000000000132104105432517826557159423828125,"lon":-95.71802999999999883584678173065185546875,"poi_name":"Carlos A. Carrillo","parent_id":"3514780","long":-95.71802999999999883584678173065185546875},"29":{"id":"8583579","label":"Carrillo Puerto","value":"8583579","lat":18.813140000000000640056896372698247432708740234375,"lon":-96.582300000000003592504072003066539764404296875,"poi_name":"Carrillo Puerto","parent_id":"3514780","long":-96.582300000000003592504072003066539764404296875},"30":{"id":"8583803","label":"Castillo de Teayo","value":"8583803","lat":20.741350000000000619593265582807362079620361328125,"lon":-97.6652100000000018553691916167736053466796875,"poi_name":"Castillo de Teayo","parent_id":"3514780","long":-97.6652100000000018553691916167736053466796875},"31":{"id":"8583580","label":"Catemaco","value":"8583580","lat":18.450929999999999608917278237640857696533203125,"lon":-95.052629999999993515302776359021663665771484375,"poi_name":"Catemaco","parent_id":"3514780","long":-95.052629999999993515302776359021663665771484375},"32":{"id":"8583581","label":"Cazones de Herrera","value":"8583581","lat":20.708539999999999281499185599386692047119140625,"lon":-97.289590000000004010871634818613529205322265625,"poi_name":"Cazones de Herrera","parent_id":"3514780","long":-97.289590000000004010871634818613529205322265625},"33":{"id":"8583582","label":"Cerro Azul","value":"8583582","lat":21.178640000000001464286469854414463043212890625,"lon":-97.769329999999996516635292209684848785400390625,"poi_name":"Cerro Azul","parent_id":"3514780","long":-97.769329999999996516635292209684848785400390625},"34":{"id":"8583700","label":"Chacaltianguis","value":"8583700","lat":18.230889999999998707380655105225741863250732421875,"lon":-95.8100500000000039335645851679146289825439453125,"poi_name":"Chacaltianguis","parent_id":"3514780","long":-95.8100500000000039335645851679146289825439453125},"35":{"id":"8583701","label":"Chalma","value":"8583701","lat":21.207989999999998786961441510356962680816650390625,"lon":-98.375259999999997262420947663486003875732421875,"poi_name":"Chalma","parent_id":"3514780","long":-98.375259999999997262420947663486003875732421875},"36":{"id":"8583702","label":"Chiconamel","value":"8583702","lat":21.24325999999999936562744551338255405426025390625,"lon":-98.454260000000004993125912733376026153564453125,"poi_name":"Chiconamel","parent_id":"3514780","long":-98.454260000000004993125912733376026153564453125},"37":{"id":"8583703","label":"Chiconquiaco","value":"8583703","lat":19.751789999999999736246536485850811004638671875,"lon":-96.777500000000003410605131648480892181396484375,"poi_name":"Chiconquiaco","parent_id":"3514780","long":-96.777500000000003410605131648480892181396484375},"38":{"id":"8583704","label":"Chicontepec","value":"8583704","lat":20.977470000000000283080225926823914051055908203125,"lon":-98.062510000000003174136509187519550323486328125,"poi_name":"Chicontepec","parent_id":"3514780","long":-98.062510000000003174136509187519550323486328125},"39":{"id":"8583705","label":"Chinameca","value":"8583705","lat":18.06112999999999857436705497093498706817626953125,"lon":-94.708740000000005920810508541762828826904296875,"poi_name":"Chinameca","parent_id":"3514780","long":-94.708740000000005920810508541762828826904296875},"40":{"id":"8583706","label":"Chinampa de Gorostiza","value":"8583706","lat":21.3706600000000008776623872108757495880126953125,"lon":-97.668350000000003774403012357652187347412109375,"poi_name":"Chinampa de Gorostiza","parent_id":"3514780","long":-97.668350000000003774403012357652187347412109375},"41":{"id":"8583708","label":"Chocam\u00e1n","value":"8583708","lat":18.997789999999998400426193256862461566925048828125,"lon":-97.042990000000003192326403222978115081787109375,"poi_name":"Chocam\u00e1n","parent_id":"3514780","long":-97.042990000000003192326403222978115081787109375},"42":{"id":"8583709","label":"Chontla","value":"8583709","lat":21.391980000000000217141860048286616802215576171875,"lon":-97.97876999999999725332600064575672149658203125,"poi_name":"Chontla","parent_id":"3514780","long":-97.97876999999999725332600064575672149658203125},"43":{"id":"8583710","label":"Chumatl\u00e1n","value":"8583710","lat":20.219999999999998863131622783839702606201171875,"lon":-97.586669999999998026396497152745723724365234375,"poi_name":"Chumatl\u00e1n","parent_id":"3514780","long":-97.586669999999998026396497152745723724365234375},"44":{"id":"8583583","label":"Citlalt\u00e9petl","value":"8583583","lat":21.343509999999998427711034310050308704376220703125,"lon":-97.892009999999999081410351209342479705810546875,"poi_name":"Citlalt\u00e9petl","parent_id":"3514780","long":-97.892009999999999081410351209342479705810546875},"45":{"id":"8583584","label":"Coacoatzintla","value":"8583584","lat":19.6740199999999987312548910267651081085205078125,"lon":-96.9487299999999976307663018815219402313232421875,"poi_name":"Coacoatzintla","parent_id":"3514780","long":-96.9487299999999976307663018815219402313232421875},"46":{"id":"8583585","label":"Coahuitl\u00e1n","value":"8583585","lat":20.275430000000000063664629124104976654052734375,"lon":-97.70022000000000161890056915581226348876953125,"poi_name":"Coahuitl\u00e1n","parent_id":"3514780","long":-97.70022000000000161890056915581226348876953125},"47":{"id":"8583586","label":"Coatepec","value":"8583586","lat":19.451260000000001326725396211259067058563232421875,"lon":-96.939400000000006230038707144558429718017578125,"poi_name":"Coatepec","parent_id":"3514780","long":-96.939400000000006230038707144558429718017578125},"48":{"id":"8583587","label":"Coatzacoalcos","value":"8583587","lat":18.125009999999999621422830387018620967864990234375,"lon":-94.3891699999999929104887996800243854522705078125,"poi_name":"Coatzacoalcos","parent_id":"3514780","long":-94.3891699999999929104887996800243854522705078125},"49":{"id":"8583588","label":"Coatzintla","value":"8583588","lat":20.450109999999998677822077297605574131011962890625,"lon":-97.5110600000000005138645065017044544219970703125,"poi_name":"Coatzintla","parent_id":"3514780","long":-97.5110600000000005138645065017044544219970703125},"50":{"id":"8583589","label":"Coetzala","value":"8583589","lat":18.773779999999998580051396857015788555145263671875,"lon":-96.923779999999993606252246536314487457275390625,"poi_name":"Coetzala","parent_id":"3514780","long":-96.923779999999993606252246536314487457275390625},"51":{"id":"8583590","label":"Colipa","value":"8583590","lat":19.93314000000000163481672643683850765228271484375,"lon":-96.700739999999996143742464482784271240234375,"poi_name":"Colipa","parent_id":"3514780","long":-96.700739999999996143742464482784271240234375},"52":{"id":"8583591","label":"Comapa","value":"8583591","lat":19.138889999999999957935870043002068996429443359375,"lon":-96.713740000000001373336999677121639251708984375,"poi_name":"Comapa","parent_id":"3514780","long":-96.713740000000001373336999677121639251708984375},"53":{"id":"8583593","label":"Cosamaloapan de Carpio","value":"8583593","lat":18.301629999999999398596628452651202678680419921875,"lon":-95.9596700000000026875568437390029430389404296875,"poi_name":"Cosamaloapan de Carpio","parent_id":"3514780","long":-95.9596700000000026875568437390029430389404296875},"54":{"id":"8583594","label":"Cosautl\u00e1n de Carvajal","value":"8583594","lat":19.328779999999998295834302552975714206695556640625,"lon":-96.9771899999999931196725810877978801727294921875,"poi_name":"Cosautl\u00e1n de Carvajal","parent_id":"3514780","long":-96.9771899999999931196725810877978801727294921875},"55":{"id":"8583693","label":"Coscomatepec","value":"8583693","lat":19.06336999999999903820935287512838840484619140625,"lon":-97.0736200000000053478288464248180389404296875,"poi_name":"Coscomatepec","parent_id":"3514780","long":-97.0736200000000053478288464248180389404296875},"56":{"id":"8583694","label":"Cosoleacaque","value":"8583694","lat":17.986239999999998673274603788740932941436767578125,"lon":-94.610919999999993024175637401640415191650390625,"poi_name":"Cosoleacaque","parent_id":"3514780","long":-94.610919999999993024175637401640415191650390625},"57":{"id":"8583695","label":"Cotaxtla","value":"8583695","lat":18.8560599999999993769961292855441570281982421875,"lon":-96.36281999999999925421434454619884490966796875,"poi_name":"Cotaxtla","parent_id":"3514780","long":-96.36281999999999925421434454619884490966796875},"58":{"id":"8583696","label":"Coxquihui","value":"8583696","lat":20.209440000000000736690708436071872711181640625,"lon":-97.55230000000000245563569478690624237060546875,"poi_name":"Coxquihui","parent_id":"3514780","long":-97.55230000000000245563569478690624237060546875},"59":{"id":"8583697","label":"Coyutla","value":"8583697","lat":20.335460000000001201669874717481434345245361328125,"lon":-97.65645000000000663931132294237613677978515625,"poi_name":"Coyutla","parent_id":"3514780","long":-97.65645000000000663931132294237613677978515625},"60":{"id":"8583698","label":"Cuichapa","value":"8583698","lat":18.7641899999999992587618180550634860992431640625,"lon":-96.82008999999999332430888898670673370361328125,"poi_name":"Cuichapa","parent_id":"3514780","long":-96.82008999999999332430888898670673370361328125},"61":{"id":"8583699","label":"Cuitl\u00e1huac","value":"8583699","lat":18.790839999999999321289578801952302455902099609375,"lon":-96.7317900000000037152858567424118518829345703125,"poi_name":"Cuitl\u00e1huac","parent_id":"3514780","long":-96.7317900000000037152858567424118518829345703125},"62":{"id":"8583592","label":"C\u00f3rdoba","value":"8583592","lat":18.920359999999998734665496158413589000701904296875,"lon":-96.9444400000000001682565198279917240142822265625,"poi_name":"C\u00f3rdoba","parent_id":"3514780","long":-96.9444400000000001682565198279917240142822265625},"63":{"id":"8583851","label":"El Higo","value":"8583851","lat":21.74304000000000058889781939797103404998779296875,"lon":-98.4080699999999950478013488464057445526123046875,"poi_name":"El Higo","parent_id":"3514780","long":-98.4080699999999950478013488464057445526123046875},"64":{"id":"8583711","label":"Emiliano Zapata","value":"8583711","lat":19.457660000000000621867002337239682674407958984375,"lon":-96.765839999999997189661371521651744842529296875,"poi_name":"Emiliano Zapata","parent_id":"3514780","long":-96.765839999999997189661371521651744842529296875},"65":{"id":"8583712","label":"Espinal","value":"8583712","lat":20.26997000000000070940586738288402557373046875,"lon":-97.489270000000004756657290272414684295654296875,"poi_name":"Espinal","parent_id":"3514780","long":-97.489270000000004756657290272414684295654296875},"66":{"id":"8583713","label":"Filomeno Mata","value":"8583713","lat":20.2051900000000017598722479306161403656005859375,"lon":-97.6990799999999950387064018286764621734619140625,"poi_name":"Filomeno Mata","parent_id":"3514780","long":-97.6990799999999950387064018286764621734619140625},"67":{"id":"8583714","label":"Fort\u00edn","value":"8583714","lat":18.90447999999999950659912428818643093109130859375,"lon":-96.9890599999999949432094581425189971923828125,"poi_name":"Fort\u00edn","parent_id":"3514780","long":-96.9890599999999949432094581425189971923828125},"68":{"id":"8583715","label":"Guti\u00e9rrez Zamora","value":"8583715","lat":20.44348000000000098452801466919481754302978515625,"lon":-97.1043300000000044747139327228069305419921875,"poi_name":"Guti\u00e9rrez Zamora","parent_id":"3514780","long":-97.1043300000000044747139327228069305419921875},"69":{"id":"8583716","label":"Hidalgotitl\u00e1n","value":"8583716","lat":17.599810000000001508624336565844714641571044921875,"lon":-94.611410000000006448317435570061206817626953125,"poi_name":"Hidalgotitl\u00e1n","parent_id":"3514780","long":-94.611410000000006448317435570061206817626953125},"70":{"id":"7778821","label":"Huatusco","value":"7778821","lat":19.1400000000000005684341886080801486968994140625,"lon":-96.8799999999999954525264911353588104248046875,"poi_name":"Huatusco","parent_id":"3514780","long":-96.8799999999999954525264911353588104248046875},"71":{"id":"8583717","label":"Huayacocotla","value":"8583717","lat":20.53860999999999847887011128477752208709716796875,"lon":-98.4522400000000033060132409445941448211669921875,"poi_name":"Huayacocotla","parent_id":"3514780","long":-98.4522400000000033060132409445941448211669921875},"72":{"id":"8583718","label":"Hueyapan de Ocampo","value":"8583718","lat":18.165820000000000078443918027915060520172119140625,"lon":-95.149190000000004374669515527784824371337890625,"poi_name":"Hueyapan de Ocampo","parent_id":"3514780","long":-95.149190000000004374669515527784824371337890625},"73":{"id":"8583719","label":"Huiloapan de Cuauht\u00e9moc","value":"8583719","lat":18.825970000000001647322278586216270923614501953125,"lon":-97.1318500000000000227373675443232059478759765625,"poi_name":"Huiloapan de Cuauht\u00e9moc","parent_id":"3514780","long":-97.1318500000000000227373675443232059478759765625},"74":{"id":"8583720","label":"Ignacio de la Llave","value":"8583720","lat":18.661770000000000635509422863833606243133544921875,"lon":-95.9721200000000038698999560438096523284912109375,"poi_name":"Ignacio de la Llave","parent_id":"3514780","long":-95.9721200000000038698999560438096523284912109375},"75":{"id":"8583721","label":"Ilamatl\u00e1n","value":"8583721","lat":20.774480000000000501358954352326691150665283203125,"lon":-98.421999999999997044142219237983226776123046875,"poi_name":"Ilamatl\u00e1n","parent_id":"3514780","long":-98.421999999999997044142219237983226776123046875},"76":{"id":"8583722","label":"Isla","value":"8583722","lat":18.06369000000000113459464046172797679901123046875,"lon":-95.55320000000000391082721762359142303466796875,"poi_name":"Isla","parent_id":"3514780","long":-95.55320000000000391082721762359142303466796875},"77":{"id":"8583723","label":"Ixcatepec","value":"8583723","lat":21.24107000000000056161297834478318691253662109375,"lon":-98.0225599999999985811882652342319488525390625,"poi_name":"Ixcatepec","parent_id":"3514780","long":-98.0225599999999985811882652342319488525390625},"78":{"id":"8583724","label":"Ixhuac\u00e1n de los Reyes","value":"8583724","lat":19.3556099999999986494003678672015666961669921875,"lon":-97.0807099999999962847141432575881481170654296875,"poi_name":"Ixhuac\u00e1n de los Reyes","parent_id":"3514780","long":-97.0807099999999962847141432575881481170654296875},"79":{"id":"8583726","label":"Ixhuatlancillo","value":"8583726","lat":18.889359999999999928377292235381901264190673828125,"lon":-97.1380400000000037152858567424118518829345703125,"poi_name":"Ixhuatlancillo","parent_id":"3514780","long":-97.1380400000000037152858567424118518829345703125},"80":{"id":"8583728","label":"Ixhuatl\u00e1n de Madero","value":"8583728","lat":20.72861999999999937926986603997647762298583984375,"lon":-98.016559999999998353814589790999889373779296875,"poi_name":"Ixhuatl\u00e1n de Madero","parent_id":"3514780","long":-98.016559999999998353814589790999889373779296875},"81":{"id":"8583725","label":"Ixhuatl\u00e1n del Caf\u00e9","value":"8583725","lat":19.04178999999999888359525357373058795928955078125,"lon":-96.92694000000000187355908565223217010498046875,"poi_name":"Ixhuatl\u00e1n del Caf\u00e9","parent_id":"3514780","long":-96.92694000000000187355908565223217010498046875},"82":{"id":"8583727","label":"Ixhuatl\u00e1n del Sureste","value":"8583727","lat":18.01368000000000080262907431460916996002197265625,"lon":-94.377939999999995279722497798502445220947265625,"poi_name":"Ixhuatl\u00e1n del Sureste","parent_id":"3514780","long":-94.377939999999995279722497798502445220947265625},"83":{"id":"8583729","label":"Ixmatlahuacan","value":"8583729","lat":18.452079999999998705106918350793421268463134765625,"lon":-95.881630000000001246007741428911685943603515625,"poi_name":"Ixmatlahuacan","parent_id":"3514780","long":-95.881630000000001246007741428911685943603515625},"84":{"id":"8583730","label":"Ixtaczoquitl\u00e1n","value":"8583730","lat":18.859770000000001033413354889489710330963134765625,"lon":-97.0310199999999980491338646970689296722412109375,"poi_name":"Ixtaczoquitl\u00e1n","parent_id":"3514780","long":-97.0310199999999980491338646970689296722412109375},"85":{"id":"8583731","label":"Jalacingo","value":"8583731","lat":19.77299000000000006593836587853729724884033203125,"lon":-97.28618000000000165528035722672939300537109375,"poi_name":"Jalacingo","parent_id":"3514780","long":-97.28618000000000165528035722672939300537109375},"86":{"id":"8583733","label":"Jalcomulco","value":"8583733","lat":19.33827000000000140289557748474180698394775390625,"lon":-96.7625000000000028421709430404007434844970703125,"poi_name":"Jalcomulco","parent_id":"3514780","long":-96.7625000000000028421709430404007434844970703125},"87":{"id":"8583735","label":"Jamapa","value":"8583735","lat":19.007470000000001419948603142984211444854736328125,"lon":-96.256290000000007012204150669276714324951171875,"poi_name":"Jamapa","parent_id":"3514780","long":-96.256290000000007012204150669276714324951171875},"88":{"id":"8583736","label":"Jes\u00fas Carranza","value":"8583736","lat":17.44109999999999871533873374573886394500732421875,"lon":-94.9721300000000070440364652313292026519775390625,"poi_name":"Jes\u00fas Carranza","parent_id":"3514780","long":-94.9721300000000070440364652313292026519775390625},"89":{"id":"8583738","label":"Jilotepec","value":"8583738","lat":19.61131999999999919737092568539083003997802734375,"lon":-96.9224300000000056343196774832904338836669921875,"poi_name":"Jilotepec","parent_id":"3514780","long":-96.9224300000000056343196774832904338836669921875},"90":{"id":"8583815","label":"Jos\u00e9 Azueta","value":"8583815","lat":18.09622999999999848341758479364216327667236328125,"lon":-95.714730000000002974047674797475337982177734375,"poi_name":"Jos\u00e9 Azueta","parent_id":"3514780","long":-95.714730000000002974047674797475337982177734375},"91":{"id":"8583739","label":"Juan Rodr\u00edguez Clara","value":"8583739","lat":18.0012100000000003774403012357652187347412109375,"lon":-95.3785599999999931242200545966625213623046875,"poi_name":"Juan Rodr\u00edguez Clara","parent_id":"3514780","long":-95.3785599999999931242200545966625213623046875},"92":{"id":"8583740","label":"Juchique de Ferrer","value":"8583740","lat":19.81651000000000095724317361600697040557861328125,"lon":-96.6721500000000020236257114447653293609619140625,"poi_name":"Juchique de Ferrer","parent_id":"3514780","long":-96.6721500000000020236257114447653293609619140625},"93":{"id":"8583734","label":"J\u00e1ltipan","value":"8583734","lat":17.908550000000001745092959026806056499481201171875,"lon":-94.7263099999999980127540766261518001556396484375,"poi_name":"J\u00e1ltipan","parent_id":"3514780","long":-94.7263099999999980127540766261518001556396484375},"94":{"id":"8583564","label":"La Antigua","value":"8583564","lat":19.31618999999999886085788602940738201141357421875,"lon":-96.3173599999999936471795081160962581634521484375,"poi_name":"La Antigua","parent_id":"3514780","long":-96.3173599999999936471795081160962581634521484375},"95":{"id":"8583772","label":"La Perla","value":"8583772","lat":18.975370000000001624584911041893064975738525390625,"lon":-97.163870000000002846718416549265384674072265625,"poi_name":"La Perla","parent_id":"3514780","long":-97.163870000000002846718416549265384674072265625},"96":{"id":"8583741","label":"Landero y Coss","value":"8583741","lat":19.73935000000000172803993336856365203857421875,"lon":-96.850089999999994461177266202867031097412109375,"poi_name":"Landero y Coss","parent_id":"3514780","long":-96.850089999999994461177266202867031097412109375},"97":{"id":"8583707","label":"Las Choapas","value":"8583707","lat":17.678529999999998523207977996207773685455322265625,"lon":-94.0040599999999955116436467505991458892822265625,"poi_name":"Las Choapas","parent_id":"3514780","long":-94.0040599999999955116436467505991458892822265625},"98":{"id":"8583752","label":"Las Minas","value":"8583752","lat":19.70448999999999983856469043530523777008056640625,"lon":-97.1469900000000023965185391716659069061279296875,"poi_name":"Las Minas","parent_id":"3514780","long":-97.1469900000000023965185391716659069061279296875},"99":{"id":"8583778","label":"Las Vigas de Ram\u00edrez","value":"8583778","lat":19.6327399999999983037923811934888362884521484375,"lon":-97.0881700000000051886672736145555973052978515625,"poi_name":"Las Vigas de Ram\u00edrez","parent_id":"3514780","long":-97.0881700000000051886672736145555973052978515625}}