{"success":true,"remaining_lookups":8470,"0":{"id":"8583511","label":"Acuamanala de Miguel Hidalgo","value":"8583511","lat":19.219860000000000610498318565078079700469970703125,"lon":-98.1941000000000059344529290683567523956298828125,"poi_name":"Acuamanala de Miguel Hidalgo","parent_id":"3515359","long":-98.1941000000000059344529290683567523956298828125},"1":{"id":"8583490","label":"Amaxac de Guerrero","value":"8583490","lat":19.362069999999999225792635115794837474822998046875,"lon":-98.181520000000006120899342931807041168212890625,"poi_name":"Amaxac de Guerrero","parent_id":"3515359","long":-98.181520000000006120899342931807041168212890625},"2":{"id":"8583491","label":"Apetatitl\u00e1n de Antonio Carvajal","value":"8583491","lat":19.344030000000000057980287238024175167083740234375,"lon":-98.1922200000000060526872402988374233245849609375,"poi_name":"Apetatitl\u00e1n de Antonio Carvajal","parent_id":"3515359","long":-98.1922200000000060526872402988374233245849609375},"3":{"id":"8583494","label":"Apizaco","value":"8583494","lat":19.422999999999998266275724745355546474456787109375,"lon":-98.1269999999999953388396534137427806854248046875,"poi_name":"Apizaco","parent_id":"3515359","long":-98.1269999999999953388396534137427806854248046875},"4":{"id":"8583492","label":"Atlangatepec","value":"8583492","lat":19.54581999999999908368408796377480030059814453125,"lon":-98.1813599999999979672793415375053882598876953125,"poi_name":"Atlangatepec","parent_id":"3515359","long":-98.1813599999999979672793415375053882598876953125},"5":{"id":"8583493","label":"Atltzayanca","value":"8583493","lat":19.407270000000000464979166281409561634063720703125,"lon":-97.80468999999999368810676969587802886962890625,"poi_name":"Atltzayanca","parent_id":"3515359","long":-97.80468999999999368810676969587802886962890625},"6":{"id":"8583569","label":"Benito Ju\u00e1rez","value":"8583569","lat":19.586760000000001724629328236915171146392822265625,"lon":-98.4253599999999977399056660942733287811279296875,"poi_name":"Benito Ju\u00e1rez","parent_id":"3515359","long":-98.4253599999999977399056660942733287811279296875},"7":{"id":"8583495","label":"Calpulalpan","value":"8583495","lat":19.570679999999999409965312224812805652618408203125,"lon":-98.56625999999999976353137753903865814208984375,"poi_name":"Calpulalpan","parent_id":"3515359","long":-98.56625999999999976353137753903865814208984375},"8":{"id":"8583499","label":"Chiautempan","value":"8583499","lat":19.28978000000000037061909097246825695037841796875,"lon":-98.149460000000004811226972378790378570556640625,"poi_name":"Chiautempan","parent_id":"3515359","long":-98.149460000000004811226972378790378570556640625},"9":{"id":"8583507","label":"Contla de Juan Cuamatzi","value":"8583507","lat":19.318940000000001333546606474556028842926025390625,"lon":-98.1283600000000006957634468562901020050048828125,"poi_name":"Contla de Juan Cuamatzi","parent_id":"3515359","long":-98.1283600000000006957634468562901020050048828125},"10":{"id":"8583497","label":"Cuapiaxtla","value":"8583497","lat":19.3354700000000008230927051045000553131103515625,"lon":-97.7629600000000067439032136462628841400146484375,"poi_name":"Cuapiaxtla","parent_id":"3515359","long":-97.7629600000000067439032136462628841400146484375},"11":{"id":"8583498","label":"Cuaxomulco","value":"8583498","lat":19.349920000000000896989149623550474643707275390625,"lon":-98.0959500000000019781509763561189174652099609375,"poi_name":"Cuaxomulco","parent_id":"3515359","long":-98.0959500000000019781509763561189174652099609375},"12":{"id":"8583496","label":"El Carmen Tequexquitla","value":"8583496","lat":19.328019999999998645989762735553085803985595703125,"lon":-97.6829500000000052750692702829837799072265625,"poi_name":"El Carmen Tequexquitla","parent_id":"3515359","long":-97.6829500000000052750692702829837799072265625},"13":{"id":"8583534","label":"Emiliano Zapata","value":"8583534","lat":19.563929999999999154169927351176738739013671875,"lon":-97.930620000000004665707820095121860504150390625,"poi_name":"Emiliano Zapata","parent_id":"3515359","long":-97.930620000000004665707820095121860504150390625},"14":{"id":"8583501","label":"Espa\u00f1ita","value":"8583501","lat":19.43921999999999883357304497621953487396240234375,"lon":-98.43671000000000503860064782202243804931640625,"poi_name":"Espa\u00f1ita","parent_id":"3515359","long":-98.43671000000000503860064782202243804931640625},"15":{"id":"8583502","label":"Huamantla","value":"8583502","lat":19.3383299999999991314325598068535327911376953125,"lon":-97.906890000000004192770575173199176788330078125,"poi_name":"Huamantla","parent_id":"3515359","long":-97.906890000000004192770575173199176788330078125},"16":{"id":"8583503","label":"Hueyotlipan","value":"8583503","lat":19.49065999999999831970853847451508045196533203125,"lon":-98.3464500000000043655745685100555419921875,"poi_name":"Hueyotlipan","parent_id":"3515359","long":-98.3464500000000043655745685100555419921875},"17":{"id":"8583504","label":"Ixtacuixtla de Mariano Matamoros","value":"8583504","lat":19.34891999999999967485564411617815494537353515625,"lon":-98.3978100000000068803274189122021198272705078125,"poi_name":"Ixtacuixtla de Mariano Matamoros","parent_id":"3515359","long":-98.3978100000000068803274189122021198272705078125},"18":{"id":"8583505","label":"Ixtenco","value":"8583505","lat":19.25347000000000008412825991399586200714111328125,"lon":-97.9046100000000052432369557209312915802001953125,"poi_name":"Ixtenco","parent_id":"3515359","long":-97.9046100000000052432369557209312915802001953125},"19":{"id":"8583536","label":"La Magdalena Tlaltelulco","value":"8583536","lat":19.2758299999999991314325598068535327911376953125,"lon":-98.1938899999999961210050969384610652923583984375,"poi_name":"La Magdalena Tlaltelulco","parent_id":"3515359","long":-98.1938899999999961210050969384610652923583984375},"20":{"id":"8583535","label":"L\u00e1zaro C\u00e1rdenas","value":"8583535","lat":19.5354099999999988312993082217872142791748046875,"lon":-97.9906600000000054251358960755169391632080078125,"poi_name":"L\u00e1zaro C\u00e1rdenas","parent_id":"3515359","long":-97.9906600000000054251358960755169391632080078125},"21":{"id":"8583506","label":"Mazatecochco de Jos\u00e9 Mar\u00eda Morelos","value":"8583506","lat":19.18663000000000096179064712487161159515380859375,"lon":-98.17748000000000274667399935424327850341796875,"poi_name":"Mazatecochco de Jos\u00e9 Mar\u00eda Morelos","parent_id":"3515359","long":-98.17748000000000274667399935424327850341796875},"22":{"id":"8583500","label":"Mu\u00f1oz de Domingo Arenas","value":"8583500","lat":19.49571999999999860619936953298747539520263671875,"lon":-98.21273999999999659848981536924839019775390625,"poi_name":"Mu\u00f1oz de Domingo Arenas","parent_id":"3515359","long":-98.21273999999999659848981536924839019775390625},"23":{"id":"8583510","label":"Nanacamilpa de Mariano Arista","value":"8583510","lat":19.505469999999998975681592128239572048187255859375,"lon":-98.5332800000000048612491809763014316558837890625,"poi_name":"Nanacamilpa de Mariano Arista","parent_id":"3515359","long":-98.5332800000000048612491809763014316558837890625},"24":{"id":"8583512","label":"Nat\u00edvitas","value":"8583512","lat":19.230760000000000076170181273482739925384521484375,"lon":-98.3322299999999955844032228924334049224853515625,"poi_name":"Nat\u00edvitas","parent_id":"3515359","long":-98.3322299999999955844032228924334049224853515625},"25":{"id":"8583513","label":"Panotla","value":"8583513","lat":19.344080000000001717808117973618209362030029296875,"lon":-98.285020000000002937667886726558208465576171875,"poi_name":"Panotla","parent_id":"3515359","long":-98.285020000000002937667886726558208465576171875},"26":{"id":"8583530","label":"Papalotla de Xicoht\u00e9ncatl","value":"8583530","lat":19.17226000000000141199052450247108936309814453125,"lon":-98.19724999999999681676854379475116729736328125,"poi_name":"Papalotla de Xicoht\u00e9ncatl","parent_id":"3515359","long":-98.19724999999999681676854379475116729736328125},"27":{"id":"8583537","label":"San Dami\u00e1n Tex\u00f3loc","value":"8583537","lat":19.2820999999999997953636921010911464691162109375,"lon":-98.29667000000000598447513766586780548095703125,"poi_name":"San Dami\u00e1n Tex\u00f3loc","parent_id":"3515359","long":-98.29667000000000598447513766586780548095703125},"28":{"id":"8583538","label":"San Francisco Tetlanohcan","value":"8583538","lat":19.260259999999998825614966335706412792205810546875,"lon":-98.158199999999993679011822678148746490478515625,"poi_name":"San Francisco Tetlanohcan","parent_id":"3515359","long":-98.158199999999993679011822678148746490478515625},"29":{"id":"8583539","label":"San Jer\u00f3nimo Zacualpan","value":"8583539","lat":19.245309999999999917008608463220298290252685546875,"lon":-98.26533000000000583895598538219928741455078125,"poi_name":"San Jer\u00f3nimo Zacualpan","parent_id":"3515359","long":-98.26533000000000583895598538219928741455078125},"30":{"id":"8583540","label":"San Jos\u00e9 Teacalco","value":"8583540","lat":19.329959999999999809006112627685070037841796875,"lon":-98.0600199999999944111550576053559780120849609375,"poi_name":"San Jos\u00e9 Teacalco","parent_id":"3515359","long":-98.0600199999999944111550576053559780120849609375},"31":{"id":"8583541","label":"San Juan Huactzinco","value":"8583541","lat":19.234190000000001674607119639404118061065673828125,"lon":-98.257599999999996498445398174226284027099609375,"poi_name":"San Juan Huactzinco","parent_id":"3515359","long":-98.257599999999996498445398174226284027099609375},"32":{"id":"8583542","label":"San Lorenzo Axocomanitla","value":"8583542","lat":19.221379999999999910187398199923336505889892578125,"lon":-98.255009999999998626663000322878360748291015625,"poi_name":"San Lorenzo Axocomanitla","parent_id":"3515359","long":-98.255009999999998626663000322878360748291015625},"33":{"id":"8583543","label":"San Lucas Tecopilco","value":"8583543","lat":19.488060000000000826503310236148536205291748046875,"lon":-98.255729999999999790816218592226505279541015625,"poi_name":"San Lucas Tecopilco","parent_id":"3515359","long":-98.255729999999999790816218592226505279541015625},"34":{"id":"8583514","label":"San Pablo del Monte","value":"8583514","lat":19.15287000000000006139089236967265605926513671875,"lon":-98.135009999999994079189491458237171173095703125,"poi_name":"San Pablo del Monte","parent_id":"3515359","long":-98.135009999999994079189491458237171173095703125},"35":{"id":"8583509","label":"Sanct\u00f3rum de L\u00e1zaro C\u00e1rdenas","value":"8583509","lat":19.50077999999999889269020059145987033843994140625,"lon":-98.4879700000000042336978367529809474945068359375,"poi_name":"Sanct\u00f3rum de L\u00e1zaro C\u00e1rdenas","parent_id":"3515359","long":-98.4879700000000042336978367529809474945068359375},"36":{"id":"8583544","label":"Santa Ana Nopalucan","value":"8583544","lat":19.29757000000000033423930290155112743377685546875,"lon":-98.3331299999999970395947457291185855865478515625,"poi_name":"Santa Ana Nopalucan","parent_id":"3515359","long":-98.3331299999999970395947457291185855865478515625},"37":{"id":"8583545","label":"Santa Apolonia Teacalco","value":"8583545","lat":19.24615000000000009094947017729282379150390625,"lon":-98.3126800000000002910383045673370361328125,"poi_name":"Santa Apolonia Teacalco","parent_id":"3515359","long":-98.3126800000000002910383045673370361328125},"38":{"id":"8583546","label":"Santa Catarina Ayometla","value":"8583546","lat":19.19832999999999856299837119877338409423828125,"lon":-98.2136100000000027421265258453786373138427734375,"poi_name":"Santa Catarina Ayometla","parent_id":"3515359","long":-98.2136100000000027421265258453786373138427734375},"39":{"id":"8583547","label":"Santa Cruz Quilehtla","value":"8583547","lat":19.2109099999999983765519573353230953216552734375,"lon":-98.2037600000000026057023205794394016265869140625,"poi_name":"Santa Cruz Quilehtla","parent_id":"3515359","long":-98.2037600000000026057023205794394016265869140625},"40":{"id":"8583515","label":"Santa Cruz Tlaxcala","value":"8583515","lat":19.344139999999999446345100295729935169219970703125,"lon":-98.1269999999999953388396534137427806854248046875,"poi_name":"Santa Cruz Tlaxcala","parent_id":"3515359","long":-98.1269999999999953388396534137427806854248046875},"41":{"id":"8583548","label":"Santa Isabel Xiloxoxtla","value":"8583548","lat":19.266670000000001294893081649206578731536865234375,"lon":-98.2122200000000020736479200422763824462890625,"poi_name":"Santa Isabel Xiloxoxtla","parent_id":"3515359","long":-98.2122200000000020736479200422763824462890625},"42":{"id":"8583516","label":"Tenancingo","value":"8583516","lat":19.1478800000000006775735528208315372467041015625,"lon":-98.1900499999999993860910763032734394073486328125,"poi_name":"Tenancingo","parent_id":"3515359","long":-98.1900499999999993860910763032734394073486328125},"43":{"id":"8583517","label":"Teolocholco","value":"8583517","lat":19.2241700000000008685674401931464672088623046875,"lon":-98.1287099999999981037035468034446239471435546875,"poi_name":"Teolocholco","parent_id":"3515359","long":-98.1287099999999981037035468034446239471435546875},"44":{"id":"8583508","label":"Tepetitla de Lardiz\u00e1bal","value":"8583508","lat":19.27938999999999936107997200451791286468505859375,"lon":-98.3806699999999949568518786691129207611083984375,"poi_name":"Tepetitla de Lardiz\u00e1bal","parent_id":"3515359","long":-98.3806699999999949568518786691129207611083984375},"45":{"id":"8583518","label":"Tepeyanco","value":"8583518","lat":19.251249999999998863131622783839702606201171875,"lon":-98.235960000000005720721674151718616485595703125,"poi_name":"Tepeyanco","parent_id":"3515359","long":-98.235960000000005720721674151718616485595703125},"46":{"id":"8583519","label":"Terrenate","value":"8583519","lat":19.48474999999999823785401531495153903961181640625,"lon":-97.9146400000000056706994655542075634002685546875,"poi_name":"Terrenate","parent_id":"3515359","long":-97.9146400000000056706994655542075634002685546875},"47":{"id":"8583520","label":"Tetla de la Solidaridad","value":"8583520","lat":19.491510000000001667785909376107156276702880859375,"lon":-98.070660000000003719833330251276493072509765625,"poi_name":"Tetla de la Solidaridad","parent_id":"3515359","long":-98.070660000000003719833330251276493072509765625},"48":{"id":"8583521","label":"Tetlatlahuca","value":"8583521","lat":19.24692999999999898363967076875269412994384765625,"lon":-98.2879099999999965575625537894666194915771484375,"poi_name":"Tetlatlahuca","parent_id":"3515359","long":-98.2879099999999965575625537894666194915771484375},"49":{"id":"8583522","label":"Tlaxcala","value":"8583522","lat":19.3241799999999983583620632998645305633544921875,"lon":-98.22957999999999856299837119877338409423828125,"poi_name":"Tlaxcala","parent_id":"3515359","long":-98.22957999999999856299837119877338409423828125},"50":{"id":"8583523","label":"Tlaxco","value":"8583523","lat":19.61677999999999855162968742661178112030029296875,"lon":-98.164299999999997226041159592568874359130859375,"poi_name":"Tlaxco","parent_id":"3515359","long":-98.164299999999997226041159592568874359130859375},"51":{"id":"8583524","label":"Tocatl\u00e1n","value":"8583524","lat":19.382639999999998536850398522801697254180908203125,"lon":-98.0205299999999937199390842579305171966552734375,"poi_name":"Tocatl\u00e1n","parent_id":"3515359","long":-98.0205299999999937199390842579305171966552734375},"52":{"id":"8583525","label":"Totolac","value":"8583525","lat":19.331990000000001117541614803485572338104248046875,"lon":-98.2435200000000037334757507778704166412353515625,"poi_name":"Totolac","parent_id":"3515359","long":-98.2435200000000037334757507778704166412353515625},"53":{"id":"8583527","label":"Tzompantepec","value":"8583527","lat":19.38062000000000040245140553452074527740478515625,"lon":-98.081580000000002428350853733718395233154296875,"poi_name":"Tzompantepec","parent_id":"3515359","long":-98.081580000000002428350853733718395233154296875},"54":{"id":"8583528","label":"Xaloztoc","value":"8583528","lat":19.420320000000000248974174610339105129241943359375,"lon":-98.015050000000002228262019343674182891845703125,"poi_name":"Xaloztoc","parent_id":"3515359","long":-98.015050000000002228262019343674182891845703125},"55":{"id":"8583529","label":"Xaltocan","value":"8583529","lat":19.447890000000001009539118967950344085693359375,"lon":-98.2178899999999970304997987113893032073974609375,"poi_name":"Xaltocan","parent_id":"3515359","long":-98.2178899999999970304997987113893032073974609375},"56":{"id":"8583531","label":"Xicohtzinco","value":"8583531","lat":19.173890000000000100044417195022106170654296875,"lon":-98.233329999999995152393239550292491912841796875,"poi_name":"Xicohtzinco","parent_id":"3515359","long":-98.233329999999995152393239550292491912841796875},"57":{"id":"8583532","label":"Yauhquemehcan","value":"8583532","lat":19.400369999999998782413968001492321491241455078125,"lon":-98.1760199999999940700945444405078887939453125,"poi_name":"Yauhquemehcan","parent_id":"3515359","long":-98.1760199999999940700945444405078887939453125},"58":{"id":"8583533","label":"Zacatelco","value":"8583533","lat":19.18802000000000163026925292797386646270751953125,"lon":-98.2609400000000050567905418574810028076171875,"poi_name":"Zacatelco","parent_id":"3515359","long":-98.2609400000000050567905418574810028076171875},"59":{"id":"8583526","label":"Ziltlalt\u00e9pec de Trinidad S\u00e1nchez Santos","value":"8583526","lat":19.2031300000000015870682545937597751617431640625,"lon":-97.9105200000000053250914788804948329925537109375,"poi_name":"Ziltlalt\u00e9pec de Trinidad S\u00e1nchez Santos","parent_id":"3515359","long":-97.9105200000000053250914788804948329925537109375}}