{"success":true,"remaining_lookups":8475,"0":{"id":"8583289","label":"Ahualulco","value":"8583289","lat":22.45964000000000027057467377744615077972412109375,"lon":-101.230019999999996116457623429596424102783203125,"poi_name":"Ahualulco","parent_id":"3985605","long":-101.230019999999996116457623429596424102783203125},"1":{"id":"8583290","label":"Alaquines","value":"8583290","lat":22.0865399999999993951860233210027217864990234375,"lon":-99.5544100000000042882675188593566417694091796875,"poi_name":"Alaquines","parent_id":"3985605","long":-99.5544100000000042882675188593566417694091796875},"2":{"id":"8583292","label":"Aquism\u00f3n","value":"8583292","lat":21.695859999999999701003616792149841785430908203125,"lon":-99.099930000000000518411980010569095611572265625,"poi_name":"Aquism\u00f3n","parent_id":"3985605","long":-99.099930000000000518411980010569095611572265625},"3":{"id":"8583293","label":"Armadillo de los Infante","value":"8583293","lat":22.233250000000001733724275254644453525543212890625,"lon":-100.642279999999999517967808060348033905029296875,"poi_name":"Armadillo de los Infante","parent_id":"3985605","long":-100.642279999999999517967808060348033905029296875},"4":{"id":"8583342","label":"Axtla de Terrazas","value":"8583342","lat":21.438479999999998426574165932834148406982421875,"lon":-98.8705400000000054205884225666522979736328125,"poi_name":"Axtla de Terrazas","parent_id":"3985605","long":-98.8705400000000054205884225666522979736328125},"5":{"id":"8583295","label":"Catorce","value":"8583295","lat":23.642810000000000769659891375340521335601806640625,"lon":-101.0029300000000063164407038129866123199462890625,"poi_name":"Catorce","parent_id":"3985605","long":-101.0029300000000063164407038129866123199462890625},"6":{"id":"8583296","label":"Cedral","value":"8583296","lat":23.86677999999999855162968742661178112030029296875,"lon":-100.6801999999999992496668710373342037200927734375,"poi_name":"Cedral","parent_id":"3985605","long":-100.6801999999999992496668710373342037200927734375},"7":{"id":"8583297","label":"Cerritos","value":"8583297","lat":22.44548999999999949750417727045714855194091796875,"lon":-100.291190000000000281943357549607753753662109375,"poi_name":"Cerritos","parent_id":"3985605","long":-100.291190000000000281943357549607753753662109375},"8":{"id":"8583298","label":"Cerro de San Pedro","value":"8583298","lat":22.174330000000001206217348226346075534820556640625,"lon":-100.826179999999993697201716713607311248779296875,"poi_name":"Cerro de San Pedro","parent_id":"3985605","long":-100.826179999999993697201716713607311248779296875},"9":{"id":"8583304","label":"Charcas","value":"8583304","lat":23.1945300000000003137756721116602420806884765625,"lon":-101.1343700000000040972736314870417118072509765625,"poi_name":"Charcas","parent_id":"3985605","long":-101.1343700000000040972736314870417118072509765625},"10":{"id":"8583300","label":"Ciudad Fern\u00e1ndez","value":"8583300","lat":21.990449999999999164401742746122181415557861328125,"lon":-100.048079999999998790372046642005443572998046875,"poi_name":"Ciudad Fern\u00e1ndez","parent_id":"3985605","long":-100.048079999999998790372046642005443572998046875},"11":{"id":"8583302","label":"Ciudad Valles","value":"8583302","lat":22.03150000000000119371179607696831226348876953125,"lon":-99.0600500000000039335645851679146289825439453125,"poi_name":"Ciudad Valles","parent_id":"3985605","long":-99.0600500000000039335645851679146289825439453125},"12":{"id":"8583299","label":"Ciudad del Ma\u00edz","value":"8583299","lat":22.4351300000000009049472282640635967254638671875,"lon":-99.6627199999999930923877400346100330352783203125,"poi_name":"Ciudad del Ma\u00edz","parent_id":"3985605","long":-99.6627199999999930923877400346100330352783203125},"13":{"id":"8583303","label":"Coxcatl\u00e1n","value":"8583303","lat":21.521760000000000445652403868734836578369140625,"lon":-98.91055000000000063664629124104976654052734375,"poi_name":"Coxcatl\u00e1n","parent_id":"3985605","long":-98.91055000000000063664629124104976654052734375},"14":{"id":"8583294","label":"C\u00e1rdenas","value":"8583294","lat":21.999939999999998718749338877387344837188720703125,"lon":-99.6607800000000025875124265439808368682861328125,"poi_name":"C\u00e1rdenas","parent_id":"3985605","long":-99.6607800000000025875124265439808368682861328125},"15":{"id":"8583305","label":"Ebano","value":"8583305","lat":22.212749999999999772626324556767940521240234375,"lon":-98.4767800000000050886228564195334911346435546875,"poi_name":"Ebano","parent_id":"3985605","long":-98.4767800000000050886228564195334911346435546875},"16":{"id":"8583347","label":"El Naranjo","value":"8583347","lat":22.472409999999999996589394868351519107818603515625,"lon":-99.34417999999999437932274304330348968505859375,"poi_name":"El Naranjo","parent_id":"3985605","long":-99.34417999999999437932274304330348968505859375},"17":{"id":"8583306","label":"Guadalc\u00e1zar","value":"8583306","lat":22.84761999999999915189619059674441814422607421875,"lon":-100.3469199999999972305886331014335155487060546875,"poi_name":"Guadalc\u00e1zar","parent_id":"3985605","long":-100.3469199999999972305886331014335155487060546875},"18":{"id":"8583307","label":"Huehuetl\u00e1n","value":"8583307","lat":21.521950000000000358113538823090493679046630859375,"lon":-98.983059999999994715835782699286937713623046875,"poi_name":"Huehuetl\u00e1n","parent_id":"3985605","long":-98.983059999999994715835782699286937713623046875},"19":{"id":"8583308","label":"Lagunillas","value":"8583308","lat":21.613209999999998700559444841928780078887939453125,"lon":-99.5953099999999977853804011829197406768798828125,"poi_name":"Lagunillas","parent_id":"3985605","long":-99.5953099999999977853804011829197406768798828125},"20":{"id":"8583309","label":"Matehuala","value":"8583309","lat":23.578260000000000218278728425502777099609375,"lon":-100.6207299999999946749085211195051670074462890625,"poi_name":"Matehuala","parent_id":"3985605","long":-100.6207299999999946749085211195051670074462890625},"21":{"id":"8583346","label":"Matlapa","value":"8583346","lat":21.33473000000000041609382606111466884613037109375,"lon":-98.82778999999999314240994863212108612060546875,"poi_name":"Matlapa","parent_id":"3985605","long":-98.82778999999999314240994863212108612060546875},"22":{"id":"8583310","label":"Mexquitic de Carmona","value":"8583310","lat":22.28462999999999993860910763032734394073486328125,"lon":-101.1219899999999967121766530908644199371337890625,"poi_name":"Mexquitic de Carmona","parent_id":"3985605","long":-101.1219899999999967121766530908644199371337890625},"23":{"id":"8583311","label":"Moctezuma","value":"8583311","lat":22.692640000000000810587152955122292041778564453125,"lon":-101.0758100000000041518433135934174060821533203125,"poi_name":"Moctezuma","parent_id":"3985605","long":-101.0758100000000041518433135934174060821533203125},"24":{"id":"8583312","label":"Ray\u00f3n","value":"8583312","lat":21.838290000000000645741238258779048919677734375,"lon":-99.607349999999996725819073617458343505859375,"poi_name":"Ray\u00f3n","parent_id":"3985605","long":-99.607349999999996725819073617458343505859375},"25":{"id":"8583313","label":"Rioverde","value":"8583313","lat":21.987629999999999341753209591843187808990478515625,"lon":-100.2522000000000019781509763561189174652099609375,"poi_name":"Rioverde","parent_id":"3985605","long":-100.2522000000000019781509763561189174652099609375},"26":{"id":"8583314","label":"Salinas","value":"8583314","lat":22.70667999999999864257915760390460491180419921875,"lon":-101.682040000000000645741238258779048919677734375,"poi_name":"Salinas","parent_id":"3985605","long":-101.682040000000000645741238258779048919677734375},"27":{"id":"8583315","label":"San Antonio","value":"8583315","lat":21.6180200000000013460521586239337921142578125,"lon":-98.87115000000000009094947017729282379150390625,"poi_name":"San Antonio","parent_id":"3985605","long":-98.87115000000000009094947017729282379150390625},"28":{"id":"8583316","label":"San Ciro de Acosta","value":"8583316","lat":21.59994999999999976125764078460633754730224609375,"lon":-99.8896299999999968122210702858865261077880859375,"poi_name":"San Ciro de Acosta","parent_id":"3985605","long":-99.8896299999999968122210702858865261077880859375},"29":{"id":"8583317","label":"San Luis Potos\u00ed","value":"8583317","lat":22.33930000000000148929757415316998958587646484375,"lon":-100.9584200000000038244252209551632404327392578125,"poi_name":"San Luis Potos\u00ed","parent_id":"3985605","long":-100.9584200000000038244252209551632404327392578125},"30":{"id":"8583318","label":"San Mart\u00edn Chalchicuautla","value":"8583318","lat":21.39883999999999986130205797962844371795654296875,"lon":-98.62142000000000052750692702829837799072265625,"poi_name":"San Mart\u00edn Chalchicuautla","parent_id":"3985605","long":-98.62142000000000052750692702829837799072265625},"31":{"id":"8583319","label":"San Nicol\u00e1s Tolentino","value":"8583319","lat":22.1624699999999990041033015586435794830322265625,"lon":-100.4991399999999970304997987113893032073974609375,"poi_name":"San Nicol\u00e1s Tolentino","parent_id":"3985605","long":-100.4991399999999970304997987113893032073974609375},"32":{"id":"8583323","label":"San Vicente Tancuayalab","value":"8583323","lat":21.7859499999999997044142219237983226776123046875,"lon":-98.589280000000002246451913379132747650146484375,"poi_name":"San Vicente Tancuayalab","parent_id":"3985605","long":-98.589280000000002246451913379132747650146484375},"33":{"id":"8583320","label":"Santa Catarina","value":"8583320","lat":21.573260000000001213038558489643037319183349609375,"lon":-99.4283599999999978535925038158893585205078125,"poi_name":"Santa Catarina","parent_id":"3985605","long":-99.4283599999999978535925038158893585205078125},"34":{"id":"8583321","label":"Santa Mar\u00eda del R\u00edo","value":"8583321","lat":21.770579999999998932480593794025480747222900390625,"lon":-100.572530000000000427462509833276271820068359375,"poi_name":"Santa Mar\u00eda del R\u00edo","parent_id":"3985605","long":-100.572530000000000427462509833276271820068359375},"35":{"id":"8583322","label":"Santo Domingo","value":"8583322","lat":23.347770000000000578666004003025591373443603515625,"lon":-101.6792200000000008230927051045000553131103515625,"poi_name":"Santo Domingo","parent_id":"3985605","long":-101.6792200000000008230927051045000553131103515625},"36":{"id":"8583324","label":"Soledad de Graciano S\u00e1nchez","value":"8583324","lat":22.21231999999999828787622391246259212493896484375,"lon":-100.8908899999999988494892022572457790374755859375,"poi_name":"Soledad de Graciano S\u00e1nchez","parent_id":"3985605","long":-100.8908899999999988494892022572457790374755859375},"37":{"id":"8583325","label":"Tamasopo","value":"8583325","lat":21.890899999999998470912032644264400005340576171875,"lon":-99.3549100000000038335201679728925228118896484375,"poi_name":"Tamasopo","parent_id":"3985605","long":-99.3549100000000038335201679728925228118896484375},"38":{"id":"8583326","label":"Tamazunchale","value":"8583326","lat":21.242869999999999919282345217652618885040283203125,"lon":-98.7845200000000005502442945726215839385986328125,"poi_name":"Tamazunchale","parent_id":"3985605","long":-98.7845200000000005502442945726215839385986328125},"39":{"id":"8583327","label":"Tampac\u00e1n","value":"8583327","lat":21.413740000000000662794263917021453380584716796875,"lon":-98.737650000000002137312549166381359100341796875,"poi_name":"Tampac\u00e1n","parent_id":"3985605","long":-98.737650000000002137312549166381359100341796875},"40":{"id":"8583328","label":"Tampamol\u00f3n Corona","value":"8583328","lat":21.55751000000000061618266045115888118743896484375,"lon":-98.77902000000000271029421128332614898681640625,"poi_name":"Tampamol\u00f3n Corona","parent_id":"3985605","long":-98.77902000000000271029421128332614898681640625},"41":{"id":"8583329","label":"Tamu\u00edn","value":"8583329","lat":22.07764999999999844249032321386039257049560546875,"lon":-98.72575000000000500222085975110530853271484375,"poi_name":"Tamu\u00edn","parent_id":"3985605","long":-98.72575000000000500222085975110530853271484375},"42":{"id":"8583301","label":"Tancanhuitz","value":"8583301","lat":21.59570000000000078443918027915060520172119140625,"lon":-98.9446899999999942565409583039581775665283203125,"poi_name":"Tancanhuitz","parent_id":"3985605","long":-98.9446899999999942565409583039581775665283203125},"43":{"id":"8583330","label":"Tanlaj\u00e1s","value":"8583330","lat":21.705619999999999691908669774420559406280517578125,"lon":-98.8620700000000027785063139162957668304443359375,"poi_name":"Tanlaj\u00e1s","parent_id":"3985605","long":-98.8620700000000027785063139162957668304443359375},"44":{"id":"8583331","label":"Tanqui\u00e1n de Escobedo","value":"8583331","lat":21.5912900000000007594280759803950786590576171875,"lon":-98.6560999999999950205165077932178974151611328125,"poi_name":"Tanqui\u00e1n de Escobedo","parent_id":"3985605","long":-98.6560999999999950205165077932178974151611328125},"45":{"id":"8583332","label":"Tierra Nueva","value":"8583332","lat":21.659710000000000462705429526977241039276123046875,"lon":-100.502350000000006957634468562901020050048828125,"poi_name":"Tierra Nueva","parent_id":"3985605","long":-100.502350000000006957634468562901020050048828125},"46":{"id":"8583333","label":"Vanegas","value":"8583333","lat":24.0234200000000015506884665228426456451416015625,"lon":-100.954689999999999372448655776679515838623046875,"poi_name":"Vanegas","parent_id":"3985605","long":-100.954689999999999372448655776679515838623046875},"47":{"id":"8583334","label":"Venado","value":"8583334","lat":22.936550000000000437694325228221714496612548828125,"lon":-101.1136099999999942156136967241764068603515625,"poi_name":"Venado","parent_id":"3985605","long":-101.1136099999999942156136967241764068603515625},"48":{"id":"8583340","label":"Villa Hidalgo","value":"8583340","lat":22.53468000000000159843693836592137813568115234375,"lon":-100.6697199999999980946085997857153415679931640625,"poi_name":"Villa Hidalgo","parent_id":"3985605","long":-100.6697199999999980946085997857153415679931640625},"49":{"id":"8583341","label":"Villa Ju\u00e1rez","value":"8583341","lat":22.285689999999998889279595459811389446258544921875,"lon":-100.2178100000000000591171556152403354644775390625,"poi_name":"Villa Ju\u00e1rez","parent_id":"3985605","long":-100.2178100000000000591171556152403354644775390625},"50":{"id":"8583345","label":"Villa de Arista","value":"8583345","lat":22.665189999999999059809852042235434055328369140625,"lon":-100.8563099999999934652805677615106105804443359375,"poi_name":"Villa de Arista","parent_id":"3985605","long":-100.8563099999999934652805677615106105804443359375},"51":{"id":"8583335","label":"Villa de Arriaga","value":"8583335","lat":21.949040000000000105728759081102907657623291015625,"lon":-101.33737999999999601641320623457431793212890625,"poi_name":"Villa de Arriaga","parent_id":"3985605","long":-101.33737999999999601641320623457431793212890625},"52":{"id":"8583336","label":"Villa de Guadalupe","value":"8583336","lat":23.2764600000000001500666257925331592559814453125,"lon":-100.695639999999997371560311876237392425537109375,"poi_name":"Villa de Guadalupe","parent_id":"3985605","long":-100.695639999999997371560311876237392425537109375},"53":{"id":"8583338","label":"Villa de Ramos","value":"8583338","lat":22.92866000000000070713213062845170497894287109375,"lon":-101.98129000000000132786226458847522735595703125,"poi_name":"Villa de Ramos","parent_id":"3985605","long":-101.98129000000000132786226458847522735595703125},"54":{"id":"8583339","label":"Villa de Reyes","value":"8583339","lat":21.840959999999999041619958006776869297027587890625,"lon":-100.9464799999999939927874947898089885711669921875,"poi_name":"Villa de Reyes","parent_id":"3985605","long":-100.9464799999999939927874947898089885711669921875},"55":{"id":"8583337","label":"Villa de la Paz","value":"8583337","lat":23.669090000000000628688212600536644458770751953125,"lon":-100.7249000000000052068571676500141620635986328125,"poi_name":"Villa de la Paz","parent_id":"3985605","long":-100.7249000000000052068571676500141620635986328125},"56":{"id":"8583343","label":"Xilitla","value":"8583343","lat":21.377109999999998279918145271949470043182373046875,"lon":-99.0003999999999990677679306827485561370849609375,"poi_name":"Xilitla","parent_id":"3985605","long":-99.0003999999999990677679306827485561370849609375},"57":{"id":"8583344","label":"Zaragoza","value":"8583344","lat":22.025279999999998636894815717823803424835205078125,"lon":-100.6890700000000009595169103704392910003662109375,"poi_name":"Zaragoza","parent_id":"3985605","long":-100.6890700000000009595169103704392910003662109375}}