{"success":true,"remaining_lookups":8484,"0":{"id":"8582258","label":"Acuitzio","value":"8582258","lat":19.471779999999998977955328882671892642974853515625,"lon":-101.3292100000000033332980819977819919586181640625,"poi_name":"Acuitzio","parent_id":"3995955","long":-101.3292100000000033332980819977819919586181640625},"1":{"id":"8582259","label":"Aguililla","value":"8582259","lat":18.76832999999999884721546550281345844268798828125,"lon":-102.765410000000002810338628478348255157470703125,"poi_name":"Aguililla","parent_id":"3995955","long":-102.765410000000002810338628478348255157470703125},"2":{"id":"8582260","label":"Angamacutiro","value":"8582260","lat":20.134440000000001447233444196172058582305908203125,"lon":-101.7269600000000053796611609868705272674560546875,"poi_name":"Angamacutiro","parent_id":"3995955","long":-101.7269600000000053796611609868705272674560546875},"3":{"id":"8582261","label":"Angangueo","value":"8582261","lat":19.622389999999999332658262574113905429840087890625,"lon":-100.3017899999999968940755934454500675201416015625,"poi_name":"Angangueo","parent_id":"3995955","long":-100.3017899999999968940755934454500675201416015625},"4":{"id":"8582262","label":"Apatzing\u00e1n","value":"8582262","lat":18.98843000000000103000274975784122943878173828125,"lon":-102.421829999999999927240423858165740966796875,"poi_name":"Apatzing\u00e1n","parent_id":"3995955","long":-102.421829999999999927240423858165740966796875},"5":{"id":"8582263","label":"Aporo","value":"8582263","lat":19.651920000000000499085217597894370555877685546875,"lon":-100.3958300000000036789060686714947223663330078125,"poi_name":"Aporo","parent_id":"3995955","long":-100.3958300000000036789060686714947223663330078125},"6":{"id":"8582264","label":"Aquila","value":"8582264","lat":18.3758499999999997953636921010911464691162109375,"lon":-103.2231000000000022964741219766438007354736328125,"poi_name":"Aquila","parent_id":"3995955","long":-103.2231000000000022964741219766438007354736328125},"7":{"id":"8582265","label":"Ario","value":"8582265","lat":19.1647099999999994679455994628369808197021484375,"lon":-101.7066300000000040881786844693124294281005859375,"poi_name":"Ario","parent_id":"3995955","long":-101.7066300000000040881786844693124294281005859375},"8":{"id":"8582266","label":"Arteaga","value":"8582266","lat":18.322199999999998709654391859658062458038330078125,"lon":-102.370059999999995170583133585751056671142578125,"poi_name":"Arteaga","parent_id":"3995955","long":-102.370059999999995170583133585751056671142578125},"9":{"id":"8582267","label":"Brise\u00f1as","value":"8582267","lat":20.251490000000000435420588473789393901824951171875,"lon":-102.5712400000000030786395655013620853424072265625,"poi_name":"Brise\u00f1as","parent_id":"3995955","long":-102.5712400000000030786395655013620853424072265625},"10":{"id":"8582268","label":"Buenavista","value":"8582268","lat":19.18802000000000163026925292797386646270751953125,"lon":-102.584710000000001173248165287077426910400390625,"poi_name":"Buenavista","parent_id":"3995955","long":-102.584710000000001173248165287077426910400390625},"11":{"id":"8582269","label":"Car\u00e1cuaro","value":"8582269","lat":18.985130000000001615489964024163782596588134765625,"lon":-101.041640000000001009539118967950344085693359375,"poi_name":"Car\u00e1cuaro","parent_id":"3995955","long":-101.041640000000001009539118967950344085693359375},"12":{"id":"8582277","label":"Charapan","value":"8582277","lat":19.65780000000000171667124959640204906463623046875,"lon":-102.245260000000001809894456528127193450927734375,"poi_name":"Charapan","parent_id":"3995955","long":-102.245260000000001809894456528127193450927734375},"13":{"id":"8582278","label":"Charo","value":"8582278","lat":19.66465000000000173940861714072525501251220703125,"lon":-101.0148899999999940746420179493725299835205078125,"poi_name":"Charo","parent_id":"3995955","long":-101.0148899999999940746420179493725299835205078125},"14":{"id":"8582279","label":"Chavinda","value":"8582279","lat":20.0476799999999997226041159592568874359130859375,"lon":-102.4391399999999947567630442790687084197998046875,"poi_name":"Chavinda","parent_id":"3995955","long":-102.4391399999999947567630442790687084197998046875},"15":{"id":"8582280","label":"Cher\u00e1n","value":"8582280","lat":19.704100000000000392219590139575302600860595703125,"lon":-101.9969999999999998863131622783839702606201171875,"poi_name":"Cher\u00e1n","parent_id":"3995955","long":-101.9969999999999998863131622783839702606201171875},"16":{"id":"8582281","label":"Chilchota","value":"8582281","lat":19.841899999999998982502802391536533832550048828125,"lon":-102.0847700000000060072125052101910114288330078125,"poi_name":"Chilchota","parent_id":"3995955","long":-102.0847700000000060072125052101910114288330078125},"17":{"id":"8582282","label":"Chinicuila","value":"8582282","lat":18.722339999999999093915903358720242977142333984375,"lon":-103.390299999999996316546457819640636444091796875,"poi_name":"Chinicuila","parent_id":"3995955","long":-103.390299999999996316546457819640636444091796875},"18":{"id":"8582283","label":"Chuc\u00e1ndiro","value":"8582283","lat":19.891490000000001003854777081869542598724365234375,"lon":-101.348309999999997899067238904535770416259765625,"poi_name":"Chuc\u00e1ndiro","parent_id":"3995955","long":-101.348309999999997899067238904535770416259765625},"19":{"id":"8582284","label":"Churintzio","value":"8582284","lat":20.12848999999999932697392068803310394287109375,"lon":-102.081040000000001555235940031707286834716796875,"poi_name":"Churintzio","parent_id":"3995955","long":-102.081040000000001555235940031707286834716796875},"20":{"id":"8582285","label":"Churumuco","value":"8582285","lat":18.706289999999999196234057308174669742584228515625,"lon":-101.609859999999997626218828372657299041748046875,"poi_name":"Churumuco","parent_id":"3995955","long":-101.609859999999997626218828372657299041748046875},"21":{"id":"8582270","label":"Coahuayana","value":"8582270","lat":18.72910999999999859255694900639355182647705078125,"lon":-103.6371299999999990859578247182071208953857421875,"poi_name":"Coahuayana","parent_id":"3995955","long":-103.6371299999999990859578247182071208953857421875},"22":{"id":"8582271","label":"Coalcom\u00e1n de V\u00e1zquez Pallares","value":"8582271","lat":18.667809999999999348574419855140149593353271484375,"lon":-103.103870000000000572981662116944789886474609375,"poi_name":"Coalcom\u00e1n de V\u00e1zquez Pallares","parent_id":"3995955","long":-103.103870000000000572981662116944789886474609375},"23":{"id":"8582272","label":"Coeneo","value":"8582272","lat":19.810669999999998225348463165573775768280029296875,"lon":-101.619560000000006994014256633818149566650390625,"poi_name":"Coeneo","parent_id":"3995955","long":-101.619560000000006994014256633818149566650390625},"24":{"id":"8582331","label":"Cojumatl\u00e1n de R\u00e9gules","value":"8582331","lat":20.11395999999999872898115427233278751373291015625,"lon":-102.8700500000000062073013396002352237701416015625,"poi_name":"Cojumatl\u00e1n de R\u00e9gules","parent_id":"3995955","long":-102.8700500000000062073013396002352237701416015625},"25":{"id":"8582273","label":"Contepec","value":"8582273","lat":19.954930000000000944737621466629207134246826171875,"lon":-100.2123500000000007048583938740193843841552734375,"poi_name":"Contepec","parent_id":"3995955","long":-100.2123500000000007048583938740193843841552734375},"26":{"id":"8582274","label":"Cop\u00e1ndaro","value":"8582274","lat":19.88938999999999879264578339643776416778564453125,"lon":-101.238889999999997826307662762701511383056640625,"poi_name":"Cop\u00e1ndaro","parent_id":"3995955","long":-101.238889999999997826307662762701511383056640625},"27":{"id":"8582275","label":"Cotija","value":"8582275","lat":19.7480800000000016325429896824061870574951171875,"lon":-102.7087800000000044065018300898373126983642578125,"poi_name":"Cotija","parent_id":"3995955","long":-102.7087800000000044065018300898373126983642578125},"28":{"id":"8582276","label":"Cuitzeo","value":"8582276","lat":19.995850000000000790123522165231406688690185546875,"lon":-101.1431500000000056616045185364782810211181640625,"poi_name":"Cuitzeo","parent_id":"3995955","long":-101.1431500000000056616045185364782810211181640625},"29":{"id":"8582286","label":"Ecuandureo","value":"8582286","lat":20.152029999999999887450030655600130558013916015625,"lon":-102.2253999999999933834260446019470691680908203125,"poi_name":"Ecuandureo","parent_id":"3995955","long":-102.2253999999999933834260446019470691680908203125},"30":{"id":"8582287","label":"Epitacio Huerta","value":"8582287","lat":20.146609999999999018882590462453663349151611328125,"lon":-100.2857699999999994133759173564612865447998046875,"poi_name":"Epitacio Huerta","parent_id":"3995955","long":-100.2857699999999994133759173564612865447998046875},"31":{"id":"8582288","label":"Erongar\u00edcuaro","value":"8582288","lat":19.593419999999998282191882026381790637969970703125,"lon":-101.7200100000000020372681319713592529296875,"poi_name":"Erongar\u00edcuaro","parent_id":"3995955","long":-101.7200100000000020372681319713592529296875},"32":{"id":"8582289","label":"Gabriel Zamora","value":"8582289","lat":19.1745599999999996043698047287762165069580078125,"lon":-102.0172199999999946840034681372344493865966796875,"poi_name":"Gabriel Zamora","parent_id":"3995955","long":-102.0172199999999946840034681372344493865966796875},"33":{"id":"8582291","label":"Hidalgo","value":"8582291","lat":19.588660000000000849240677780471742153167724609375,"lon":-100.6709000000000031604940886609256267547607421875,"poi_name":"Hidalgo","parent_id":"3995955","long":-100.6709000000000031604940886609256267547607421875},"34":{"id":"8582293","label":"Huandacareo","value":"8582293","lat":19.97831000000000045702108764089643955230712890625,"lon":-101.285089999999996734914020635187625885009765625,"poi_name":"Huandacareo","parent_id":"3995955","long":-101.285089999999996734914020635187625885009765625},"35":{"id":"8582294","label":"Huaniqueo","value":"8582294","lat":19.8946499999999986130205797962844371795654296875,"lon":-101.5122099999999960573404678143560886383056640625,"poi_name":"Huaniqueo","parent_id":"3995955","long":-101.5122099999999960573404678143560886383056640625},"36":{"id":"8582295","label":"Huetamo","value":"8582295","lat":18.65769999999999839701558812521398067474365234375,"lon":-101.05964000000000169166014529764652252197265625,"poi_name":"Huetamo","parent_id":"3995955","long":-101.05964000000000169166014529764652252197265625},"37":{"id":"8582296","label":"Huiramba","value":"8582296","lat":19.526450000000000528643795405514538288116455078125,"lon":-101.4595900000000057161742006428539752960205078125,"poi_name":"Huiramba","parent_id":"3995955","long":-101.4595900000000057161742006428539752960205078125},"38":{"id":"8582297","label":"Indaparapeo","value":"8582297","lat":19.759940000000000281943357549607753753662109375,"lon":-100.9453500000000047975845518521964550018310546875,"poi_name":"Indaparapeo","parent_id":"3995955","long":-100.9453500000000047975845518521964550018310546875},"39":{"id":"8582298","label":"Irimbo","value":"8582298","lat":19.7075999999999993406163412146270275115966796875,"lon":-100.463539999999994734025676734745502471923828125,"poi_name":"Irimbo","parent_id":"3995955","long":-100.463539999999994734025676734745502471923828125},"40":{"id":"8582299","label":"Ixtl\u00e1n","value":"8582299","lat":20.144259999999999166675479500554502010345458984375,"lon":-102.4107000000000056161297834478318691253662109375,"poi_name":"Ixtl\u00e1n","parent_id":"3995955","long":-102.4107000000000056161297834478318691253662109375},"41":{"id":"8582300","label":"Jacona","value":"8582300","lat":19.949510000000000076170181273482739925384521484375,"lon":-102.31788000000000238287611864507198333740234375,"poi_name":"Jacona","parent_id":"3995955","long":-102.31788000000000238287611864507198333740234375},"42":{"id":"8582301","label":"Jim\u00e9nez","value":"8582301","lat":19.923919999999998964312908356077969074249267578125,"lon":-101.72894999999999754436430521309375762939453125,"poi_name":"Jim\u00e9nez","parent_id":"3995955","long":-101.72894999999999754436430521309375762939453125},"43":{"id":"8582302","label":"Jiquilpan","value":"8582302","lat":19.984739999999998616431184927932918071746826171875,"lon":-102.75099000000000160071067512035369873046875,"poi_name":"Jiquilpan","parent_id":"3995955","long":-102.75099000000000160071067512035369873046875},"44":{"id":"8582369","label":"Jos\u00e9 Sixto Verduzco","value":"8582369","lat":20.275059999999999860165189602412283420562744140625,"lon":-101.564300000000002910383045673370361328125,"poi_name":"Jos\u00e9 Sixto Verduzco","parent_id":"3995955","long":-101.564300000000002910383045673370361328125},"45":{"id":"8582304","label":"Jungapeo","value":"8582304","lat":19.44836000000000097998054116033017635345458984375,"lon":-100.5144800000000060435922932811081409454345703125,"poi_name":"Jungapeo","parent_id":"3995955","long":-100.5144800000000060435922932811081409454345703125},"46":{"id":"8582303","label":"Ju\u00e1rez","value":"8582303","lat":19.303979999999999250803739414550364017486572265625,"lon":-100.4324299999999965393726597540080547332763671875,"poi_name":"Ju\u00e1rez","parent_id":"3995955","long":-100.4324299999999965393726597540080547332763671875},"47":{"id":"8582292","label":"La Huacana","value":"8582292","lat":18.8877600000000001045918907038867473602294921875,"lon":-101.87490999999999985448084771633148193359375,"poi_name":"La Huacana","parent_id":"3995955","long":-101.87490999999999985448084771633148193359375},"48":{"id":"8582326","label":"La Piedad","value":"8582326","lat":20.316739999999999355395630118437111377716064453125,"lon":-102.03113999999999350620782934129238128662109375,"poi_name":"La Piedad","parent_id":"3995955","long":-102.03113999999999350620782934129238128662109375},"49":{"id":"8582305","label":"Lagunillas","value":"8582305","lat":19.570699999999998652810972998850047588348388671875,"lon":-101.419409999999999172359821386635303497314453125,"poi_name":"Lagunillas","parent_id":"3995955","long":-101.419409999999999172359821386635303497314453125},"50":{"id":"8582332","label":"Los Reyes","value":"8582332","lat":19.6490900000000010550138540565967559814453125,"lon":-102.4136400000000008958522812463343143463134765625,"poi_name":"Los Reyes","parent_id":"3995955","long":-102.4136400000000008958522812463343143463134765625},"51":{"id":"8582309","label":"L\u00e1zaro C\u00e1rdenas","value":"8582309","lat":18.071259999999998768771547474898397922515869140625,"lon":-102.3821999999999974306774674914777278900146484375,"poi_name":"L\u00e1zaro C\u00e1rdenas","parent_id":"3995955","long":-102.3821999999999974306774674914777278900146484375},"52":{"id":"8582306","label":"Madero","value":"8582306","lat":19.33549000000000006593836587853729724884033203125,"lon":-101.1547900000000055342752602882683277130126953125,"poi_name":"Madero","parent_id":"3995955","long":-101.1547900000000055342752602882683277130126953125},"53":{"id":"8582307","label":"Maravat\u00edo","value":"8582307","lat":19.89016000000000161662683240137994289398193359375,"lon":-100.42369999999999663486960344016551971435546875,"poi_name":"Maravat\u00edo","parent_id":"3995955","long":-100.42369999999999663486960344016551971435546875},"54":{"id":"8582308","label":"Marcos Castellanos","value":"8582308","lat":20.035129999999998773319020983763039112091064453125,"lon":-102.9727400000000017143975128419697284698486328125,"poi_name":"Marcos Castellanos","parent_id":"3995955","long":-102.9727400000000017143975128419697284698486328125},"55":{"id":"8582310","label":"Morelia","value":"8582310","lat":19.653439999999999798774297232739627361297607421875,"lon":-101.2520200000000016871126717887818813323974609375,"poi_name":"Morelia","parent_id":"3995955","long":-101.2520200000000016871126717887818813323974609375},"56":{"id":"8582311","label":"Morelos","value":"8582311","lat":19.992689999999999628244040650315582752227783203125,"lon":-101.43650999999999839928932487964630126953125,"poi_name":"Morelos","parent_id":"3995955","long":-101.43650999999999839928932487964630126953125},"57":{"id":"8582312","label":"M\u00fagica","value":"8582312","lat":18.98592000000000012960299500264227390289306640625,"lon":-102.121319999999997207851265557110309600830078125,"poi_name":"M\u00fagica","parent_id":"3995955","long":-102.121319999999997207851265557110309600830078125},"58":{"id":"8582313","label":"Nahuatzen","value":"8582313","lat":19.630289999999998684643287560902535915374755859375,"lon":-101.8959899999999976216713548637926578521728515625,"poi_name":"Nahuatzen","parent_id":"3995955","long":-101.8959899999999976216713548637926578521728515625},"59":{"id":"8582314","label":"Nocup\u00e9taro","value":"8582314","lat":19.113029999999998409521140274591743946075439453125,"lon":-101.212500000000005684341886080801486968994140625,"poi_name":"Nocup\u00e9taro","parent_id":"3995955","long":-101.212500000000005684341886080801486968994140625},"60":{"id":"8582315","label":"Nuevo Parangaricutiro","value":"8582315","lat":19.39220999999999861529431655071675777435302734375,"lon":-102.183909999999997353370417840778827667236328125,"poi_name":"Nuevo Parangaricutiro","parent_id":"3995955","long":-102.183909999999997353370417840778827667236328125},"61":{"id":"8582316","label":"Nuevo Urecho","value":"8582316","lat":19.15417000000000058435034588910639286041259765625,"lon":-101.8613399999999984402165864594280719757080078125,"poi_name":"Nuevo Urecho","parent_id":"3995955","long":-101.8613399999999984402165864594280719757080078125},"62":{"id":"8582317","label":"Numar\u00e1n","value":"8582317","lat":20.27262999999999948386175674386322498321533203125,"lon":-101.962950000000006411937647499144077301025390625,"poi_name":"Numar\u00e1n","parent_id":"3995955","long":-101.962950000000006411937647499144077301025390625},"63":{"id":"8582318","label":"Ocampo","value":"8582318","lat":19.58442000000000149384504766203463077545166015625,"lon":-100.3422000000000053887561080045998096466064453125,"poi_name":"Ocampo","parent_id":"3995955","long":-100.3422000000000053887561080045998096466064453125},"64":{"id":"8582319","label":"Pajacuar\u00e1n","value":"8582319","lat":20.134840000000000515001374878920614719390869140625,"lon":-102.5258900000000039653968997299671173095703125,"poi_name":"Pajacuar\u00e1n","parent_id":"3995955","long":-102.5258900000000039653968997299671173095703125},"65":{"id":"8582320","label":"Panind\u00edcuaro","value":"8582320","lat":20.01154999999999972715158946812152862548828125,"lon":-101.7646199999999936380845610983669757843017578125,"poi_name":"Panind\u00edcuaro","parent_id":"3995955","long":-101.7646199999999936380845610983669757843017578125},"66":{"id":"8582322","label":"Paracho","value":"8582322","lat":19.648250000000000881072992342524230480194091796875,"lon":-102.0650499999999993860910763032734394073486328125,"poi_name":"Paracho","parent_id":"3995955","long":-102.0650499999999993860910763032734394073486328125},"67":{"id":"8582321","label":"Par\u00e1cuaro","value":"8582321","lat":19.047979999999999023430063971318304538726806640625,"lon":-102.2235699999999951614881865680217742919921875,"poi_name":"Par\u00e1cuaro","parent_id":"3995955","long":-102.2235699999999951614881865680217742919921875},"68":{"id":"8582324","label":"Penjamillo","value":"8582324","lat":20.13410999999999972942532622255384922027587890625,"lon":-101.9125999999999976353137753903865814208984375,"poi_name":"Penjamillo","parent_id":"3995955","long":-101.9125999999999976353137753903865814208984375},"69":{"id":"8582325","label":"Perib\u00e1n","value":"8582325","lat":19.50441000000000002501110429875552654266357421875,"lon":-102.427719999999993660821928642690181732177734375,"poi_name":"Perib\u00e1n","parent_id":"3995955","long":-102.427719999999993660821928642690181732177734375},"70":{"id":"8582328","label":"Puru\u00e1ndiro","value":"8582328","lat":20.112110000000001264197635464370250701904296875,"lon":-101.5234999999999985220711096189916133880615234375,"poi_name":"Puru\u00e1ndiro","parent_id":"3995955","long":-101.5234999999999985220711096189916133880615234375},"71":{"id":"8582327","label":"Pur\u00e9pero","value":"8582327","lat":19.905460000000001485886969021521508693695068359375,"lon":-101.997039999999998372004483826458454132080078125,"poi_name":"Pur\u00e9pero","parent_id":"3995955","long":-101.997039999999998372004483826458454132080078125},"72":{"id":"8582323","label":"P\u00e1tzcuaro","value":"8582323","lat":19.507999999999999118927007657475769519805908203125,"lon":-101.5850099999999969213604344986379146575927734375,"poi_name":"P\u00e1tzcuaro","parent_id":"3995955","long":-101.5850099999999969213604344986379146575927734375},"73":{"id":"8582329","label":"Quer\u00e9ndaro","value":"8582329","lat":19.697449999999999903366187936626374721527099609375,"lon":-100.8437899999999984856913215480744838714599609375,"poi_name":"Quer\u00e9ndaro","parent_id":"3995955","long":-100.8437899999999984856913215480744838714599609375},"74":{"id":"8582330","label":"Quiroga","value":"8582330","lat":19.67202999999999946112438919954001903533935546875,"lon":-101.5439300000000031332092476077377796173095703125,"poi_name":"Quiroga","parent_id":"3995955","long":-101.5439300000000031332092476077377796173095703125},"75":{"id":"8582333","label":"Sahuayo","value":"8582333","lat":20.057919999999999305373421520926058292388916015625,"lon":-102.7511899999999940291672828607261180877685546875,"poi_name":"Sahuayo","parent_id":"3995955","long":-102.7511899999999940291672828607261180877685546875},"76":{"id":"8582336","label":"Salvador Escalante","value":"8582336","lat":19.373349999999998516386767732910811901092529296875,"lon":-101.69616999999999507053871639072895050048828125,"poi_name":"Salvador Escalante","parent_id":"3995955","long":-101.69616999999999507053871639072895050048828125},"77":{"id":"8582334","label":"San Lucas","value":"8582334","lat":18.587070000000000646878106635995209217071533203125,"lon":-100.7986499999999949750417727045714855194091796875,"poi_name":"San Lucas","parent_id":"3995955","long":-100.7986499999999949750417727045714855194091796875},"78":{"id":"8582335","label":"Santa Ana Maya","value":"8582335","lat":20.041460000000000718500814400613307952880859375,"lon":-101.042090000000001737134880386292934417724609375,"poi_name":"Santa Ana Maya","parent_id":"3995955","long":-101.042090000000001737134880386292934417724609375},"79":{"id":"8582337","label":"Senguio","value":"8582337","lat":19.753859999999999530473360209725797176361083984375,"lon":-100.3377100000000012869350030086934566497802734375,"poi_name":"Senguio","parent_id":"3995955","long":-100.3377100000000012869350030086934566497802734375},"80":{"id":"8582338","label":"Susupuato","value":"8582338","lat":19.1958699999999993224264471791684627532958984375,"lon":-100.406329999999996971382643096148967742919921875,"poi_name":"Susupuato","parent_id":"3995955","long":-100.406329999999996971382643096148967742919921875},"81":{"id":"8582339","label":"Tac\u00e1mbaro","value":"8582339","lat":19.240330000000000154614099301397800445556640625,"lon":-101.4472999999999984765963745303452014923095703125,"poi_name":"Tac\u00e1mbaro","parent_id":"3995955","long":-101.4472999999999984765963745303452014923095703125},"82":{"id":"8582340","label":"Tanc\u00edtaro","value":"8582340","lat":19.310669999999998225348463165573775768280029296875,"lon":-102.348399999999998044586391188204288482666015625,"poi_name":"Tanc\u00edtaro","parent_id":"3995955","long":-102.348399999999998044586391188204288482666015625},"83":{"id":"8582341","label":"Tangamandapio","value":"8582341","lat":19.911629999999998830162439844571053981781005859375,"lon":-102.434089999999997644408722408115863800048828125,"poi_name":"Tangamandapio","parent_id":"3995955","long":-102.434089999999997644408722408115863800048828125},"84":{"id":"8582342","label":"Tanganc\u00edcuaro","value":"8582342","lat":19.882940000000001390390025335364043712615966796875,"lon":-102.22858999999999696228769607841968536376953125,"poi_name":"Tanganc\u00edcuaro","parent_id":"3995955","long":-102.22858999999999696228769607841968536376953125},"85":{"id":"8582343","label":"Tanhuato","value":"8582343","lat":20.28520999999999929741534288041293621063232421875,"lon":-102.3391100000000051295501179993152618408203125,"poi_name":"Tanhuato","parent_id":"3995955","long":-102.3391100000000051295501179993152618408203125},"86":{"id":"8582344","label":"Taretan","value":"8582344","lat":19.327980000000000160298441187478601932525634765625,"lon":-101.91019000000000005456968210637569427490234375,"poi_name":"Taretan","parent_id":"3995955","long":-101.91019000000000005456968210637569427490234375},"87":{"id":"8582345","label":"Tar\u00edmbaro","value":"8582345","lat":19.791810000000001679154593148268759250640869140625,"lon":-101.150339999999999918145476840436458587646484375,"poi_name":"Tar\u00edmbaro","parent_id":"3995955","long":-101.150339999999999918145476840436458587646484375},"88":{"id":"8582346","label":"Tepalcatepec","value":"8582346","lat":19.060300000000001574562702444382011890411376953125,"lon":-102.8451299999999974943420966155827045440673828125,"poi_name":"Tepalcatepec","parent_id":"3995955","long":-102.8451299999999974943420966155827045440673828125},"89":{"id":"8582347","label":"Tingambato","value":"8582347","lat":19.49043999999999954297891235910356044769287109375,"lon":-101.8620599999999996043698047287762165069580078125,"poi_name":"Tingambato","parent_id":"3995955","long":-101.8620599999999996043698047287762165069580078125},"90":{"id":"8582349","label":"Ting\u00fcind\u00edn","value":"8582349","lat":19.779279999999999972715158946812152862548828125,"lon":-102.4977300000000042246028897352516651153564453125,"poi_name":"Ting\u00fcind\u00edn","parent_id":"3995955","long":-102.4977300000000042246028897352516651153564453125},"91":{"id":"8582350","label":"Tiquicheo de Nicol\u00e1s Romero","value":"8582350","lat":19.080890000000000128466126625426113605499267578125,"lon":-100.8255199999999973670128383673727512359619140625,"poi_name":"Tiquicheo de Nicol\u00e1s Romero","parent_id":"3995955","long":-100.8255199999999973670128383673727512359619140625},"92":{"id":"8582351","label":"Tlalpujahua","value":"8582351","lat":19.7797699999999991860022419132292270660400390625,"lon":-100.197259999999999990905052982270717620849609375,"poi_name":"Tlalpujahua","parent_id":"3995955","long":-100.197259999999999990905052982270717620849609375},"93":{"id":"8582352","label":"Tlazazalca","value":"8582352","lat":19.999880000000000990212356555275619029998779296875,"lon":-102.0727600000000023783286451362073421478271484375,"poi_name":"Tlazazalca","parent_id":"3995955","long":-102.0727600000000023783286451362073421478271484375},"94":{"id":"8583692","label":"Tocumbo","value":"8583692","lat":19.620000000000000994759830064140260219573974609375,"lon":-102.6006799999999969941200106404721736907958984375,"poi_name":"Tocumbo","parent_id":"3995955","long":-102.6006799999999969941200106404721736907958984375},"95":{"id":"8582353","label":"Tumbiscat\u00edo","value":"8582353","lat":18.5395800000000008367351256310939788818359375,"lon":-102.53491999999999961801222525537014007568359375,"poi_name":"Tumbiscat\u00edo","parent_id":"3995955","long":-102.53491999999999961801222525537014007568359375},"96":{"id":"8582354","label":"Turicato","value":"8582354","lat":18.953230000000001354010237264446914196014404296875,"lon":-101.423890000000000100044417195022106170654296875,"poi_name":"Turicato","parent_id":"3995955","long":-101.423890000000000100044417195022106170654296875},"97":{"id":"8582355","label":"Tuxpan","value":"8582355","lat":19.567329999999998335624695755541324615478515625,"lon":-100.4851599999999933743310975842177867889404296875,"poi_name":"Tuxpan","parent_id":"3995955","long":-100.4851599999999933743310975842177867889404296875},"98":{"id":"8582356","label":"Tuzantla","value":"8582356","lat":19.241150000000001085709300241433084011077880859375,"lon":-100.6172600000000016962076188065111637115478515625,"poi_name":"Tuzantla","parent_id":"3995955","long":-100.6172600000000016962076188065111637115478515625},"99":{"id":"8582357","label":"Tzintzuntzan","value":"8582357","lat":19.60593000000000074578565545380115509033203125,"lon":-101.54797999999999547071638517081737518310546875,"poi_name":"Tzintzuntzan","parent_id":"3995955","long":-101.54797999999999547071638517081737518310546875}}