{"success":true,"remaining_lookups":9331,"0":{"id":"11237877","label":"Bidjabidjan","value":"11237877","lat":2.1630099999999998772182152606546878814697265625,"lon":11.1490600000000004143885234952904284000396728515625,"poi_name":"Bidjabidjan","parent_id":"2566981","long":11.1490600000000004143885234952904284000396728515625},"1":{"id":"2309335","label":"Ebebiy\u00edn","value":"2309335","lat":1.9166700000000000958522150540375150740146636962890625,"lon":11.166669999999999873807610129006206989288330078125,"poi_name":"Ebebiy\u00edn","parent_id":"2566981","long":11.166669999999999873807610129006206989288330078125},"2":{"id":"2308017","label":"Micomeseng","value":"2308017","lat":2,"lon":10.666669999999999873807610129006206989288330078125,"poi_name":"Micomeseng","parent_id":"2566981","long":10.666669999999999873807610129006206989288330078125},"3":{"id":"11237869","label":"Ncue","value":"11237869","lat":2.0124399999999997845634425175376236438751220703125,"lon":10.46976000000000084355633589439094066619873046875,"poi_name":"Ncue","parent_id":"2566981","long":10.46976000000000084355633589439094066619873046875},"4":{"id":"11237868","label":"Nsang","value":"11237868","lat":2.023759999999999781294945933041162788867950439453125,"lon":10.939460000000000405862010666169226169586181640625,"poi_name":"Nsang","parent_id":"2566981","long":10.939460000000000405862010666169226169586181640625},"5":{"id":"11237881","label":"Nsork-Nzomo","value":"11237881","lat":2.002170000000000005258016244624741375446319580078125,"lon":10.9790299999999998448174665099941194057464599609375,"poi_name":"Nsork-Nzomo","parent_id":"2566981","long":10.9790299999999998448174665099941194057464599609375}}