{"success":true,"remaining_lookups":7194,"0":{"id":"8131511","label":"Municipio Almirante Padilla","value":"8131511","lat":10.95400000000000062527760746888816356658935546875,"lon":-71.6490600000000057434590416960418224334716796875,"poi_name":"Municipio Almirante Padilla","parent_id":"3625035","long":-71.6490600000000057434590416960418224334716796875},"1":{"id":"3648586","label":"Municipio Baralt","value":"3648586","lat":9.833330000000000126192389870993793010711669921875,"lon":-70.9166699999999963210939313285052776336669921875,"poi_name":"Municipio Baralt","parent_id":"3625035","long":-70.9166699999999963210939313285052776336669921875},"2":{"id":"8129199","label":"Municipio Cabimas","value":"8129199","lat":10.3666699999999991632648743689060211181640625,"lon":-71.400000000000005684341886080801486968994140625,"poi_name":"Municipio Cabimas","parent_id":"3625035","long":-71.400000000000005684341886080801486968994140625},"3":{"id":"8129217","label":"Municipio Catatumbo","value":"8129217","lat":9.0608500000000002927436071331612765789031982421875,"lon":-72.23412999999999328792910091578960418701171875,"poi_name":"Municipio Catatumbo","parent_id":"3625035","long":-72.23412999999999328792910091578960418701171875},"4":{"id":"3645361","label":"Municipio Col\u00f3n","value":"3645361","lat":9,"lon":-72.0833300000000036789060686714947223663330078125,"poi_name":"Municipio Col\u00f3n","parent_id":"3625035","long":-72.0833300000000036789060686714947223663330078125},"5":{"id":"8131512","label":"Municipio Francisco Javier Pulgar","value":"8131512","lat":8.963499999999999801048033987171947956085205078125,"lon":-71.6173000000000001818989403545856475830078125,"poi_name":"Municipio Francisco Javier Pulgar","parent_id":"3625035","long":-71.6173000000000001818989403545856475830078125},"6":{"id":"8131513","label":"Municipio Jes\u00fas Enrique Lossada","value":"8131513","lat":10.6206200000000006156142262625508010387420654296875,"lon":-71.836510000000004083631210960447788238525390625,"poi_name":"Municipio Jes\u00fas Enrique Lossada","parent_id":"3625035","long":-71.836510000000004083631210960447788238525390625},"7":{"id":"8129265","label":"Municipio Jes\u00fas Mar\u00eda Sempr\u00fan","value":"8129265","lat":8.744930000000000092086338554508984088897705078125,"lon":-72.5196700000000049612935981713235378265380859375,"poi_name":"Municipio Jes\u00fas Mar\u00eda Sempr\u00fan","parent_id":"3625035","long":-72.5196700000000049612935981713235378265380859375},"8":{"id":"8129197","label":"Municipio La Ca\u00f1ada de Urdaneta","value":"8129197","lat":10.800000000000000710542735760100185871124267578125,"lon":-71.766670000000004847606760449707508087158203125,"poi_name":"Municipio La Ca\u00f1ada de Urdaneta","parent_id":"3625035","long":-71.766670000000004847606760449707508087158203125},"9":{"id":"8129209","label":"Municipio Lagunillas","value":"8129209","lat":10.1963500000000006906475391588173806667327880859375,"lon":-71.3081799999999930150806903839111328125,"poi_name":"Municipio Lagunillas","parent_id":"3625035","long":-71.3081799999999930150806903839111328125},"10":{"id":"8129198","label":"Municipio Machiques de Perij\u00e1","value":"8129198","lat":10.0644399999999993866595104918815195560455322265625,"lon":-72.5450000000000017053025658242404460906982421875,"poi_name":"Municipio Machiques de Perij\u00e1","parent_id":"3625035","long":-72.5450000000000017053025658242404460906982421875},"11":{"id":"3633019","label":"Municipio Mara","value":"3633019","lat":10.916669999999999873807610129006206989288330078125,"lon":-72.0833300000000036789060686714947223663330078125,"poi_name":"Municipio Mara","parent_id":"3625035","long":-72.0833300000000036789060686714947223663330078125},"12":{"id":"3633006","label":"Municipio Maracaibo","value":"3633006","lat":10.666669999999999873807610129006206989288330078125,"lon":-72.1666699999999963210939313285052776336669921875,"poi_name":"Municipio Maracaibo","parent_id":"3625035","long":-72.1666699999999963210939313285052776336669921875},"13":{"id":"3632193","label":"Municipio Miranda","value":"3632193","lat":10.75,"lon":-71.25,"poi_name":"Municipio Miranda","parent_id":"3625035","long":-71.25},"14":{"id":"3631168","label":"Municipio P\u00e1ez","value":"3631168","lat":11.333330000000000126192389870993793010711669921875,"lon":-72,"poi_name":"Municipio P\u00e1ez","parent_id":"3625035","long":-72},"15":{"id":"8131514","label":"Municipio Rosario de Perij\u00e1","value":"8131514","lat":10.32573000000000007503331289626657962799072265625,"lon":-72.3144099999999951933205011300742626190185546875,"poi_name":"Municipio Rosario de Perij\u00e1","parent_id":"3625035","long":-72.3144099999999951933205011300742626190185546875},"16":{"id":"8131515","label":"Municipio San Francisco","value":"8131515","lat":10.5544799999999998618704921682365238666534423828125,"lon":-71.706050000000004729372449219226837158203125,"poi_name":"Municipio San Francisco","parent_id":"3625035","long":-71.706050000000004729372449219226837158203125},"17":{"id":"8131516","label":"Municipio Santa Rita","value":"8131516","lat":10.534729999999999705551090301014482975006103515625,"lon":-71.5069199999999938199835014529526233673095703125,"poi_name":"Municipio Santa Rita","parent_id":"3625035","long":-71.5069199999999938199835014529526233673095703125},"18":{"id":"8129196","label":"Municipio Sim\u00f3n Bol\u00edvar","value":"8129196","lat":10.2583800000000007202061169664375483989715576171875,"lon":-71.3686500000000023646862246096134185791015625,"poi_name":"Municipio Sim\u00f3n Bol\u00edvar","parent_id":"3625035","long":-71.3686500000000023646862246096134185791015625},"19":{"id":"3626661","label":"Municipio Sucre","value":"3626661","lat":9.083330000000000126192389870993793010711669921875,"lon":-71.25,"poi_name":"Municipio Sucre","parent_id":"3625035","long":-71.25},"20":{"id":"8131517","label":"Municipio Valmore Rodr\u00edguez","value":"8131517","lat":9.9702000000000001733724275254644453525543212890625,"lon":-71.1472899999999981446308083832263946533203125,"poi_name":"Municipio Valmore Rodr\u00edguez","parent_id":"3625035","long":-71.1472899999999981446308083832263946533203125}}