{"success":true,"remaining_lookups":7193,"0":{"id":"3649812","label":"Municipio Acevedo","value":"3649812","lat":10.25,"lon":-66.3333300000000036789060686714947223663330078125,"poi_name":"Municipio Acevedo","parent_id":"3632191","long":-66.3333300000000036789060686714947223663330078125},"1":{"id":"8131441","label":"Municipio Andr\u00e9s Bello","value":"8131441","lat":10.2973499999999997811528373858891427516937255859375,"lon":-65.9955599999999975580067257396876811981201171875,"poi_name":"Municipio Andr\u00e9s Bello","parent_id":"3632191","long":-65.9955599999999975580067257396876811981201171875},"2":{"id":"8131442","label":"Municipio Baruta","value":"8131442","lat":10.433460000000000178488335222937166690826416015625,"lon":-66.8754100000000022419044398702681064605712890625,"poi_name":"Municipio Baruta","parent_id":"3632191","long":-66.8754100000000022419044398702681064605712890625},"3":{"id":"3647945","label":"Municipio Bri\u00f3n","value":"3647945","lat":10.416669999999999873807610129006206989288330078125,"lon":-66.1666699999999963210939313285052776336669921875,"poi_name":"Municipio Bri\u00f3n","parent_id":"3632191","long":-66.1666699999999963210939313285052776336669921875},"4":{"id":"8129188","label":"Municipio Buroz","value":"8129188","lat":10.3646100000000007668177204323001205921173095703125,"lon":-66.130439999999993005985743366181850433349609375,"poi_name":"Municipio Buroz","parent_id":"3632191","long":-66.130439999999993005985743366181850433349609375},"5":{"id":"8131443","label":"Municipio Carrizal","value":"8131443","lat":10.3513999999999999346300683100707828998565673828125,"lon":-66.9936000000000007048583938740193843841552734375,"poi_name":"Municipio Carrizal","parent_id":"3632191","long":-66.9936000000000007048583938740193843841552734375},"6":{"id":"8129178","label":"Municipio Chacao","value":"8129178","lat":10.495979999999999421333995996974408626556396484375,"lon":-66.8534700000000015052137314341962337493896484375,"poi_name":"Municipio Chacao","parent_id":"3632191","long":-66.8534700000000015052137314341962337493896484375},"7":{"id":"3644938","label":"Municipio Crist\u00f3bal Rojas","value":"3644938","lat":10.25,"lon":-66.8333300000000036789060686714947223663330078125,"poi_name":"Municipio Crist\u00f3bal Rojas","parent_id":"3632191","long":-66.8333300000000036789060686714947223663330078125},"8":{"id":"8129201","label":"Municipio El Hatillo","value":"8129201","lat":10.4299400000000002108890839735977351665496826171875,"lon":-66.81610000000000582076609134674072265625,"poi_name":"Municipio El Hatillo","parent_id":"3632191","long":-66.81610000000000582076609134674072265625},"9":{"id":"3640380","label":"Municipio Guaicaipuro","value":"3640380","lat":10.25,"lon":-67,"poi_name":"Municipio Guaicaipuro","parent_id":"3632191","long":-67},"10":{"id":"3639385","label":"Municipio Independencia","value":"3639385","lat":10.199999999999999289457264239899814128875732421875,"lon":-66.599999999999994315658113919198513031005859375,"poi_name":"Municipio Independencia","parent_id":"3632191","long":-66.599999999999994315658113919198513031005859375},"11":{"id":"3637011","label":"Municipio Lander","value":"3637011","lat":10.083330000000000126192389870993793010711669921875,"lon":-66.75,"poi_name":"Municipio Lander","parent_id":"3632191","long":-66.75},"12":{"id":"8129204","label":"Municipio Los Salias","value":"8129204","lat":10.388529999999999375859260908327996730804443359375,"lon":-66.9517900000000025784174795262515544891357421875,"poi_name":"Municipio Los Salias","parent_id":"3632191","long":-66.9517900000000025784174795262515544891357421875},"13":{"id":"3630495","label":"Municipio Paz Castillo","value":"3630495","lat":10.333330000000000126192389870993793010711669921875,"lon":-66.6666699999999963210939313285052776336669921875,"poi_name":"Municipio Paz Castillo","parent_id":"3632191","long":-66.6666699999999963210939313285052776336669921875},"14":{"id":"8131444","label":"Municipio Pedro Gual","value":"8131444","lat":10.161030000000000228510543820448219776153564453125,"lon":-65.7009000000000042973624658770859241485595703125,"poi_name":"Municipio Pedro Gual","parent_id":"3632191","long":-65.7009000000000042973624658770859241485595703125},"15":{"id":"3630003","label":"Municipio Plaza","value":"3630003","lat":10.5,"lon":-66.6666699999999963210939313285052776336669921875,"poi_name":"Municipio Plaza","parent_id":"3632191","long":-66.6666699999999963210939313285052776336669921875},"16":{"id":"3631169","label":"Municipio P\u00e1ez","value":"3631169","lat":10.166669999999999873807610129006206989288330078125,"lon":-65.8333300000000036789060686714947223663330078125,"poi_name":"Municipio P\u00e1ez","parent_id":"3632191","long":-65.8333300000000036789060686714947223663330078125},"17":{"id":"8129186","label":"Municipio Sim\u00f3n Bol\u00edvar","value":"8129186","lat":10.177929999999999921556081972084939479827880859375,"lon":-66.74648999999999432475306093692779541015625,"poi_name":"Municipio Sim\u00f3n Bol\u00edvar","parent_id":"3632191","long":-66.74648999999999432475306093692779541015625},"18":{"id":"8129175","label":"Municipio Sucre","value":"8129175","lat":10.4722600000000003461764208623208105564117431640625,"lon":-66.8015500000000059799276641570031642913818359375,"poi_name":"Municipio Sucre","parent_id":"3632191","long":-66.8015500000000059799276641570031642913818359375},"19":{"id":"3625659","label":"Municipio Urdaneta","value":"3625659","lat":10.166669999999999873807610129006206989288330078125,"lon":-66.9166699999999963210939313285052776336669921875,"poi_name":"Municipio Urdaneta","parent_id":"3632191","long":-66.9166699999999963210939313285052776336669921875},"20":{"id":"3625122","label":"Municipio Zamora","value":"3625122","lat":10.5,"lon":-66.5,"poi_name":"Municipio Zamora","parent_id":"3632191","long":-66.5}}