{"success":true,"remaining_lookups":7206,"0":{"id":"3649798","label":"Municipio Acosta","value":"3649798","lat":11.0999999999999996447286321199499070644378662109375,"lon":-68.75,"poi_name":"Municipio Acosta","parent_id":"3640873","long":-68.75},"1":{"id":"3648107","label":"Municipio Bol\u00edvar","value":"3648107","lat":11.1198800000000002086153472191654145717620849609375,"lon":-69.6855900000000048066794988699257373809814453125,"poi_name":"Municipio Bol\u00edvar","parent_id":"3640873","long":-69.6855900000000048066794988699257373809814453125},"2":{"id":"3647886","label":"Municipio Buchivacoa","value":"3647886","lat":10.916669999999999873807610129006206989288330078125,"lon":-70.75,"poi_name":"Municipio Buchivacoa","parent_id":"3640873","long":-70.75},"3":{"id":"8129220","label":"Municipio Cacique Manaure","value":"8129220","lat":10.970990000000000463842297904193401336669921875,"lon":-68.5443499999999943383954814635217189788818359375,"poi_name":"Municipio Cacique Manaure","parent_id":"3640873","long":-68.5443499999999943383954814635217189788818359375},"4":{"id":"3646527","label":"Municipio Carirubana","value":"3646527","lat":11.71667000000000058435034588910639286041259765625,"lon":-70,"poi_name":"Municipio Carirubana","parent_id":"3640873","long":-70},"5":{"id":"3645374","label":"Municipio Colina","value":"3645374","lat":11.28332999999999941564965411089360713958740234375,"lon":-69.4166699999999963210939313285052776336669921875,"poi_name":"Municipio Colina","parent_id":"3640873","long":-69.4166699999999963210939313285052776336669921875},"6":{"id":"8129177","label":"Municipio Dabajuro","value":"8129177","lat":11.022729999999999250803739414550364017486572265625,"lon":-70.6776899999999983492671162821352481842041015625,"poi_name":"Municipio Dabajuro","parent_id":"3640873","long":-70.6776899999999983492671162821352481842041015625},"7":{"id":"3644540","label":"Municipio Democracia","value":"3644540","lat":10.833330000000000126192389870993793010711669921875,"lon":-70.1666699999999963210939313285052776336669921875,"poi_name":"Municipio Democracia","parent_id":"3640873","long":-70.1666699999999963210939313285052776336669921875},"8":{"id":"3640874","label":"Municipio Falc\u00f3n","value":"3640874","lat":11.833330000000000126192389870993793010711669921875,"lon":-70,"poi_name":"Municipio Falc\u00f3n","parent_id":"3640873","long":-70},"9":{"id":"3640848","label":"Municipio Federaci\u00f3n","value":"3640848","lat":10.833330000000000126192389870993793010711669921875,"lon":-69.4166699999999963210939313285052776336669921875,"poi_name":"Municipio Federaci\u00f3n","parent_id":"3640873","long":-69.4166699999999963210939313285052776336669921875},"10":{"id":"8129216","label":"Municipio Jacura","value":"8129216","lat":11.0741700000000005132960723130963742733001708984375,"lon":-68.8560399999999930287231109105050563812255859375,"poi_name":"Municipio Jacura","parent_id":"3640873","long":-68.8560399999999930287231109105050563812255859375},"11":{"id":"8131432","label":"Municipio Los Taques","value":"8131432","lat":11.8230799999999991456434145220555365085601806640625,"lon":-70.2535299999999978126652422361075878143310546875,"poi_name":"Municipio Los Taques","parent_id":"3640873","long":-70.2535299999999978126652422361075878143310546875},"12":{"id":"3632524","label":"Municipio Mauroa","value":"3632524","lat":10.833330000000000126192389870993793010711669921875,"lon":-71,"poi_name":"Municipio Mauroa","parent_id":"3640873","long":-71},"13":{"id":"3632192","label":"Municipio Miranda","value":"3632192","lat":11.3166700000000002290789780090562999248504638671875,"lon":-69.8666699999999991632648743689060211181640625,"poi_name":"Municipio Miranda","parent_id":"3640873","long":-69.8666699999999991632648743689060211181640625},"14":{"id":"8129249","label":"Municipio Monse\u00f1or Iturriza","value":"8129249","lat":10.933299999999999130295691429637372493743896484375,"lon":-68.2771599999999949659468256868422031402587890625,"poi_name":"Municipio Monse\u00f1or Iturriza","parent_id":"3640873","long":-68.2771599999999949659468256868422031402587890625},"15":{"id":"8131433","label":"Municipio Palmasola","value":"8131433","lat":10.593289999999999650981408194638788700103759765625,"lon":-68.545760000000001355147105641663074493408203125,"poi_name":"Municipio Palmasola","parent_id":"3640873","long":-68.545760000000001355147105641663074493408203125},"16":{"id":"3630294","label":"Municipio Petit","value":"3630294","lat":11.050000000000000710542735760100185871124267578125,"lon":-69.4166699999999963210939313285052776336669921875,"poi_name":"Municipio Petit","parent_id":"3640873","long":-69.4166699999999963210939313285052776336669921875},"17":{"id":"8129154","label":"Municipio P\u00edritu","value":"8129154","lat":11.373889999999999389501681434921920299530029296875,"lon":-69.1372199999999992314769770018756389617919921875,"poi_name":"Municipio P\u00edritu","parent_id":"3640873","long":-69.1372199999999992314769770018756389617919921875},"18":{"id":"8129238","label":"Municipio San Francisco","value":"8129238","lat":11.160199999999999675992512493394315242767333984375,"lon":-68.7260399999999975761966197751462459564208984375,"poi_name":"Municipio San Francisco","parent_id":"3640873","long":-68.7260399999999975761966197751462459564208984375},"19":{"id":"3626828","label":"Municipio Silva","value":"3626828","lat":10.7570899999999998186694938340224325656890869140625,"lon":-68.3500700000000023237589630298316478729248046875,"poi_name":"Municipio Silva","parent_id":"3640873","long":-68.3500700000000023237589630298316478729248046875},"20":{"id":"8129189","label":"Municipio Sucre","value":"8129189","lat":11.0639500000000001733724275254644453525543212890625,"lon":-69.71309999999999718056642450392246246337890625,"poi_name":"Municipio Sucre","parent_id":"3640873","long":-69.71309999999999718056642450392246246337890625},"21":{"id":"8129153","label":"Municipio Toc\u00f3pero","value":"8129153","lat":11.4989699999999999135980033315718173980712890625,"lon":-69.2589200000000033696778700686991214752197265625,"poi_name":"Municipio Toc\u00f3pero","parent_id":"3640873","long":-69.2589200000000033696778700686991214752197265625},"22":{"id":"8129260","label":"Municipio Uni\u00f3n","value":"8129260","lat":10.8195300000000003137756721116602420806884765625,"lon":-69.27776000000000067302607931196689605712890625,"poi_name":"Municipio Uni\u00f3n","parent_id":"3640873","long":-69.27776000000000067302607931196689605712890625},"23":{"id":"8129181","label":"Municipio Urumaco","value":"8129181","lat":11.199130000000000251247911364771425724029541015625,"lon":-70.2549900000000064892446971498429775238037109375,"poi_name":"Municipio Urumaco","parent_id":"3640873","long":-70.2549900000000064892446971498429775238037109375},"24":{"id":"3625121","label":"Municipio Zamora","value":"3625121","lat":11.3666699999999991632648743689060211181640625,"lon":-69.033330000000006521077011711895465850830078125,"poi_name":"Municipio Zamora","parent_id":"3640873","long":-69.033330000000006521077011711895465850830078125}}