{"success":true,"remaining_lookups":9248,"0":{"id":"3026646","label":"Charente","value":"3026646","lat":45.7059799999999967212716001085937023162841796875,"lon":0.18162000000000000365929508916451595723628997802734375,"poi_name":"Charente","parent_id":"11071620","long":0.18162000000000000365929508916451595723628997802734375},"1":{"id":"3026644","label":"Charente-Maritime","value":"3026644","lat":45.75556000000000267391442321240901947021484375,"lon":-0.71313999999999999612754209010745398700237274169921875,"poi_name":"Charente-Maritime","parent_id":"11071620","long":-0.71313999999999999612754209010745398700237274169921875},"2":{"id":"3022516","label":"Creuse","value":"3022516","lat":46.07522999999999768760972074232995510101318359375,"lon":2.0547599999999999198507794062606990337371826171875,"poi_name":"Creuse","parent_id":"11071620","long":2.0547599999999999198507794062606990337371826171875},"3":{"id":"3021042","label":"Dordogne","value":"3021042","lat":45.12734999999999985220711096189916133880615234375,"lon":0.73504000000000002668087972779176197946071624755859375,"poi_name":"Dordogne","parent_id":"11071620","long":0.73504000000000002668087972779176197946071624755859375},"4":{"id":"3023532","label":"D\u00e9partement de la Corr\u00e8ze","value":"3023532","lat":45.34754000000000218051354750059545040130615234375,"lon":1.8731899999999999106847781149554066359996795654296875,"poi_name":"D\u00e9partement de la Corr\u00e8ze","parent_id":"11071620","long":1.8731899999999999106847781149554066359996795654296875},"5":{"id":"3021501","label":"D\u00e9partement des Deux-S\u00e8vres","value":"3021501","lat":46.5391800000000017689671949483454227447509765625,"lon":-0.30837999999999998745892071383423171937465667724609375,"poi_name":"D\u00e9partement des Deux-S\u00e8vres","parent_id":"11071620","long":-0.30837999999999998745892071383423171937465667724609375},"6":{"id":"2984887","label":"D\u00e9partement des Pyr\u00e9n\u00e9es-Atlantiques","value":"2984887","lat":43.23586999999999846977516426704823970794677734375,"lon":-0.81642000000000003456790409472887404263019561767578125,"poi_name":"D\u00e9partement des Pyr\u00e9n\u00e9es-Atlantiques","parent_id":"11071620","long":-0.81642000000000003456790409472887404263019561767578125},"7":{"id":"2997523","label":"D\u00e9partement du Lot-et-Garonne","value":"2997523","lat":44.33332999999999657347871107049286365509033203125,"lon":0.5,"poi_name":"D\u00e9partement du Lot-et-Garonne","parent_id":"11071620","long":0.5},"8":{"id":"3015948","label":"Gironde","value":"3015948","lat":44.69306000000000267391442321240901947021484375,"lon":-0.413999999999999979127807137047057040035724639892578125,"poi_name":"Gironde","parent_id":"11071620","long":-0.413999999999999979127807137047057040035724639892578125},"9":{"id":"3013719","label":"Haute-Vienne","value":"3013719","lat":45.883409999999997808117768727242946624755859375,"lon":1.2178100000000000591171556152403354644775390625,"poi_name":"Haute-Vienne","parent_id":"11071620","long":1.2178100000000000591171556152403354644775390625},"10":{"id":"3007866","label":"Landes","value":"3007866","lat":43.9754300000000029058355721645057201385498046875,"lon":-0.742410000000000014352963262354023754596710205078125,"poi_name":"Landes","parent_id":"11071620","long":-0.742410000000000014352963262354023754596710205078125},"11":{"id":"2969280","label":"Vienne","value":"2969280","lat":46.53528000000000020008883439004421234130859375,"lon":0.452010000000000022879476091475225985050201416015625,"poi_name":"Vienne","parent_id":"11071620","long":0.452010000000000022879476091475225985050201416015625}}