{"success":true,"remaining_lookups":7765,"0":{"id":"8347346","label":"Capricorn District Municipality","value":"8347346","lat":-23.481629999999999114379534148611128330230712890625,"lon":29.183499999999998664179656771011650562286376953125,"poi_name":"Capricorn District Municipality","parent_id":"1085597","long":29.183499999999998664179656771011650562286376953125},"1":{"id":"8347373","label":"Mopani District Municipality","value":"8347373","lat":-23.7666100000000000136424205265939235687255859375,"lon":30.8359999999999985220711096189916133880615234375,"poi_name":"Mopani District Municipality","parent_id":"1085597","long":30.8359999999999985220711096189916133880615234375},"2":{"id":"8347380","label":"Sekhukhune District Municipality","value":"8347380","lat":-24.82806000000000068439476308412849903106689453125,"lon":29.838029999999999830606611794792115688323974609375,"poi_name":"Sekhukhune District Municipality","parent_id":"1085597","long":29.838029999999999830606611794792115688323974609375},"3":{"id":"8347374","label":"Vhembe District Municipality","value":"8347374","lat":-22.754670000000000840145730762742459774017333984375,"lon":30.193599999999999994315658113919198513031005859375,"poi_name":"Vhembe District Municipality","parent_id":"1085597","long":30.193599999999999994315658113919198513031005859375},"4":{"id":"8347375","label":"Waterberg District Municipality","value":"8347375","lat":-24.205140000000000100044417195022106170654296875,"lon":27.978699999999999903366187936626374721527099609375,"poi_name":"Waterberg District Municipality","parent_id":"1085597","long":27.978699999999999903366187936626374721527099609375}}