{"success":true,"remaining_lookups":7760,"0":{"id":"8347344","label":"Cape Winelands District Municipality","value":"8347344","lat":-33.3224900000000019417711882852017879486083984375,"lon":19.68997999999999848341758479364216327667236328125,"poi_name":"Cape Winelands District Municipality","parent_id":"1085599","long":19.68997999999999848341758479364216327667236328125},"1":{"id":"8347352","label":"Central Karoo District Municipality","value":"8347352","lat":-32.62812000000000267618815996684134006500244140625,"lon":22.21191999999999922010829322971403598785400390625,"poi_name":"Central Karoo District Municipality","parent_id":"1085599","long":22.21191999999999922010829322971403598785400390625},"2":{"id":"8334583","label":"City of Cape Town","value":"8334583","lat":-33.91667000000000342652128892950713634490966796875,"lon":18.416669999999999873807610129006206989288330078125,"poi_name":"City of Cape Town","parent_id":"1085599","long":18.416669999999999873807610129006206989288330078125},"3":{"id":"8347349","label":"Eden District Municipality","value":"8347349","lat":-33.82139000000000095269570010714232921600341796875,"lon":22.01263000000000147338141687214374542236328125,"poi_name":"Eden District Municipality","parent_id":"1085599","long":22.01263000000000147338141687214374542236328125},"4":{"id":"8347370","label":"Overberg District Municipality","value":"8347370","lat":-34.26131000000000170757630257867276668548583984375,"lon":19.93984999999999985220711096189916133880615234375,"poi_name":"Overberg District Municipality","parent_id":"1085599","long":19.93984999999999985220711096189916133880615234375},"5":{"id":"8347356","label":"West Coast District Municipality","value":"8347356","lat":-32.09505999999999659166860510595142841339111328125,"lon":18.62695000000000078443918027915060520172119140625,"poi_name":"West Coast District Municipality","parent_id":"1085599","long":18.62695000000000078443918027915060520172119140625}}