{"success":true,"remaining_lookups":8553,"0":{"id":"8335340","label":"Mahabo District","value":"8335340","lat":-20.635999999999999232613845379091799259185791015625,"lon":45.16499999999999914734871708787977695465087890625,"poi_name":"Mahabo District","parent_id":"7670902","long":45.16499999999999914734871708787977695465087890625},"1":{"id":"8335351","label":"Manja District","value":"8335351","lat":-21.43599999999999994315658113919198513031005859375,"lon":44.1820000000000021600499167107045650482177734375,"poi_name":"Manja District","parent_id":"7670902","long":44.1820000000000021600499167107045650482177734375},"2":{"id":"8299297","label":"Miandrivazo District","value":"8299297","lat":-19.1788999999999987267074175179004669189453125,"lon":45.38727000000000089130480773746967315673828125,"poi_name":"Miandrivazo District","parent_id":"7670902","long":45.38727000000000089130480773746967315673828125},"3":{"id":"8299293","label":"Morombe District","value":"8299293","lat":-22.096000000000000085265128291212022304534912109375,"lon":43.7740000000000009094947017729282379150390625,"poi_name":"Morombe District","parent_id":"7670902","long":43.7740000000000009094947017729282379150390625},"4":{"id":"8335339","label":"Morondava District","value":"8335339","lat":-20.5270000000000010231815394945442676544189453125,"lon":44.36800000000000210320649784989655017852783203125,"poi_name":"Morondava District","parent_id":"7670902","long":44.36800000000000210320649784989655017852783203125}}