{"success":true,"remaining_lookups":8989,"0":{"id":"1650183","label":"Kabupaten Bantaeng","value":"1650183","lat":-5.48332999999999959328533805091865360736846923828125,"lon":119.983329999999995152393239550292491912841796875,"poi_name":"Kabupaten Bantaeng","parent_id":"1626232","long":119.983329999999995152393239550292491912841796875},"1":{"id":"1649975","label":"Kabupaten Barru","value":"1649975","lat":-4.4333299999999997709210219909437000751495361328125,"lon":119.6833299999999979945641825906932353973388671875,"poi_name":"Kabupaten Barru","parent_id":"1626232","long":119.6833299999999979945641825906932353973388671875},"2":{"id":"1648256","label":"Kabupaten Bone","value":"1648256","lat":-4.70000000000000017763568394002504646778106689453125,"lon":120.1333300000000008367351256310939788818359375,"poi_name":"Kabupaten Bone","parent_id":"1626232","long":120.1333300000000008367351256310939788818359375},"3":{"id":"1647738","label":"Kabupaten Bulukumba","value":"1647738","lat":-5.416669999999999873807610129006206989288330078125,"lon":120.233329999999995152393239550292491912841796875,"poi_name":"Kabupaten Bulukumba","parent_id":"1626232","long":120.233329999999995152393239550292491912841796875},"4":{"id":"1644905","label":"Kabupaten Enrekang","value":"1644905","lat":-3.5,"lon":119.8666699999999991632648743689060211181640625,"poi_name":"Kabupaten Enrekang","parent_id":"1626232","long":119.8666699999999991632648743689060211181640625},"5":{"id":"1643807","label":"Kabupaten Gowa","value":"1643807","lat":-5.3166700000000002290789780090562999248504638671875,"lon":119.75,"poi_name":"Kabupaten Gowa","parent_id":"1626232","long":119.75},"6":{"id":"1642569","label":"Kabupaten Jeneponto","value":"1642569","lat":-5.63332999999999994855670593096874654293060302734375,"lon":119.733329999999995152393239550292491912841796875,"poi_name":"Kabupaten Jeneponto","parent_id":"1626232","long":119.733329999999995152393239550292491912841796875},"7":{"id":"6965895","label":"Kabupaten Luwu","value":"6965895","lat":-2.557700000000000084554585555451922118663787841796875,"lon":121.3242000000000047066350816749036312103271484375,"poi_name":"Kabupaten Luwu","parent_id":"1626232","long":121.3242000000000047066350816749036312103271484375},"8":{"id":"9165704","label":"Kabupaten Luwu Timur","value":"9165704","lat":-2.509570000000000078443918027915060520172119140625,"lon":120.3978000000000037061909097246825695037841796875,"poi_name":"Kabupaten Luwu Timur","parent_id":"1626232","long":120.3978000000000037061909097246825695037841796875},"9":{"id":"9165788","label":"Kabupaten Luwu Utara","value":"9165788","lat":-2.600000000000000088817841970012523233890533447265625,"lon":120.25,"poi_name":"Kabupaten Luwu Utara","parent_id":"1626232","long":120.25},"10":{"id":"1636028","label":"Kabupaten Maros","value":"1636028","lat":-5.04999999999999982236431605997495353221893310546875,"lon":119.716669999999993478922988288104534149169921875,"poi_name":"Kabupaten Maros","parent_id":"1626232","long":119.716669999999993478922988288104534149169921875},"11":{"id":"1632723","label":"Kabupaten Pangkajene Dan Kepulauan","value":"1632723","lat":-4.7827000000000001733724275254644453525543212890625,"lon":119.550600000000002864908310584723949432373046875,"poi_name":"Kabupaten Pangkajene Dan Kepulauan","parent_id":"1626232","long":119.550600000000002864908310584723949432373046875},"12":{"id":"1631102","label":"Kabupaten Pinrang","value":"1631102","lat":-3.61667000000000005144329406903125345706939697265625,"lon":119.599999999999994315658113919198513031005859375,"poi_name":"Kabupaten Pinrang","parent_id":"1626232","long":119.599999999999994315658113919198513031005859375},"13":{"id":"1627258","label":"Kabupaten Sidenreng Rappang","value":"1627258","lat":-3.850000000000000088817841970012523233890533447265625,"lon":119.966669999999993478922988288104534149169921875,"poi_name":"Kabupaten Sidenreng Rappang","parent_id":"1626232","long":119.966669999999993478922988288104534149169921875},"14":{"id":"1626894","label":"Kabupaten Sinjai","value":"1626894","lat":-5.21666999999999969617192618898116052150726318359375,"lon":120.150000000000005684341886080801486968994140625,"poi_name":"Kabupaten Sinjai","parent_id":"1626232","long":120.150000000000005684341886080801486968994140625},"15":{"id":"7063566","label":"Kabupaten Soppeng","value":"7063566","lat":-4.38419999999999987494447850622236728668212890625,"lon":119.8900000000000005684341886080801486968994140625,"poi_name":"Kabupaten Soppeng","parent_id":"1626232","long":119.8900000000000005684341886080801486968994140625},"16":{"id":"1625545","label":"Kabupaten Takalar","value":"1625545","lat":-5.416669999999999873807610129006206989288330078125,"lon":119.516670000000004847606760449707508087158203125,"poi_name":"Kabupaten Takalar","parent_id":"1626232","long":119.516670000000004847606760449707508087158203125},"17":{"id":"1625123","label":"Kabupaten Tana Toraja","value":"1625123","lat":-3.002400000000000179767312147305347025394439697265625,"lon":119.796549999999996316546457819640636444091796875,"poi_name":"Kabupaten Tana Toraja","parent_id":"1626232","long":119.796549999999996316546457819640636444091796875},"18":{"id":"9846656","label":"Kabupaten Toraja Utara","value":"9846656","lat":-2.927379999999999871107547733117826282978057861328125,"lon":119.792180000000001882654032669961452484130859375,"poi_name":"Kabupaten Toraja Utara","parent_id":"1626232","long":119.792180000000001882654032669961452484130859375},"19":{"id":"1622267","label":"Kabupaten Wajo","value":"1622267","lat":-4,"lon":120.1666699999999963210939313285052776336669921875,"poi_name":"Kabupaten Wajo","parent_id":"1626232","long":120.1666699999999963210939313285052776336669921875},"20":{"id":"1622785","label":"Kota Makassar","value":"1622785","lat":-5.1500000000000003552713678800500929355621337890625,"lon":119.4500000000000028421709430404007434844970703125,"poi_name":"Kota Makassar","parent_id":"1626232","long":119.4500000000000028421709430404007434844970703125},"21":{"id":"9843582","label":"Kota Palopo","value":"9843582","lat":-2.978409999999999779873860461520962417125701904296875,"lon":120.110780000000005429683369584381580352783203125,"poi_name":"Kota Palopo","parent_id":"1626232","long":120.110780000000005429683369584381580352783203125},"22":{"id":"1632352","label":"Kota Parepare","value":"1632352","lat":-4.03333000000000030382807381101883947849273681640625,"lon":119.650000000000005684341886080801486968994140625,"poi_name":"Kota Parepare","parent_id":"1626232","long":119.650000000000005684341886080801486968994140625},"23":{"id":"1628015","label":"Selayar Islands Regency","value":"1628015","lat":-6.8166700000000002290789780090562999248504638671875,"lon":120.7999999999999971578290569595992565155029296875,"poi_name":"Selayar Islands Regency","parent_id":"1626232","long":120.7999999999999971578290569595992565155029296875}}