{"success":true,"remaining_lookups":8987,"0":{"id":"6983688","label":"Kabupaten Banggai","value":"6983688","lat":-1.283500000000000085265128291212022304534912109375,"lon":122.8892000000000024328983272425830364227294921875,"poi_name":"Kabupaten Banggai","parent_id":"1626231","long":122.8892000000000024328983272425830364227294921875},"1":{"id":"9165691","label":"Kabupaten Banggai Kepulauan","value":"9165691","lat":-1.6424000000000000820676859802915714681148529052734375,"lon":123.548810000000003128661774098873138427734375,"poi_name":"Kabupaten Banggai Kepulauan","parent_id":"1626231","long":123.548810000000003128661774098873138427734375},"2":{"id":"9846665","label":"Kabupaten Banggai Laut","value":"9846665","lat":-1.61840999999999990421883921953849494457244873046875,"lon":123.4938800000000043155523599125444889068603515625,"poi_name":"Kabupaten Banggai Laut","parent_id":"1626231","long":123.4938800000000043155523599125444889068603515625},"3":{"id":"1647571","label":"Kabupaten Buol","value":"1647571","lat":0.75,"lon":120.75,"poi_name":"Kabupaten Buol","parent_id":"1626231","long":120.75},"4":{"id":"1645322","label":"Kabupaten Donggala","value":"1645322","lat":-0.58333000000000001517008740847813896834850311279296875,"lon":119.849999999999994315658113919198513031005859375,"poi_name":"Kabupaten Donggala","parent_id":"1626231","long":119.849999999999994315658113919198513031005859375},"5":{"id":"9827971","label":"Kabupaten Morowali Utara","value":"9827971","lat":-1.72069999999999989626076057902537286281585693359375,"lon":121.24648999999999432475306093692779541015625,"poi_name":"Kabupaten Morowali Utara","parent_id":"1626231","long":121.24648999999999432475306093692779541015625},"6":{"id":"9165690","label":"Kabupaten Parigi Moutong","value":"9165690","lat":0.3367999999999999882760448599583469331264495849609375,"lon":120.1784099999999995134203345514833927154541015625,"poi_name":"Kabupaten Parigi Moutong","parent_id":"1626231","long":120.1784099999999995134203345514833927154541015625},"7":{"id":"1630720","label":"Kabupaten Poso","value":"1630720","lat":-1.649999999999999911182158029987476766109466552734375,"lon":120.5,"poi_name":"Kabupaten Poso","parent_id":"1626231","long":120.5},"8":{"id":"9781856","label":"Kabupaten Sigi","value":"9781856","lat":-1.3850000000000000088817841970012523233890533447265625,"lon":119.966939999999993915480445139110088348388671875,"poi_name":"Kabupaten Sigi","parent_id":"1626231","long":119.966939999999993915480445139110088348388671875},"9":{"id":"9165688","label":"Kabupaten Tojo Una-Una","value":"9165688","lat":-1.2036000000000000031974423109204508364200592041015625,"lon":121.48201000000000249201548285782337188720703125,"poi_name":"Kabupaten Tojo Una-Una","parent_id":"1626231","long":121.48201000000000249201548285782337188720703125},"10":{"id":"9846654","label":"Kabupaten Toli-Toli","value":"9846654","lat":1.308619999999999894413349466049112379550933837890625,"lon":120.8864300000000042700776248238980770111083984375,"poi_name":"Kabupaten Toli-Toli","parent_id":"1626231","long":120.8864300000000042700776248238980770111083984375},"11":{"id":"1633033","label":"Kota Palu","value":"1633033","lat":-0.86972000000000004860112312599085271358489990234375,"lon":119.900000000000005684341886080801486968994140625,"poi_name":"Kota Palu","parent_id":"1626231","long":119.900000000000005684341886080801486968994140625},"12":{"id":"9165694","label":"Morowali Regency","value":"9165694","lat":-1.8934200000000001029576424116385169327259063720703125,"lon":121.2547299999999950159690342843532562255859375,"poi_name":"Morowali Regency","parent_id":"1626231","long":121.2547299999999950159690342843532562255859375}}