{"success":true,"remaining_lookups":8984,"0":{"id":"9165775","label":"Kabupaten Banyu Asin","value":"9165775","lat":-2.88332999999999994855670593096874654293060302734375,"lon":104.3830600000000004001776687800884246826171875,"poi_name":"Kabupaten Banyu Asin","parent_id":"1626196","long":104.3830600000000004001776687800884246826171875},"1":{"id":"9821958","label":"Kabupaten Empat Lawang","value":"9821958","lat":3.226669999999999927098315311013720929622650146484375,"lon":99.0925600000000059708327171392738819122314453125,"poi_name":"Kabupaten Empat Lawang","parent_id":"1626196","long":99.0925600000000059708327171392738819122314453125},"2":{"id":"8521769","label":"Kabupaten Muara Enim","value":"8521769","lat":-4.23270000000000035100811146548949182033538818359375,"lon":103.6140999999999934289007796905934810638427734375,"poi_name":"Kabupaten Muara Enim","parent_id":"1626196","long":103.6140999999999934289007796905934810638427734375},"3":{"id":"1634644","label":"Kabupaten Musi Banyuasin","value":"1634644","lat":-2.416669999999999873807610129006206989288330078125,"lon":103.75,"poi_name":"Kabupaten Musi Banyuasin","parent_id":"1626196","long":103.75},"4":{"id":"1634643","label":"Kabupaten Musi Rawas","value":"1634643","lat":-3.083330000000000126192389870993793010711669921875,"lon":103.2000000000000028421709430404007434844970703125,"poi_name":"Kabupaten Musi Rawas","parent_id":"1626196","long":103.2000000000000028421709430404007434844970703125},"5":{"id":"9827972","label":"Kabupaten Musi Rawas Utara","value":"9827972","lat":-2.485329999999999817106299815350212156772613525390625,"lon":103.2934599999999960573404678143560886383056640625,"poi_name":"Kabupaten Musi Rawas Utara","parent_id":"1626196","long":103.2934599999999960573404678143560886383056640625},"6":{"id":"9163311","label":"Kabupaten Ogan Ilir","value":"9163311","lat":-3.431859999999999910613723841379396617412567138671875,"lon":104.6272699999999957753971102647483348846435546875,"poi_name":"Kabupaten Ogan Ilir","parent_id":"1626196","long":104.6272699999999957753971102647483348846435546875},"7":{"id":"1633659","label":"Kabupaten Ogan Komering Ilir","value":"1633659","lat":-3.36667000000000005144329406903125345706939697265625,"lon":105.3666699999999991632648743689060211181640625,"poi_name":"Kabupaten Ogan Komering Ilir","parent_id":"1626196","long":105.3666699999999991632648743689060211181640625},"8":{"id":"1633658","label":"Kabupaten Ogan Komering Ulu","value":"1633658","lat":-4.13332999999999994855670593096874654293060302734375,"lon":104.033330000000006521077011711895465850830078125,"poi_name":"Kabupaten Ogan Komering Ulu","parent_id":"1626196","long":104.033330000000006521077011711895465850830078125},"9":{"id":"9165989","label":"Kabupaten Ogan Komering Ulu Selatan","value":"9165989","lat":-4.6572800000000000864019966684281826019287109375,"lon":104.0065900000000027603164198808372020721435546875,"poi_name":"Kabupaten Ogan Komering Ulu Selatan","parent_id":"1626196","long":104.0065900000000027603164198808372020721435546875},"10":{"id":"9166051","label":"Kabupaten Ogan Komering Ulu Timur","value":"9166051","lat":-3.856790000000000162572177941910922527313232421875,"lon":104.7520899999999954843588056974112987518310546875,"poi_name":"Kabupaten Ogan Komering Ulu Timur","parent_id":"1626196","long":104.7520899999999954843588056974112987518310546875},"11":{"id":"9828027","label":"Kabupaten Penukal Abab Lematang Ilir","value":"9828027","lat":-3.21342000000000016513013179064728319644927978515625,"lon":104.0872200000000020736479200422763824462890625,"poi_name":"Kabupaten Penukal Abab Lematang Ilir","parent_id":"1626196","long":104.0872200000000020736479200422763824462890625},"12":{"id":"9828042","label":"Kota Lubuklinggau","value":"9828042","lat":-3.293079999999999785131876706145703792572021484375,"lon":102.85502999999999929059413261711597442626953125,"poi_name":"Kota Lubuklinggau","parent_id":"1626196","long":102.85502999999999929059413261711597442626953125},"13":{"id":"7932494","label":"Kota Pagar Alam","value":"7932494","lat":-4.13055000000000038795633372501470148563385009765625,"lon":103.2682199999999994588506524451076984405517578125,"poi_name":"Kota Pagar Alam","parent_id":"1626196","long":103.2682199999999994588506524451076984405517578125},"14":{"id":"1633069","label":"Kota Palembang","value":"1633069","lat":-3,"lon":104.716669999999993478922988288104534149169921875,"poi_name":"Kota Palembang","parent_id":"1626196","long":104.716669999999993478922988288104534149169921875},"15":{"id":"7932496","label":"Kota Prabumulih","value":"7932496","lat":-3.46201999999999987522869560052640736103057861328125,"lon":104.2228999999999956571627990342676639556884765625,"poi_name":"Kota Prabumulih","parent_id":"1626196","long":104.2228999999999956571627990342676639556884765625},"16":{"id":"9166049","label":"Lahat Regency","value":"9166049","lat":-3.786399999999999987920773492078296840190887451171875,"lon":103.54279999999999972715158946812152862548828125,"poi_name":"Lahat Regency","parent_id":"1626196","long":103.54279999999999972715158946812152862548828125}}