{"success":true,"remaining_lookups":9002,"0":{"id":"6380795","label":"Kabupaten Banjarnegara","value":"6380795","lat":-7.3511100000000002552269506850279867649078369140625,"lon":109.587500000000005684341886080801486968994140625,"poi_name":"Kabupaten Banjarnegara","parent_id":"1642669","long":109.587500000000005684341886080801486968994140625},"1":{"id":"1650094","label":"Kabupaten Banyumas","value":"1650094","lat":-7.45000000000000017763568394002504646778106689453125,"lon":109.1666699999999963210939313285052776336669921875,"poi_name":"Kabupaten Banyumas","parent_id":"1642669","long":109.1666699999999963210939313285052776336669921875},"2":{"id":"1649879","label":"Kabupaten Batang","value":"1649879","lat":-7.03333000000000030382807381101883947849273681640625,"lon":109.8833300000000008367351256310939788818359375,"poi_name":"Kabupaten Batang","parent_id":"1642669","long":109.8833300000000008367351256310939788818359375},"3":{"id":"1648567","label":"Kabupaten Blora","value":"1648567","lat":-7.0666700000000002290789780090562999248504638671875,"lon":111.3833300000000008367351256310939788818359375,"poi_name":"Kabupaten Blora","parent_id":"1642669","long":111.3833300000000008367351256310939788818359375},"4":{"id":"1648083","label":"Kabupaten Boyolali","value":"1648083","lat":-7.5,"lon":110.7000000000000028421709430404007434844970703125,"poi_name":"Kabupaten Boyolali","parent_id":"1642669","long":110.7000000000000028421709430404007434844970703125},"5":{"id":"1648064","label":"Kabupaten Brebes","value":"1648064","lat":-7.04999999999999982236431605997495353221893310546875,"lon":108.900000000000005684341886080801486968994140625,"poi_name":"Kabupaten Brebes","parent_id":"1642669","long":108.900000000000005684341886080801486968994140625},"6":{"id":"6384572","label":"Kabupaten Cilacap","value":"6384572","lat":-7.57416999999999962511765261297114193439483642578125,"lon":108.9886099999999942156136967241764068603515625,"poi_name":"Kabupaten Cilacap","parent_id":"1642669","long":108.9886099999999942156136967241764068603515625},"7":{"id":"6739766","label":"Kabupaten Demak","value":"6739766","lat":-6.899300000000000210320649784989655017852783203125,"lon":110.612200000000001409716787748038768768310546875,"poi_name":"Kabupaten Demak","parent_id":"1642669","long":110.612200000000001409716787748038768768310546875},"8":{"id":"1643768","label":"Kabupaten Grobogan","value":"1643768","lat":-7.11667000000000005144329406903125345706939697265625,"lon":110.9166699999999963210939313285052776336669921875,"poi_name":"Kabupaten Grobogan","parent_id":"1642669","long":110.9166699999999963210939313285052776336669921875},"9":{"id":"1642545","label":"Kabupaten Jepara","value":"1642545","lat":-6.583330000000000126192389870993793010711669921875,"lon":110.766670000000004847606760449707508087158203125,"poi_name":"Kabupaten Jepara","parent_id":"1642669","long":110.766670000000004847606760449707508087158203125},"10":{"id":"6560140","label":"Kabupaten Karanganyar","value":"6560140","lat":-7.6280599999999996185806594439782202243804931640625,"lon":111.0625,"poi_name":"Kabupaten Karanganyar","parent_id":"1642669","long":111.0625},"11":{"id":"6376498","label":"Kabupaten Kebumen","value":"6376498","lat":-7.63917000000000001591615728102624416351318359375,"lon":109.660560000000003810782800428569316864013671875,"poi_name":"Kabupaten Kebumen","parent_id":"1642669","long":109.660560000000003810782800428569316864013671875},"12":{"id":"6745680","label":"Kabupaten Kendal","value":"6745680","lat":-7.02559999999999984510168360429815948009490966796875,"lon":110.168499999999994543031789362430572509765625,"poi_name":"Kabupaten Kendal","parent_id":"1642669","long":110.168499999999994543031789362430572509765625},"13":{"id":"1639899","label":"Kabupaten Klaten","value":"1639899","lat":-7.6833299999999997709210219909437000751495361328125,"lon":110.6166699999999991632648743689060211181640625,"poi_name":"Kabupaten Klaten","parent_id":"1642669","long":110.6166699999999991632648743689060211181640625},"14":{"id":"1639214","label":"Kabupaten Kudus","value":"1639214","lat":-6.79999999999999982236431605997495353221893310546875,"lon":110.8666699999999991632648743689060211181640625,"poi_name":"Kabupaten Kudus","parent_id":"1642669","long":110.8666699999999991632648743689060211181640625},"15":{"id":"6199035","label":"Kabupaten Magelang","value":"6199035","lat":-7.4275000000000002131628207280300557613372802734375,"lon":110.1619400000000013051248970441520214080810546875,"poi_name":"Kabupaten Magelang","parent_id":"1642669","long":110.1619400000000013051248970441520214080810546875},"16":{"id":"1631990","label":"Kabupaten Pati","value":"1631990","lat":-6.76667000000000040671466194908134639263153076171875,"lon":111.099999999999994315658113919198513031005859375,"poi_name":"Kabupaten Pati","parent_id":"1642669","long":111.099999999999994315658113919198513031005859375},"17":{"id":"6792336","label":"Kabupaten Pekalongan","value":"6792336","lat":-7.03190000000000026147972675971686840057373046875,"lon":109.623999999999995225152815692126750946044921875,"poi_name":"Kabupaten Pekalongan","parent_id":"1642669","long":109.623999999999995225152815692126750946044921875},"18":{"id":"1631647","label":"Kabupaten Pemalang","value":"1631647","lat":-7.03333000000000030382807381101883947849273681640625,"lon":109.400000000000005684341886080801486968994140625,"poi_name":"Kabupaten Pemalang","parent_id":"1642669","long":109.400000000000005684341886080801486968994140625},"19":{"id":"6390578","label":"Kabupaten Purbalingga","value":"6390578","lat":-7.284169999999999589590515824966132640838623046875,"lon":109.3502799999999979263520799577236175537109375,"poi_name":"Kabupaten Purbalingga","parent_id":"1642669","long":109.3502799999999979263520799577236175537109375},"20":{"id":"1630324","label":"Kabupaten Purworejo","value":"1630324","lat":-7.70000000000000017763568394002504646778106689453125,"lon":109.966669999999993478922988288104534149169921875,"poi_name":"Kabupaten Purworejo","parent_id":"1642669","long":109.966669999999993478922988288104534149169921875},"21":{"id":"1629746","label":"Kabupaten Rembang","value":"1629746","lat":-6.78333000000000030382807381101883947849273681640625,"lon":111.466669999999993478922988288104534149169921875,"poi_name":"Kabupaten Rembang","parent_id":"1642669","long":111.466669999999993478922988288104534149169921875},"22":{"id":"6410701","label":"Kabupaten Semarang","value":"6410701","lat":-7.20666999999999990933474691701121628284454345703125,"lon":110.4413899999999983947418513707816600799560546875,"poi_name":"Kabupaten Semarang","parent_id":"1642669","long":110.4413899999999983947418513707816600799560546875},"23":{"id":"6266177","label":"Kabupaten Sragen","value":"6266177","lat":-7.4127799999999997027089193579740822315216064453125,"lon":110.93500000000000227373675443232059478759765625,"poi_name":"Kabupaten Sragen","parent_id":"1642669","long":110.93500000000000227373675443232059478759765625},"24":{"id":"1626271","label":"Kabupaten Sukoharjo","value":"1626271","lat":-7.6833299999999997709210219909437000751495361328125,"lon":110.8333300000000036789060686714947223663330078125,"poi_name":"Kabupaten Sukoharjo","parent_id":"1642669","long":110.8333300000000036789060686714947223663330078125},"25":{"id":"1624493","label":"Kabupaten Tegal","value":"1624493","lat":-7.03333000000000030382807381101883947849273681640625,"lon":109.1666699999999963210939313285052776336669921875,"poi_name":"Kabupaten Tegal","parent_id":"1642669","long":109.1666699999999963210939313285052776336669921875},"26":{"id":"1624237","label":"Kabupaten Temanggung","value":"1624237","lat":-7.25,"lon":110.1166699999999991632648743689060211181640625,"poi_name":"Kabupaten Temanggung","parent_id":"1642669","long":110.1166699999999991632648743689060211181640625},"27":{"id":"1621430","label":"Kabupaten Wonogiri","value":"1621430","lat":-7.916669999999999873807610129006206989288330078125,"lon":111,"poi_name":"Kabupaten Wonogiri","parent_id":"1642669","long":111},"28":{"id":"6405140","label":"Kabupaten Wonosobo","value":"6405140","lat":-7.361390000000000100044417195022106170654296875,"lon":109.92667000000000143700162880122661590576171875,"poi_name":"Kabupaten Wonosobo","parent_id":"1642669","long":109.92667000000000143700162880122661590576171875},"29":{"id":"1636882","label":"Kota Magelang","value":"1636882","lat":-7.5,"lon":110.224999999999994315658113919198513031005859375,"poi_name":"Kota Magelang","parent_id":"1642669","long":110.224999999999994315658113919198513031005859375},"30":{"id":"1631763","label":"Kota Pekalongan","value":"1631763","lat":-6.9000000000000003552713678800500929355621337890625,"lon":109.6833299999999979945641825906932353973388671875,"poi_name":"Kota Pekalongan","parent_id":"1642669","long":109.6833299999999979945641825906932353973388671875},"31":{"id":"6257933","label":"Kota Salatiga","value":"6257933","lat":-7.3327799999999996316546457819640636444091796875,"lon":110.483329999999995152393239550292491912841796875,"poi_name":"Kota Salatiga","parent_id":"1642669","long":110.483329999999995152393239550292491912841796875},"32":{"id":"1627893","label":"Kota Semarang","value":"1627893","lat":-7.03333000000000030382807381101883947849273681640625,"lon":110.3833300000000008367351256310939788818359375,"poi_name":"Kota Semarang","parent_id":"1642669","long":110.3833300000000008367351256310939788818359375},"33":{"id":"1625811","label":"Kota Surakarta","value":"1625811","lat":-7.54999999999999982236431605997495353221893310546875,"lon":110.8166700000000020054358174093067646026611328125,"poi_name":"Kota Surakarta","parent_id":"1642669","long":110.8166700000000020054358174093067646026611328125},"34":{"id":"6769512","label":"Kota Tegal","value":"6769512","lat":-6.86859999999999981667997417389415204524993896484375,"lon":109.112899999999996225596987642347812652587890625,"poi_name":"Kota Tegal","parent_id":"1642669","long":109.112899999999996225596987642347812652587890625}}