{"success":true,"remaining_lookups":8993,"0":{"id":"9165711","label":"Kabupaten Asmat","value":"9165711","lat":-5.37950000000000017053025658242404460906982421875,"lon":138.46343999999999141437001526355743408203125,"poi_name":"Kabupaten Asmat","parent_id":"1643012","long":138.46343999999999141437001526355743408203125},"1":{"id":"8530432","label":"Kabupaten Biak Numfor","value":"8530432","lat":-1.0333300000000000817834688859875313937664031982421875,"lon":136,"poi_name":"Kabupaten Biak Numfor","parent_id":"1643012","long":136},"2":{"id":"9166001","label":"Kabupaten Boven Digoel","value":"9166001","lat":-5.7051899999999999835154085303656756877899169921875,"lon":140.36349000000001296939444728195667266845703125,"poi_name":"Kabupaten Boven Digoel","parent_id":"1643012","long":140.36349000000001296939444728195667266845703125},"3":{"id":"9821956","label":"Kabupaten Deiyai","value":"9821956","lat":-3.947369999999999823359075890039093792438507080078125,"lon":135.950320000000004938556230627000331878662109375,"poi_name":"Kabupaten Deiyai","parent_id":"1643012","long":135.950320000000004938556230627000331878662109375},"4":{"id":"9821957","label":"Kabupaten Dogiyai","value":"9821957","lat":-4.0318599999999999994315658113919198513031005859375,"lon":135.439449999999993679011822678148746490478515625,"poi_name":"Kabupaten Dogiyai","parent_id":"1643012","long":135.439449999999993679011822678148746490478515625},"5":{"id":"9846664","label":"Kabupaten Intan Jaya","value":"9846664","lat":-3.410159999999999858033561395131982862949371337890625,"lon":136.70837000000000216459739021956920623779296875,"poi_name":"Kabupaten Intan Jaya","parent_id":"1643012","long":136.70837000000000216459739021956920623779296875},"6":{"id":"1642655","label":"Kabupaten Jayapura","value":"1642655","lat":-3,"lon":139.94999999999998863131622783839702606201171875,"poi_name":"Kabupaten Jayapura","parent_id":"1643012","long":139.94999999999998863131622783839702606201171875},"7":{"id":"1631789","label":"Kabupaten Jayawijaya","value":"1631789","lat":-4.083330000000000126192389870993793010711669921875,"lon":139.08332999999998946805135346949100494384765625,"poi_name":"Kabupaten Jayawijaya","parent_id":"1643012","long":139.08332999999998946805135346949100494384765625},"8":{"id":"8531252","label":"Kabupaten Keerom","value":"8531252","lat":-3.29999999999999982236431605997495353221893310546875,"lon":140.6166699999999991632648743689060211181640625,"poi_name":"Kabupaten Keerom","parent_id":"1643012","long":140.6166699999999991632648743689060211181640625},"9":{"id":"9172045","label":"Kabupaten Kepulauan Yapen","value":"9172045","lat":-1.7877300000000000412825329476618207991123199462890625,"lon":136.277160000000009176801540888845920562744140625,"poi_name":"Kabupaten Kepulauan Yapen","parent_id":"1643012","long":136.277160000000009176801540888845920562744140625},"10":{"id":"9828040","label":"Kabupaten Lanny Jaya","value":"9828040","lat":-3.912440000000000139834810397587716579437255859375,"lon":138.287659999999988258423400111496448516845703125,"poi_name":"Kabupaten Lanny Jaya","parent_id":"1643012","long":138.287659999999988258423400111496448516845703125},"11":{"id":"9828781","label":"Kabupaten Mamberamo Raya","value":"9828781","lat":-2.235609999999999875086587053374387323856353759765625,"lon":137.7822899999999890496837906539440155029296875,"poi_name":"Kabupaten Mamberamo Raya","parent_id":"1643012","long":137.7822899999999890496837906539440155029296875},"12":{"id":"9828820","label":"Kabupaten Mamberamo Tengah","value":"9828820","lat":-2.460640000000000160440549734630621969699859619140625,"lon":138.452449999999998908606357872486114501953125,"poi_name":"Kabupaten Mamberamo Tengah","parent_id":"1643012","long":138.452449999999998908606357872486114501953125},"13":{"id":"9165710","label":"Kabupaten Mappi","value":"9165710","lat":-6.49971000000000032059688237495720386505126953125,"lon":139.344410000000010541043593548238277435302734375,"poi_name":"Kabupaten Mappi","parent_id":"1643012","long":139.344410000000010541043593548238277435302734375},"14":{"id":"1635387","label":"Kabupaten Merauke","value":"1635387","lat":-7.666669999999999873807610129006206989288330078125,"lon":139.66667000000001053194864653050899505615234375,"poi_name":"Kabupaten Merauke","parent_id":"1643012","long":139.66667000000001053194864653050899505615234375},"15":{"id":"9172049","label":"Kabupaten Mimika","value":"9172049","lat":-4.54356999999999988659737937268801033496856689453125,"lon":136.565550000000001773514668457210063934326171875,"poi_name":"Kabupaten Mimika","parent_id":"1643012","long":136.565550000000001773514668457210063934326171875},"16":{"id":"7910937","label":"Kabupaten Nabire","value":"7910937","lat":-3.5401600000000001955413608811795711517333984375,"lon":135.555110000000013315002433955669403076171875,"poi_name":"Kabupaten Nabire","parent_id":"1643012","long":135.555110000000013315002433955669403076171875},"17":{"id":"9828977","label":"Kabupaten Nduga","value":"9828977","lat":-4.450929999999999608917278237640857696533203125,"lon":138.10088999999999259671312756836414337158203125,"poi_name":"Kabupaten Nduga","parent_id":"1643012","long":138.10088999999999259671312756836414337158203125},"18":{"id":"1632622","label":"Kabupaten Paniai","value":"1632622","lat":-3.899999999999999911182158029987476766109466552734375,"lon":136.599999999999994315658113919198513031005859375,"poi_name":"Kabupaten Paniai","parent_id":"1643012","long":136.599999999999994315658113919198513031005859375},"19":{"id":"7910943","label":"Kabupaten Pegunungan Bintang","value":"7910943","lat":-4.521670000000000300133251585066318511962890625,"lon":140.29541000000000394720700569450855255126953125,"poi_name":"Kabupaten Pegunungan Bintang","parent_id":"1643012","long":140.29541000000000394720700569450855255126953125},"20":{"id":"9846669","label":"Kabupaten Puncak","value":"9846669","lat":-4.1420399999999997220356817706488072872161865234375,"lon":137.09701999999998633938957937061786651611328125,"poi_name":"Kabupaten Puncak","parent_id":"1643012","long":137.09701999999998633938957937061786651611328125},"21":{"id":"9172050","label":"Kabupaten Puncak Jaya","value":"9172050","lat":-3.67241000000000017422507880837656557559967041015625,"lon":137.43896000000000867657945491373538970947265625,"poi_name":"Kabupaten Puncak Jaya","parent_id":"1643012","long":137.43896000000000867657945491373538970947265625},"22":{"id":"8531251","label":"Kabupaten Sarmi","value":"8531251","lat":-2.416669999999999873807610129006206989288330078125,"lon":139.08332999999998946805135346949100494384765625,"poi_name":"Kabupaten Sarmi","parent_id":"1643012","long":139.08332999999998946805135346949100494384765625},"23":{"id":"9172047","label":"Kabupaten Supiori","value":"9172047","lat":-0.73880999999999996674659996642731130123138427734375,"lon":135.61110999999999648935045115649700164794921875,"poi_name":"Kabupaten Supiori","parent_id":"1643012","long":135.61110999999999648935045115649700164794921875},"24":{"id":"9846653","label":"Kabupaten Tolikara","value":"9846653","lat":-3.426610000000000155750967678613960742950439453125,"lon":137.41698999999999841747921891510486602783203125,"poi_name":"Kabupaten Tolikara","parent_id":"1643012","long":137.41698999999999841747921891510486602783203125},"25":{"id":"1621238","label":"Kabupaten Waropen","value":"1621238","lat":-2.286000000000000031974423109204508364200592041015625,"lon":137.018370000000004438334144651889801025390625,"poi_name":"Kabupaten Waropen","parent_id":"1643012","long":137.018370000000004438334144651889801025390625},"26":{"id":"11104752","label":"Kabupaten Yahukimo","value":"11104752","lat":-4.46666999999999969617192618898116052150726318359375,"lon":139.58332999999998946805135346949100494384765625,"poi_name":"Kabupaten Yahukimo","parent_id":"1643012","long":139.58332999999998946805135346949100494384765625},"27":{"id":"9846662","label":"Kabupaten Yalimo","value":"9846662","lat":-3.860370000000000079154460763675160706043243408203125,"lon":138.47305000000000063664629124104976654052734375,"poi_name":"Kabupaten Yalimo","parent_id":"1643012","long":138.47305000000000063664629124104976654052734375},"28":{"id":"7910936","label":"Kota Jayapura","value":"7910936","lat":-2.64646999999999987807086654356680810451507568359375,"lon":140.777790000000010195435606874525547027587890625,"poi_name":"Kota Jayapura","parent_id":"1643012","long":140.777790000000010195435606874525547027587890625},"29":{"id":"9846659","label":"Yahukimo Regency","value":"9846659","lat":-4.6040299999999998448174665099941194057464599609375,"lon":139.58404999999999063220457173883914947509765625,"poi_name":"Yahukimo Regency","parent_id":"1643012","long":139.58404999999999063220457173883914947509765625}}