{"success":true,"remaining_lookups":9006,"0":{"id":"1649146","label":"Kabupaten Bengkulu Selatan","value":"1649146","lat":-4.3499999999999996447286321199499070644378662109375,"lon":103.033330000000006521077011711895465850830078125,"poi_name":"Kabupaten Bengkulu Selatan","parent_id":"1649147","long":103.033330000000006521077011711895465850830078125},"1":{"id":"9821946","label":"Kabupaten Bengkulu Tengah","value":"9821946","lat":-3.2067899999999998073008100618608295917510986328125,"lon":102.126159999999998717612470500171184539794921875,"poi_name":"Kabupaten Bengkulu Tengah","parent_id":"1649147","long":102.126159999999998717612470500171184539794921875},"2":{"id":"1649145","label":"Kabupaten Bengkulu Utara","value":"1649145","lat":-3.333330000000000126192389870993793010711669921875,"lon":102.0499999999999971578290569595992565155029296875,"poi_name":"Kabupaten Bengkulu Utara","parent_id":"1649147","long":102.0499999999999971578290569595992565155029296875},"3":{"id":"9828030","label":"Kabupaten Kaur","value":"9828030","lat":-4.78178999999999998493649400188587605953216552734375,"lon":103.3610900000000043519321479834616184234619140625,"poi_name":"Kabupaten Kaur","parent_id":"1649147","long":103.3610900000000043519321479834616184234619140625},"4":{"id":"9828032","label":"Kabupaten Kepahiang","value":"9828032","lat":-3.60193999999999991956656231195665895938873291015625,"lon":102.5642399999999980764187057502567768096923828125,"poi_name":"Kabupaten Kepahiang","parent_id":"1649147","long":102.5642399999999980764187057502567768096923828125},"5":{"id":"9828041","label":"Kabupaten Lebong","value":"9828041","lat":-3.242780000000000217852402784046716988086700439453125,"lon":102.33490000000000463842297904193401336669921875,"poi_name":"Kabupaten Lebong","parent_id":"1649147","long":102.33490000000000463842297904193401336669921875},"6":{"id":"9828963","label":"Kabupaten Mukomuko","value":"9828963","lat":-3.074380000000000112692077891551889479160308837890625,"lon":101.5476599999999933743310975842177867889404296875,"poi_name":"Kabupaten Mukomuko","parent_id":"1649147","long":101.5476599999999933743310975842177867889404296875},"7":{"id":"1629764","label":"Kabupaten Rejang Lebong","value":"1629764","lat":-3.433330000000000215010231841006316244602203369140625,"lon":102.716669999999993478922988288104534149169921875,"poi_name":"Kabupaten Rejang Lebong","parent_id":"1649147","long":102.716669999999993478922988288104534149169921875},"8":{"id":"9845356","label":"Kabupaten Seluma","value":"9845356","lat":-3.966439999999999965751840136363171041011810302734375,"lon":102.4742899999999963256414048373699188232421875,"poi_name":"Kabupaten Seluma","parent_id":"1649147","long":102.4742899999999963256414048373699188232421875},"9":{"id":"1649148","label":"Kota Bengkulu","value":"1649148","lat":-3.816669999999999784989768158993683755397796630859375,"lon":102.3166700000000020054358174093067646026611328125,"poi_name":"Kota Bengkulu","parent_id":"1649147","long":102.3166700000000020054358174093067646026611328125}}