{"success":true,"remaining_lookups":9004,"0":{"id":"9165686","label":"Kabupaten Boalemo","value":"9165686","lat":0.626889999999999947277729006600566208362579345703125,"lon":122.3568000000000068894223659299314022064208984375,"poi_name":"Kabupaten Boalemo","parent_id":"1923046","long":122.3568000000000068894223659299314022064208984375},"1":{"id":"9165685","label":"Kabupaten Bone Bolango","value":"9165685","lat":0.50295999999999996266097923580673523247241973876953125,"lon":123.2750099999999946476236800663173198699951171875,"poi_name":"Kabupaten Bone Bolango","parent_id":"1923046","long":123.2750099999999946476236800663173198699951171875},"2":{"id":"6960133","label":"Kabupaten Gorontalo","value":"6960133","lat":0.57279999999999997584154698415659368038177490234375,"lon":122.233699999999998908606357872486114501953125,"poi_name":"Kabupaten Gorontalo","parent_id":"1923046","long":122.233699999999998908606357872486114501953125},"3":{"id":"9165866","label":"Kabupaten Gorontalo Utara","value":"9165866","lat":0.770000000000000017763568394002504646778106689453125,"lon":122.3166700000000020054358174093067646026611328125,"poi_name":"Kabupaten Gorontalo Utara","parent_id":"1923046","long":122.3166700000000020054358174093067646026611328125},"4":{"id":"9165687","label":"Kabupaten Pohuwato","value":"9165687","lat":0.709799999999999986499688020558096468448638916015625,"lon":121.59582000000000334694050252437591552734375,"poi_name":"Kabupaten Pohuwato","parent_id":"1923046","long":121.59582000000000334694050252437591552734375},"5":{"id":"1643836","label":"Kota Gorontalo","value":"1643836","lat":0.53332999999999997076116642347187735140323638916015625,"lon":123.099999999999994315658113919198513031005859375,"poi_name":"Kota Gorontalo","parent_id":"1923046","long":123.099999999999994315658113919198513031005859375}}