{"success":true,"remaining_lookups":8955,"0":{"id":"449562","label":"Abhar","value":"449562","lat":36.2999999999999971578290569595992565155029296875,"lon":49.0499999999999971578290569595992565155029296875,"poi_name":"Abhar","parent_id":"111452","long":49.0499999999999971578290569595992565155029296875},"1":{"id":"449565","label":"Khorramdarreh","value":"449565","lat":36.23333000000000225782059715129435062408447265625,"lon":49.2000000000000028421709430404007434844970703125,"poi_name":"Khorramdarreh","parent_id":"111452","long":49.2000000000000028421709430404007434844970703125},"2":{"id":"449564","label":"Shahrest\u0101n-e Khod\u0101bandeh","value":"449564","lat":36,"lon":48.5,"poi_name":"Shahrest\u0101n-e Khod\u0101bandeh","parent_id":"111452","long":48.5},"3":{"id":"449568","label":"Shahrest\u0101n-e M\u0101hnesh\u0101n","value":"449568","lat":36.66667000000000342652128892950713634490966796875,"lon":47.5666700000000020054358174093067646026611328125,"poi_name":"Shahrest\u0101n-e M\u0101hnesh\u0101n","parent_id":"111452","long":47.5666700000000020054358174093067646026611328125},"4":{"id":"449563","label":"Shahrest\u0101n-e \u012ajr\u016bd","value":"449563","lat":36.33332999999999657347871107049286365509033203125,"lon":48.25,"poi_name":"Shahrest\u0101n-e \u012ajr\u016bd","parent_id":"111452","long":48.25},"5":{"id":"449567","label":"Shahrest\u0101n-e \u0162\u0101rom","value":"449567","lat":36.9500000000000028421709430404007434844970703125,"lon":48.89999999999999857891452847979962825775146484375,"poi_name":"Shahrest\u0101n-e \u0162\u0101rom","parent_id":"111452","long":48.89999999999999857891452847979962825775146484375}}