{"success":true,"remaining_lookups":8959,"0":{"id":"449677","label":"Behshahr","value":"449677","lat":36.66667000000000342652128892950713634490966796875,"lon":53.6833299999999979945641825906932353973388671875,"poi_name":"Behshahr","parent_id":"124544","long":53.6833299999999979945641825906932353973388671875},"1":{"id":"449688","label":"Nowshahr","value":"449688","lat":36.4333299999999979945641825906932353973388671875,"lon":51.60000000000000142108547152020037174224853515625,"poi_name":"Nowshahr","parent_id":"124544","long":51.60000000000000142108547152020037174224853515625},"2":{"id":"7830204","label":"Savadkuh County","value":"7830204","lat":35.9776499999999970214048516936600208282470703125,"lon":52.68245999999999895635482971556484699249267578125,"poi_name":"Savadkuh County","parent_id":"124544","long":52.68245999999999895635482971556484699249267578125},"3":{"id":"449675","label":"Shahrest\u0101n-e B\u0101bol","value":"449675","lat":36.3166700000000020054358174093067646026611328125,"lon":52.64999999999999857891452847979962825775146484375,"poi_name":"Shahrest\u0101n-e B\u0101bol","parent_id":"124544","long":52.64999999999999857891452847979962825775146484375},"4":{"id":"449676","label":"Shahrest\u0101n-e B\u0101bolsar","value":"449676","lat":36.66667000000000342652128892950713634490966796875,"lon":52.73333000000000225782059715129435062408447265625,"poi_name":"Shahrest\u0101n-e B\u0101bolsar","parent_id":"124544","long":52.73333000000000225782059715129435062408447265625},"5":{"id":"449680","label":"Shahrest\u0101n-e Ch\u0101l\u016bs","value":"449680","lat":36.4500000000000028421709430404007434844970703125,"lon":51.16667000000000342652128892950713634490966796875,"poi_name":"Shahrest\u0101n-e Ch\u0101l\u016bs","parent_id":"124544","long":51.16667000000000342652128892950713634490966796875},"6":{"id":"9533062","label":"Shahrest\u0101n-e Fareyd\u016bnken\u0101r","value":"9533062","lat":36.6333300000000008367351256310939788818359375,"lon":52.5666700000000020054358174093067646026611328125,"poi_name":"Shahrest\u0101n-e Fareyd\u016bnken\u0101r","parent_id":"124544","long":52.5666700000000020054358174093067646026611328125},"7":{"id":"9533060","label":"Shahrest\u0101n-e Gal\u016bg\u0101h","value":"9533060","lat":36.71667000000000058435034588910639286041259765625,"lon":53.8666699999999991632648743689060211181640625,"poi_name":"Shahrest\u0101n-e Gal\u016bg\u0101h","parent_id":"124544","long":53.8666699999999991632648743689060211181640625},"8":{"id":"449679","label":"Shahrest\u0101n-e J\u016byb\u0101r","value":"449679","lat":36.66667000000000342652128892950713634490966796875,"lon":52.9500000000000028421709430404007434844970703125,"poi_name":"Shahrest\u0101n-e J\u016byb\u0101r","parent_id":"124544","long":52.9500000000000028421709430404007434844970703125},"9":{"id":"449685","label":"Shahrest\u0101n-e Ma\u1e29m\u016bd\u0101b\u0101d","value":"449685","lat":36.60000000000000142108547152020037174224853515625,"lon":52.3666699999999991632648743689060211181640625,"poi_name":"Shahrest\u0101n-e Ma\u1e29m\u016bd\u0101b\u0101d","parent_id":"124544","long":52.3666699999999991632648743689060211181640625},"10":{"id":"9533061","label":"Shahrest\u0101n-e M\u012b\u0101ndor\u016bd","value":"9533061","lat":36.58332999999999657347871107049286365509033203125,"lon":53.2999999999999971578290569595992565155029296875,"poi_name":"Shahrest\u0101n-e M\u012b\u0101ndor\u016bd","parent_id":"124544","long":53.2999999999999971578290569595992565155029296875},"11":{"id":"449686","label":"Shahrest\u0101n-e Nek\u0101","value":"449686","lat":36.51666999999999774217940284870564937591552734375,"lon":53.60000000000000142108547152020037174224853515625,"poi_name":"Shahrest\u0101n-e Nek\u0101","parent_id":"124544","long":53.60000000000000142108547152020037174224853515625},"12":{"id":"449687","label":"Shahrest\u0101n-e N\u016br","value":"449687","lat":36.3166700000000020054358174093067646026611328125,"lon":51.98333000000000225782059715129435062408447265625,"poi_name":"Shahrest\u0101n-e N\u016br","parent_id":"124544","long":51.98333000000000225782059715129435062408447265625},"13":{"id":"449684","label":"Shahrest\u0101n-e Q\u0101\u2019em Shahr","value":"449684","lat":36.48333000000000225782059715129435062408447265625,"lon":52.89999999999999857891452847979962825775146484375,"poi_name":"Shahrest\u0101n-e Q\u0101\u2019em Shahr","parent_id":"124544","long":52.89999999999999857891452847979962825775146484375},"14":{"id":"449681","label":"Shahrest\u0101n-e R\u0101msar","value":"449681","lat":36.76666999999999774217940284870564937591552734375,"lon":50.53332999999999941564965411089360713958740234375,"poi_name":"Shahrest\u0101n-e R\u0101msar","parent_id":"124544","long":50.53332999999999941564965411089360713958740234375},"15":{"id":"449683","label":"Shahrest\u0101n-e Sav\u0101dk\u016bh","value":"449683","lat":36.08332999999999657347871107049286365509033203125,"lon":52.91667000000000342652128892950713634490966796875,"poi_name":"Shahrest\u0101n-e Sav\u0101dk\u016bh","parent_id":"124544","long":52.91667000000000342652128892950713634490966796875},"16":{"id":"449682","label":"Shahrest\u0101n-e S\u0101r\u012b","value":"449682","lat":36.33332999999999657347871107049286365509033203125,"lon":53.28332999999999941564965411089360713958740234375,"poi_name":"Shahrest\u0101n-e S\u0101r\u012b","parent_id":"124544","long":53.28332999999999941564965411089360713958740234375},"17":{"id":"449678","label":"Shahrest\u0101n-e Tonek\u0101bon","value":"449678","lat":36.6333300000000008367351256310939788818359375,"lon":50.7999999999999971578290569595992565155029296875,"poi_name":"Shahrest\u0101n-e Tonek\u0101bon","parent_id":"124544","long":50.7999999999999971578290569595992565155029296875},"18":{"id":"449674","label":"Shahrest\u0101n-e \u0100mol","value":"449674","lat":36.2000000000000028421709430404007434844970703125,"lon":52.3833300000000008367351256310939788818359375,"poi_name":"Shahrest\u0101n-e \u0100mol","parent_id":"124544","long":52.3833300000000008367351256310939788818359375},"19":{"id":"9533059","label":"Shahrest\u0101n-e \u2018Abb\u0101s\u0101b\u0101d","value":"9533059","lat":36.6333300000000008367351256310939788818359375,"lon":51.14999999999999857891452847979962825775146484375,"poi_name":"Shahrest\u0101n-e \u2018Abb\u0101s\u0101b\u0101d","parent_id":"124544","long":51.14999999999999857891452847979962825775146484375}}