{"success":true,"remaining_lookups":8976,"0":{"id":"449702","label":"Bandar Lengeh","value":"449702","lat":26.78332999999999941564965411089360713958740234375,"lon":54.64999999999999857891452847979962825775146484375,"poi_name":"Bandar Lengeh","parent_id":"131222","long":54.64999999999999857891452847979962825775146484375},"1":{"id":"449700","label":"Bastak","value":"449700","lat":27.199999999999999289457264239899814128875732421875,"lon":54.3666699999999991632648743689060211181640625,"poi_name":"Bastak","parent_id":"131222","long":54.3666699999999991632648743689060211181640625},"2":{"id":"449706","label":"Qeshm","value":"449706","lat":26.78332999999999941564965411089360713958740234375,"lon":55.8666699999999991632648743689060211181640625,"poi_name":"Qeshm","parent_id":"131222","long":55.8666699999999991632648743689060211181640625},"3":{"id":"449699","label":"Shahrest\u0101n-e Ab\u016b M\u016bs\u00e1","value":"449699","lat":26.054739999999998900648279231972992420196533203125,"lon":55.162430000000000518411980010569095611572265625,"poi_name":"Shahrest\u0101n-e Ab\u016b M\u016bs\u00e1","parent_id":"131222","long":55.162430000000000518411980010569095611572265625},"4":{"id":"449701","label":"Shahrest\u0101n-e Bandar \u2018Abb\u0101s","value":"449701","lat":27.550000000000000710542735760100185871124267578125,"lon":56.28332999999999941564965411089360713958740234375,"poi_name":"Shahrest\u0101n-e Bandar \u2018Abb\u0101s","parent_id":"131222","long":56.28332999999999941564965411089360713958740234375},"5":{"id":"9523757","label":"Shahrest\u0101n-e Bash\u0101gard","value":"9523757","lat":26.449999999999999289457264239899814128875732421875,"lon":58.08332999999999657347871107049286365509033203125,"poi_name":"Shahrest\u0101n-e Bash\u0101gard","parent_id":"131222","long":58.08332999999999657347871107049286365509033203125},"6":{"id":"449703","label":"Shahrest\u0101n-e J\u0101sk","value":"449703","lat":25.8833300000000008367351256310939788818359375,"lon":58.2000000000000028421709430404007434844970703125,"poi_name":"Shahrest\u0101n-e J\u0101sk","parent_id":"131222","long":58.2000000000000028421709430404007434844970703125},"7":{"id":"8620945","label":"Shahrest\u0101n-e Kham\u012br","value":"8620945","lat":27.266670000000001294893081649206578731536865234375,"lon":55.5499999999999971578290569595992565155029296875,"poi_name":"Shahrest\u0101n-e Kham\u012br","parent_id":"131222","long":55.5499999999999971578290569595992565155029296875},"8":{"id":"449707","label":"Shahrest\u0101n-e M\u012bn\u0101b","value":"449707","lat":26.933330000000001547277861391194164752960205078125,"lon":57.28332999999999941564965411089360713958740234375,"poi_name":"Shahrest\u0101n-e M\u012bn\u0101b","parent_id":"131222","long":57.28332999999999941564965411089360713958740234375},"9":{"id":"8620946","label":"Shahrest\u0101n-e P\u0101rs\u012b\u0101n","value":"8620946","lat":27.166669999999999873807610129006206989288330078125,"lon":53.26666999999999774217940284870564937591552734375,"poi_name":"Shahrest\u0101n-e P\u0101rs\u012b\u0101n","parent_id":"131222","long":53.26666999999999774217940284870564937591552734375},"10":{"id":"449705","label":"Shahrest\u0101n-e R\u016bd\u0101n","value":"449705","lat":27.53332999999999941564965411089360713958740234375,"lon":57.1166699999999991632648743689060211181640625,"poi_name":"Shahrest\u0101n-e R\u016bd\u0101n","parent_id":"131222","long":57.1166699999999991632648743689060211181640625},"11":{"id":"9523758","label":"Shahrest\u0101n-e S\u012br\u012bk","value":"9523758","lat":26.5,"lon":57.1833299999999979945641825906932353973388671875,"poi_name":"Shahrest\u0101n-e S\u012br\u012bk","parent_id":"131222","long":57.1833299999999979945641825906932353973388671875},"12":{"id":"449704","label":"Shahrest\u0101n-e \u1e28\u0101jj\u012b\u0101b\u0101d","value":"449704","lat":28.333330000000000126192389870993793010711669921875,"lon":55.83332999999999657347871107049286365509033203125,"poi_name":"Shahrest\u0101n-e \u1e28\u0101jj\u012b\u0101b\u0101d","parent_id":"131222","long":55.83332999999999657347871107049286365509033203125}}