{"success":true,"remaining_lookups":8954,"0":{"id":"9517620","label":"Ch\u0101yp\u0101reh","value":"9517620","lat":38.8666699999999991632648743689060211181640625,"lon":45,"poi_name":"Ch\u0101yp\u0101reh","parent_id":"142550","long":45},"1":{"id":"449450","label":"Khowy","value":"449450","lat":38.58333999999999974761522025801241397857666015625,"lon":44.7833499999999986584953148849308490753173828125,"poi_name":"Khowy","parent_id":"142550","long":44.7833499999999986584953148849308490753173828125},"2":{"id":"449457","label":"Naqadeh","value":"449457","lat":36.9500000000000028421709430404007434844970703125,"lon":45.39999999999999857891452847979962825775146484375,"poi_name":"Naqadeh","parent_id":"142550","long":45.39999999999999857891452847979962825775146484375},"3":{"id":"9517621","label":"Poldasht","value":"9517621","lat":39.1833299999999979945641825906932353973388671875,"lon":45.08332999999999657347871107049286365509033203125,"poi_name":"Poldasht","parent_id":"142550","long":45.08332999999999657347871107049286365509033203125},"4":{"id":"449451","label":"Sardasht","value":"449451","lat":36.21670000000000300133251585066318511962890625,"lon":45.4831999999999965211827657185494899749755859375,"poi_name":"Sardasht","parent_id":"142550","long":45.4831999999999965211827657185494899749755859375},"5":{"id":"449446","label":"Shahrest\u0101n-e B\u016bk\u0101n","value":"449446","lat":36.600020000000000663931132294237613677978515625,"lon":46.166640000000001009539118967950344085693359375,"poi_name":"Shahrest\u0101n-e B\u016bk\u0101n","parent_id":"142550","long":46.166640000000001009539118967950344085693359375},"6":{"id":"449449","label":"Shahrest\u0101n-e Ch\u0101ldor\u0101n","value":"449449","lat":39.0666700000000020054358174093067646026611328125,"lon":44.33332999999999657347871107049286365509033203125,"poi_name":"Shahrest\u0101n-e Ch\u0101ldor\u0101n","parent_id":"142550","long":44.33332999999999657347871107049286365509033203125},"7":{"id":"449455","label":"Shahrest\u0101n-e Mah\u0101b\u0101d","value":"449455","lat":36.76666999999999774217940284870564937591552734375,"lon":45.73333000000000225782059715129435062408447265625,"poi_name":"Shahrest\u0101n-e Mah\u0101b\u0101d","parent_id":"142550","long":45.73333000000000225782059715129435062408447265625},"8":{"id":"449454","label":"Shahrest\u0101n-e M\u0101k\u016b","value":"449454","lat":39.4166900000000026693669497035443782806396484375,"lon":44.583359999999998990460881032049655914306640625,"poi_name":"Shahrest\u0101n-e M\u0101k\u016b","parent_id":"142550","long":44.583359999999998990460881032049655914306640625},"9":{"id":"449456","label":"Shahrest\u0101n-e M\u012b\u0101ndo\u0101b","value":"449456","lat":36.8999900000000025102053768932819366455078125,"lon":46.20002000000000208501660381443798542022705078125,"poi_name":"Shahrest\u0101n-e M\u012b\u0101ndo\u0101b","parent_id":"142550","long":46.20002000000000208501660381443798542022705078125},"10":{"id":"449444","label":"Shahrest\u0101n-e Or\u016bm\u012byeh","value":"449444","lat":37.5499999999999971578290569595992565155029296875,"lon":45,"poi_name":"Shahrest\u0101n-e Or\u016bm\u012byeh","parent_id":"142550","long":45},"11":{"id":"449445","label":"Shahrest\u0101n-e Oshnav\u012byeh","value":"449445","lat":37.0499999999999971578290569595992565155029296875,"lon":45.08332999999999657347871107049286365509033203125,"poi_name":"Shahrest\u0101n-e Oshnav\u012byeh","parent_id":"142550","long":45.08332999999999657347871107049286365509033203125},"12":{"id":"449447","label":"Shahrest\u0101n-e P\u012br\u0101nshahr","value":"449447","lat":36.7000000000000028421709430404007434844970703125,"lon":45.16667000000000342652128892950713634490966796875,"poi_name":"Shahrest\u0101n-e P\u012br\u0101nshahr","parent_id":"142550","long":45.16667000000000342652128892950713634490966796875},"13":{"id":"449452","label":"Shahrest\u0101n-e Salm\u0101s","value":"449452","lat":38.1833299999999979945641825906932353973388671875,"lon":44.73333000000000225782059715129435062408447265625,"poi_name":"Shahrest\u0101n-e Salm\u0101s","parent_id":"142550","long":44.73333000000000225782059715129435062408447265625},"14":{"id":"449453","label":"Shahrest\u0101n-e Sh\u0101h\u012bn Dezh","value":"449453","lat":36.683369999999996480255504138767719268798828125,"lon":46.6667599999999964666130836121737957000732421875,"poi_name":"Shahrest\u0101n-e Sh\u0101h\u012bn Dezh","parent_id":"142550","long":46.6667599999999964666130836121737957000732421875},"15":{"id":"449448","label":"Shahrest\u0101n-e Tak\u0101b","value":"449448","lat":36.5334500000000019781509763561189174652099609375,"lon":47.1666900000000026693669497035443782806396484375,"poi_name":"Shahrest\u0101n-e Tak\u0101b","parent_id":"142550","long":47.1666900000000026693669497035443782806396484375},"16":{"id":"9517619","label":"Show\u0163","value":"9517619","lat":39.15006000000000341287886840291321277618408203125,"lon":44.83346000000000231011654250323772430419921875,"poi_name":"Show\u0163","parent_id":"142550","long":44.83346000000000231011654250323772430419921875}}