{"success":true,"remaining_lookups":8966,"0":{"id":"9525806","label":"Boshr\u016byeh","value":"9525806","lat":34.16667000000000342652128892950713634490966796875,"lon":57.41667000000000342652128892950713634490966796875,"poi_name":"Boshr\u016byeh","parent_id":"6201374","long":57.41667000000000342652128892950713634490966796875},"1":{"id":"449532","label":"Ferdows","value":"449532","lat":33.9500000000000028421709430404007434844970703125,"lon":57.9500000000000028421709430404007434844970703125,"poi_name":"Ferdows","parent_id":"6201374","long":57.9500000000000028421709430404007434844970703125},"2":{"id":"449523","label":"Shahrest\u0101n-e B\u012brjand","value":"449523","lat":33.00668999999999897454472375102341175079345703125,"lon":59.07222999999999757392288302071392536163330078125,"poi_name":"Shahrest\u0101n-e B\u012brjand","parent_id":"6201374","long":59.07222999999999757392288302071392536163330078125},"3":{"id":"8620944","label":"Shahrest\u0101n-e Darm\u012b\u0101n","value":"8620944","lat":32.9500000000000028421709430404007434844970703125,"lon":60.16667000000000342652128892950713634490966796875,"poi_name":"Shahrest\u0101n-e Darm\u012b\u0101n","parent_id":"6201374","long":60.16667000000000342652128892950713634490966796875},"4":{"id":"9534259","label":"Shahrest\u0101n-e Kh\u016bsf","value":"9534259","lat":32.1833299999999979945641825906932353973388671875,"lon":58.76666999999999774217940284870564937591552734375,"poi_name":"Shahrest\u0101n-e Kh\u016bsf","parent_id":"6201374","long":58.76666999999999774217940284870564937591552734375},"5":{"id":"1482419","label":"Shahrest\u0101n-e Nehband\u0101n","value":"1482419","lat":31.566669999999998452722138608805835247039794921875,"lon":59.8166700000000020054358174093067646026611328125,"poi_name":"Shahrest\u0101n-e Nehband\u0101n","parent_id":"6201374","long":59.8166700000000020054358174093067646026611328125},"6":{"id":"449534","label":"Shahrest\u0101n-e Q\u0101\u2019en","value":"449534","lat":33.74197000000000201680450118146836757659912109375,"lon":59.350200000000000954969436861574649810791015625,"poi_name":"Shahrest\u0101n-e Q\u0101\u2019en","parent_id":"6201374","long":59.350200000000000954969436861574649810791015625},"7":{"id":"449524","label":"Shahrest\u0101n-e Sarb\u012bsheh","value":"449524","lat":32.39999999999999857891452847979962825775146484375,"lon":60.08332999999999657347871107049286365509033203125,"poi_name":"Shahrest\u0101n-e Sarb\u012bsheh","parent_id":"6201374","long":60.08332999999999657347871107049286365509033203125},"8":{"id":"9525807","label":"Shahrest\u0101n-e Sar\u0101y\u0101n","value":"9525807","lat":33.41667000000000342652128892950713634490966796875,"lon":58.3166700000000020054358174093067646026611328125,"poi_name":"Shahrest\u0101n-e Sar\u0101y\u0101n","parent_id":"6201374","long":58.3166700000000020054358174093067646026611328125},"9":{"id":"9534260","label":"Shahrest\u0101n-e Z\u012brk\u016bh","value":"9534260","lat":33.58332999999999657347871107049286365509033203125,"lon":60.2999999999999971578290569595992565155029296875,"poi_name":"Shahrest\u0101n-e Z\u012brk\u016bh","parent_id":"6201374","long":60.2999999999999971578290569595992565155029296875}}