{"success":true,"remaining_lookups":8201,"0":{"id":"3703066","label":"Distrito Penonom\u00e9","value":"3703066","lat":8.6300000000000007815970093361102044582366943359375,"lon":-80.283330000000006521077011711895465850830078125,"poi_name":"Distrito Penonom\u00e9","parent_id":"3712162","long":-80.283330000000006521077011711895465850830078125},"1":{"id":"3715037","label":"Distrito de Aguadulce","value":"3715037","lat":8.2126999999999998891553332214243710041046142578125,"lon":-80.6144100000000065620042732916772365570068359375,"poi_name":"Distrito de Aguadulce","parent_id":"3712162","long":-80.6144100000000065620042732916772365570068359375},"2":{"id":"3714708","label":"Distrito de Ant\u00f3n","value":"3714708","lat":8.453939999999999344026946346275508403778076171875,"lon":-80.1836100000000016052581486292183399200439453125,"poi_name":"Distrito de Ant\u00f3n","parent_id":"3712162","long":-80.1836100000000016052581486292183399200439453125},"3":{"id":"3706929","label":"Distrito de La Pintada","value":"3706929","lat":8.71800999999999959300112095661461353302001953125,"lon":-80.5394600000000053796611609868705272674560546875,"poi_name":"Distrito de La Pintada","parent_id":"3712162","long":-80.5394600000000053796611609868705272674560546875},"4":{"id":"3703935","label":"Distrito de Nat\u00e1","value":"3703935","lat":8.3441600000000004655476004700176417827606201171875,"lon":-80.609340000000003101376933045685291290283203125,"poi_name":"Distrito de Nat\u00e1","parent_id":"3712162","long":-80.609340000000003101376933045685291290283203125},"5":{"id":"3703743","label":"Distrito de Ol\u00e1","value":"3703743","lat":8.4805299999999999016608853708021342754364013671875,"lon":-80.6532399999999967121766530908644199371337890625,"poi_name":"Distrito de Ol\u00e1","parent_id":"3712162","long":-80.6532399999999967121766530908644199371337890625}}