{"success":true,"remaining_lookups":8205,"0":{"id":"9862224","label":"Besiko","value":"9862224","lat":8.548629999999999284909790731035172939300537109375,"lon":-82.089799999999996771293808706104755401611328125,"poi_name":"Besiko","parent_id":"7303688","long":-82.089799999999996771293808706104755401611328125},"1":{"id":"9862223","label":"Kankint\u00fa","value":"9862223","lat":8.8950300000000002142996891052462160587310791015625,"lon":-81.8575000000000017053025658242404460906982421875,"poi_name":"Kankint\u00fa","parent_id":"7303688","long":-81.8575000000000017053025658242404460906982421875},"2":{"id":"9862221","label":"Kusap\u00edn","value":"9862221","lat":9.171189999999999287183527485467493534088134765625,"lon":-81.8962099999999963984009809792041778564453125,"poi_name":"Kusap\u00edn","parent_id":"7303688","long":-81.8962099999999963984009809792041778564453125},"3":{"id":"9862220","label":"Mirono","value":"9862220","lat":8.4046900000000004382627594168297946453094482421875,"lon":-81.8306400000000024874680093489587306976318359375,"poi_name":"Mirono","parent_id":"7303688","long":-81.8306400000000024874680093489587306976318359375},"4":{"id":"9857648","label":"M\u00fcna","value":"9857648","lat":8.3503500000000006053824108676053583621978759765625,"lon":-81.672190000000000509317032992839813232421875,"poi_name":"M\u00fcna","parent_id":"7303688","long":-81.672190000000000509317032992839813232421875},"5":{"id":"9857644","label":"Nole D\u00fcima","value":"9857644","lat":8.3268199999999996663291312870569527149200439453125,"lon":-81.8153099999999966485120239667594432830810546875,"poi_name":"Nole D\u00fcima","parent_id":"7303688","long":-81.8153099999999966485120239667594432830810546875},"6":{"id":"9862226","label":"Nurun","value":"9862226","lat":8.478149999999999408828443847596645355224609375,"lon":-81.4701500000000038426151149906218051910400390625,"poi_name":"Nurun","parent_id":"7303688","long":-81.4701500000000038426151149906218051910400390625}}