[{"idState":5,"name":"Antioquia","idCountry":"3686110"},{"idState":8,"name":"Atl\u00e1ntico","idCountry":"3686110"},{"idState":11,"name":"Bogot\u00e1 d c.","idCountry":"3686110"},{"idState":13,"name":"Bolivar","idCountry":"3686110"},{"idState":15,"name":"Boyac\u00e1","idCountry":"3686110"},{"idState":17,"name":"Caldas","idCountry":"3686110"},{"idState":18,"name":"Caqueta","idCountry":"3686110"},{"idState":19,"name":"Cauca","idCountry":"3686110"},{"idState":20,"name":"Cesar","idCountry":"3686110"},{"idState":23,"name":"Cordoba","idCountry":"3686110"},{"idState":25,"name":"Cundinamarca","idCountry":"3686110"},{"idState":27,"name":"Choco","idCountry":"3686110"},{"idState":41,"name":"Huila","idCountry":"3686110"},{"idState":44,"name":"La guajira","idCountry":"3686110"},{"idState":47,"name":"Magdalena","idCountry":"3686110"},{"idState":50,"name":"Meta","idCountry":"3686110"},{"idState":52,"name":"Narino","idCountry":"3686110"},{"idState":54,"name":"Norte de santander","idCountry":"3686110"},{"idState":63,"name":"Quind\u00edo","idCountry":"3686110"},{"idState":66,"name":"Risaralda","idCountry":"3686110"},{"idState":68,"name":"Santander","idCountry":"3686110"},{"idState":70,"name":"Sucre","idCountry":"3686110"},{"idState":73,"name":"Tolima","idCountry":"3686110"},{"idState":76,"name":"Valle del cauca","idCountry":"3686110"},{"idState":81,"name":"Arauca","idCountry":"3686110"},{"idState":85,"name":"Casanare","idCountry":"3686110"},{"idState":86,"name":"Putumayo","idCountry":"3686110"},{"idState":88,"name":"Archipi\u00e9lago de san andr\u00e9s, providencia y santa catalina","idCountry":"3686110"},{"idState":91,"name":"Amazonas","idCountry":"3686110"},{"idState":94,"name":"Guain\u00eda","idCountry":"3686110"},{"idState":95,"name":"Guaviare","idCountry":"3686110"},{"idState":97,"name":"Vaup\u00e9s","idCountry":"3686110"},{"idState":99,"name":"Vichada","idCountry":"3686110"},{"idState":"50360","name":"Gobolka Woqooyi Galbeed","idCountry":"51537","latitude":10,"longitude":44.5},{"idState":"51230","name":"Gobolka Togdheer","idCountry":"51537","latitude":9.33333,"longitude":45.41667},{"idState":"51966","name":"Gobolka Shabeellaha Hoose","idCountry":"51537","latitude":1.83333,"longitude":44.41667},{"idState":"51967","name":"Gobolka Shabeellaha Dhexe","idCountry":"51537","latitude":3,"longitude":46},{"idState":"52187","name":"Gobolka Sanaag","idCountry":"51537","latitude":10.5,"longitude":48},{"idState":"53477","name":"Gobolka Nugaal","idCountry":"51537","latitude":8.16667,"longitude":49},{"idState":"53707","name":"Gobolka Mudug","idCountry":"51537","latitude":7,"longitude":48},{"idState":"56084","name":"Gobolka Jubbada Dhexe","idCountry":"51537","latitude":1.33333,"longitude":42.66667},{"idState":"57060","name":"Gobolka Hiiraan","idCountry":"51537","latitude":4,"longitude":45.5},{"idState":"58802","name":"Gobolka Gedo","idCountry":"51537","latitude":3,"longitude":42},{"idState":"59362","name":"Gobolka Galguduud","idCountry":"51537","latitude":5,"longitude":47},{"idState":"64538","name":"Gobolka Bay","idCountry":"51537","latitude":3,"longitude":43.5},{"idState":"64661","name":"Gobolka Bari","idCountry":"51537","latitude":10,"longitude":50},{"idState":"64833","name":"Gobolka Banaadir","idCountry":"51537","latitude":2.11667,"longitude":45.4},{"idState":"64982","name":"Gobolka Bakool","idCountry":"51537","latitude":4,"longitude":44},{"idState":"70222","name":"Mu\u1e29\u0101faz\u0327at Ta\u2018izz","idCountry":"69543","latitude":13.5,"longitude":44},{"idState":"70935","name":"Shabwah","idCountry":"69543","latitude":15,"longitude":47},{"idState":"71132","name":"Sanaa","idCountry":"69543","latitude":15.26069,"longitude":44.42489},{"idState":"71333","name":"Mu\u1e29\u0101faz\u0327at \u015ea\u2018dah","idCountry":"69543","latitude":17.0634,"longitude":43.91488},{"idState":"71532","name":"Mu\u1e29\u0101faz\u0327at Raymah","idCountry":"69543","latitude":14.63333,"longitude":43.66667},{"idState":"72966","name":"Mu\u1e29\u0101faz\u0327at Ma\u2019rib","idCountry":"69543","latitude":15.4591,"longitude":45.32534},{"idState":"73200","name":"Al Ma\u1e29w\u012bt","idCountry":"69543","latitude":15.39198,"longitude":43.53616},{"idState":"74222","name":"Mu\u1e29\u0101faz\u0327at al Jawf","idCountry":"69543","latitude":16.5974,"longitude":45.5243},{"idState":"75411","name":"Mu\u1e29\u0101faz\u0327at \u1e28a\u1e11ramawt","idCountry":"69543","latitude":16,"longitude":49},{"idState":"76183","name":"Mu\u1e29\u0101faz\u0327at Dham\u0101r","idCountry":"69543","latitude":14.68296,"longitude":44.27294},{"idState":"78985","name":"Al Mahrah","idCountry":"69543","latitude":17,"longitude":51.5},{"idState":"79416","name":"Mu\u1e29\u0101faz\u0327at al \u1e28udaydah","idCountry":"69543","latitude":14.91732,"longitude":43.19279},{"idState":"79838","name":"Al Bayda Governorate","idCountry":"69543","latitude":14.34166,"longitude":45.39442},{"idState":"80412","name":"Mu\u1e29\u0101faz\u0327at \u2018Adan","idCountry":"69543","latitude":12.83333,"longitude":44.91667},{"idState":"80425","name":"Mu\u1e29\u0101faz\u0327at Abyan","idCountry":"69543","latitude":13.6291,"longitude":46.126},{"idState":"87204","name":"Darnah","idCountry":"2215636","latitude":32.05,"longitude":22.53333},{"idState":"88318","name":"Sha\u2018b\u012byat Bangh\u0101z\u012b","idCountry":"2215636","latitude":32.08723,"longitude":20.18738},{"idState":"88904","name":"Al Marj","idCountry":"2215636","latitude":31.93333,"longitude":21.31667},{"idState":"88932","name":"Al Kufrah","idCountry":"2215636","latitude":24.0333,"longitude":21.5},{"idState":"89341","name":"Mu\u1e29\u0101faz\u0327at al Ba\u015frah","idCountry":"99237","latitude":30.41667,"longitude":47.41667},{"idState":"89693","name":"Muhafazat Wasit","idCountry":"99237","latitude":32.75,"longitude":45.41667},{"idState":"91695","name":"Muhafazat Salah ad Din","idCountry":"99237","latitude":34.5,"longitude":43.65},{"idState":"92877","name":"Mu\u1e29\u0101faz\u0327at N\u012bnaw\u00e1","idCountry":"99237","latitude":36.08333,"longitude":42.5},{"idState":"93540","name":"Mu\u1e29\u0101faz\u0327at Mays\u0101n","idCountry":"99237","latitude":31.9,"longitude":47.06667},{"idState":"94823","name":"Mu\u1e29\u0101faz\u0327at Karbal\u0101\u2019","idCountry":"99237","latitude":32.5,"longitude":43.83333},{"idState":"95445","name":"Mu\u1e29\u0101faz\u0327at Arb\u012bl","idCountry":"99237","latitude":36.33333,"longitude":44.2},{"idState":"96965","name":"Diy\u0101l\u00e1","idCountry":"99237","latitude":34,"longitude":45},{"idState":"97019","name":"Mu\u1e29\u0101faz\u0327at Dh\u012b Q\u0101r","idCountry":"99237","latitude":31.25,"longitude":46.25},{"idState":"97270","name":"Dihok","idCountry":"99237","latitude":37.06667,"longitude":43.13333},{"idState":"98180","name":"Mu\u1e29\u0101faz\u0327at Baghd\u0101d","idCountry":"99237","latitude":33.31667,"longitude":44.36667},{"idState":"98227","name":"Mu\u1e29\u0101faz\u0327at B\u0101bil","idCountry":"99237","latitude":32.53333,"longitude":44.61667},{"idState":"98410","name":"Mu\u1e29\u0101faz\u0327at Kirk\u016bk","idCountry":"99237","latitude":35.36667,"longitude":44.13333},{"idState":"98465","name":"Mu\u1e29\u0101faz\u0327at as Sulaym\u0101n\u012byah","idCountry":"99237","latitude":35.58333,"longitude":45.33333},{"idState":"98862","name":"An Najaf","idCountry":"99237","latitude":31.25,"longitude":43.83333},{"idState":"99022","name":"Mu\u1e29\u0101faz\u0327at al Q\u0101dis\u012byah","idCountry":"99237","latitude":31.91667,"longitude":45.08333},{"idState":"99032","name":"Mu\u1e29\u0101faz\u0327at al Muthann\u00e1","idCountry":"99237","latitude":30.25,"longitude":45.33333},{"idState":"99592","name":"Mu\u1e29\u0101faz\u0327at al Anb\u0101r","idCountry":"99237","latitude":33.54402,"longitude":41.31751},{"idState":"101627","name":"Min\u0163aqat Tab\u016bk","idCountry":"102358","latitude":28.25,"longitude":37.16667},{"idState":"103628","name":"Min\u0163aqat Najr\u0101n","idCountry":"102358","latitude":18.41667,"longitude":46.91667},{"idState":"104514","name":"Makkah Province","idCountry":"102358","latitude":21.62425,"longitude":41.20422},{"idState":"105298","name":"Jizan Region","idCountry":"102358","latitude":17.33333,"longitude":42.66667},{"idState":"106280","name":"Hai\u2019l Region","idCountry":"102358","latitude":27.4,"longitude":41.45},{"idState":"108179","name":"Min\u0163aqat \u2018As\u012br","idCountry":"102358","latitude":19.15,"longitude":42.95},{"idState":"108241","name":"Al Min\u0163aqah ash Sharq\u012byah","idCountry":"102358","latitude":24,"longitude":49.75},{"idState":"108411","name":"Min\u0163aqat ar Riy\u0101\u1e11","idCountry":"102358","latitude":23.05,"longitude":45.55},{"idState":"108933","name":"Al-Qassim Province","idCountry":"102358","latitude":27.08333,"longitude":43.46667},{"idState":"109224","name":"Al Mad\u012bnah al Munawwarah","idCountry":"102358","latitude":24.9,"longitude":39.5},{"idState":"109470","name":"Al Jawf","idCountry":"102358","latitude":30.05,"longitude":39.6},{"idState":"109579","name":"Min\u0163aqat al \u1e28ud\u016bd ash Sham\u0101l\u012byah","idCountry":"102358","latitude":30.25,"longitude":42.41667},{"idState":"109954","name":"Min\u0163aqat al B\u0101\u1e29ah","idCountry":"102358","latitude":20.16667,"longitude":41.43333},{"idState":"110791","name":"Ost\u0101n-e Tehr\u0101n","idCountry":"130758","latitude":35.66667,"longitude":51.41667},{"idState":"111452","name":"Ost\u0101n-e Zanj\u0101n","idCountry":"130758","latitude":36.5,"longitude":48.33333},{"idState":"111821","name":"Yazd","idCountry":"130758","latitude":32.5,"longitude":55.58333},{"idState":"116401","name":"Ost\u0101n-e Semn\u0101n","idCountry":"130758","latitude":35.5,"longitude":55},{"idState":"124544","name":"Ost\u0101n-e M\u0101zandar\u0101n","idCountry":"130758","latitude":36.25,"longitude":52.33333},{"idState":"124763","name":"Ost\u0101n-e Markaz\u012b","idCountry":"130758","latitude":34.33333,"longitude":49.83333},{"idState":"125605","name":"Ost\u0101n-e Lorest\u0101n","idCountry":"130758","latitude":33.5,"longitude":48.5},{"idState":"126584","name":"Ost\u0101n-e Kordest\u0101n","idCountry":"130758","latitude":35.66667,"longitude":47},{"idState":"126878","name":"Ost\u0101n-e Kohg\u012bl\u016byeh va Bowyer A\u1e29mad","idCountry":"130758","latitude":30.83333,"longitude":50.66667},{"idState":"127082","name":"Khuzestan","idCountry":"130758","latitude":31.5,"longitude":49},{"idState":"128222","name":"Ost\u0101n-e Kerm\u0101nsh\u0101h","idCountry":"130758","latitude":34.41667,"longitude":46.75},{"idState":"128231","name":"Kerman","idCountry":"130758","latitude":29.75,"longitude":57.25},{"idState":"130801","name":"Ost\u0101n-e \u012al\u0101m","idCountry":"130758","latitude":33.16667,"longitude":47},{"idState":"131222","name":"Hormozgan","idCountry":"130758","latitude":27.75,"longitude":56.5},{"idState":"132142","name":"Ost\u0101n-e Hamad\u0101n","idCountry":"130758","latitude":34.83333,"longitude":48.58333},{"idState":"133349","name":"Ost\u0101n-e G\u012bl\u0101n","idCountry":"130758","latitude":37.16667,"longitude":49.5},{"idState":"134766","name":"Fars","idCountry":"130758","latitude":29,"longitude":53},{"idState":"139677","name":"Ost\u0101n-e Chah\u0101r Ma\u1e29\u0101l va Bakht\u012b\u0101r\u012b","idCountry":"130758","latitude":32.16667,"longitude":50.75},{"idState":"139816","name":"Bushehr","idCountry":"130758","latitude":28.75,"longitude":51.5},{"idState":"142549","name":"East Azerbaijan","idCountry":"130758","latitude":38,"longitude":46.75},{"idState":"142550","name":"Ost\u0101n-e \u0100z\u0304arb\u0101yj\u0101n-e Gharb\u012b","idCountry":"130758","latitude":37.66667,"longitude":45},{"idState":"145701","name":"Lunda Sul","idCountry":"3351879","latitude":-10.25918,"longitude":20.62489},{"idState":"145702","name":"Lunda Norte Province","idCountry":"3351879","latitude":-8.63543,"longitude":19.64852},{"idState":"146213","name":"Eparch\u00eda P\u00e1fou","idCountry":"146669","latitude":34.9,"longitude":32.51667},{"idState":"146267","name":"Eparch\u00eda Lefkos\u00edas","idCountry":"146669","latitude":35.06667,"longitude":33.1},{"idState":"146383","name":"Eparch\u00eda Lemeso\u00fa","idCountry":"146669","latitude":34.76667,"longitude":32.93333},{"idState":"146398","name":"Eparch\u00eda L\u00e1rnakas","idCountry":"146669","latitude":34.91521,"longitude":33.52615},{"idState":"146411","name":"Eparch\u00eda Ker\u00fdneias","idCountry":"146669","latitude":35.28333,"longitude":33.25},{"idState":"146615","name":"Eparch\u00eda Ammoch\u00f3stou","idCountry":"146669","latitude":35.33333,"longitude":33.86667},{"idState":"146879","name":"Beylagan Rayon","idCountry":"587116","latitude":39.75,"longitude":47.66667},{"idState":"146900","name":"Zangilan Rayon","idCountry":"587116","latitude":39.08333,"longitude":46.66667},{"idState":"146962","name":"Yardymli Rayon","idCountry":"587116","latitude":38.91667,"longitude":48.25},{"idState":"147163","name":"\u015eu\u015fa Rayonu","idCountry":"587116","latitude":39.66667,"longitude":46.66667},{"idState":"147269","name":"Salyan Rayon","idCountry":"587116","latitude":39.66667,"longitude":49},{"idState":"147284","name":"Sabirabad Rayon","idCountry":"587116","latitude":39.91667,"longitude":48.66667},{"idState":"147287","name":"Saatly Rayon","idCountry":"587116","latitude":39.83333,"longitude":48.41667},{"idState":"147310","name":"Bilasuvar Rayon","idCountry":"587116","latitude":39.5,"longitude":48.41667},{"idState":"147422","name":"Neftchala Rayon","idCountry":"587116","latitude":39.33333,"longitude":49},{"idState":"147435","name":"Nakhchivan Autonomous Republic","idCountry":"587116","latitude":39.20991,"longitude":45.41817},{"idState":"147551","name":"Masally District","idCountry":"587116","latitude":39,"longitude":48.66667},{"idState":"147610","name":"Lerik Rayon","idCountry":"587116","latitude":38.75,"longitude":48.41667},{"idState":"147613","name":"Lankaran Rayon","idCountry":"587116","latitude":38.70071,"longitude":48.75551},{"idState":"147626","name":"La\u00e7\u0131n Rayonu","idCountry":"587116","latitude":39.65073,"longitude":46.39913},{"idState":"147694","name":"Qubadli Rayon","idCountry":"587116","latitude":39.33333,"longitude":46.58333},{"idState":"147983","name":"Imishli Rayon","idCountry":"587116","latitude":39.83333,"longitude":48.08333},{"idState":"148107","name":"Fizuli Rayon","idCountry":"587116","latitude":39.58333,"longitude":47.33333},{"idState":"148140","name":"Jabrayil District","idCountry":"587116","latitude":39.33333,"longitude":47},{"idState":"148155","name":"Jalilabad","idCountry":"587116","latitude":39.25,"longitude":48.5},{"idState":"148442","name":"Astara District","idCountry":"587116","latitude":38.5,"longitude":48.66667},{"idState":"148449","name":"Xocal\u0131 Rayonu","idCountry":"587116","latitude":39.83333,"longitude":46.75},{"idState":"148615","name":"Aghjabadi Rayon","idCountry":"587116","latitude":40,"longitude":47.41667},{"idState":"148617","name":"Aghdam Rayon","idCountry":"587116","latitude":40,"longitude":47},{"idState":"148679","name":"Kagera Region","idCountry":"149590","latitude":-1.91667,"longitude":31.25},{"idState":"148724","name":"Zanzibar Urban\/West Region","idCountry":"149590","latitude":-6.16667,"longitude":39.25},{"idState":"148725","name":"Zanzibar North Region","idCountry":"149590","latitude":-5.91667,"longitude":39.28333},{"idState":"148728","name":"Zanzibar Central\/South Region","idCountry":"149590","latitude":-6.25,"longitude":39.41667},{"idState":"149595","name":"Tanga Region","idCountry":"149590","latitude":-5.2,"longitude":38.28333},{"idState":"149653","name":"Tabora Region","idCountry":"149590","latitude":-5.25,"longitude":32.83333},{"idState":"149876","name":"Singida Region","idCountry":"149590","latitude":-5.75,"longitude":34.66667},{"idState":"150004","name":"Shinyanga Region","idCountry":"149590","latitude":-3.66667,"longitude":32.91667},{"idState":"150442","name":"Rukwa Region","idCountry":"149590","latitude":-8,"longitude":31.41667},{"idState":"150602","name":"Coast Region","idCountry":"149590","latitude":-7.25,"longitude":38.83333},{"idState":"150732","name":"Pemba South Region","idCountry":"149590","latitude":-5.33333,"longitude":39.75},{"idState":"150733","name":"Pemba North Region","idCountry":"149590","latitude":-5.05,"longitude":39.76667},{"idState":"152219","name":"Mwanza Region","idCountry":"149590","latitude":-2.75,"longitude":33.08333},{"idState":"153214","name":"Morogoro Region","idCountry":"149590","latitude":-7.91667,"longitude":37.25},{"idState":"154375","name":"Mbeya Region","idCountry":"149590","latitude":-8.2,"longitude":33.33333},{"idState":"154775","name":"Mara Region","idCountry":"149590","latitude":-1.83333,"longitude":34.41667},{"idState":"155946","name":"Lindi Region","idCountry":"149590","latitude":-9.5,"longitude":38.5},{"idState":"157449","name":"Kilimanjaro Region","idCountry":"149590","latitude":-3.75,"longitude":37.63333},{"idState":"157732","name":"Kigoma Region","idCountry":"149590","latitude":-4.75,"longitude":30.5},{"idState":"159067","name":"Iringa Region","idCountry":"149590","latitude":-7.85,"longitude":35.55},{"idState":"160192","name":"Dodoma Region","idCountry":"149590","latitude":-5.91667,"longitude":35.91667},{"idState":"160260","name":"Dar es Salaam Region","idCountry":"149590","latitude":-6.83523,"longitude":39.19597},{"idState":"161322","name":"Arusha Region","idCountry":"149590","latitude":-3,"longitude":36},{"idState":"162152","name":"Balkan","idCountry":"1218197","latitude":40,"longitude":54.5},{"idState":"162181","name":"Ahal","idCountry":"1218197","latitude":38.25,"longitude":59.75},{"idState":"162182","name":"Ashgabat","idCountry":"1218197","latitude":37.95,"longitude":58.38333},{"idState":"163342","name":"Tartus Governorate","idCountry":"163843","latitude":35.00427,"longitude":36.15867},{"idState":"167541","name":"Damascus Governorate","idCountry":"163843","latitude":33.51667,"longitude":36.28333},{"idState":"169387","name":"Idlib Governorate","idCountry":"163843","latitude":35.76667,"longitude":36.66667},{"idState":"169575","name":"Homs Governorate","idCountry":"163843","latitude":34.46667,"longitude":38.3},{"idState":"170015","name":"Hama Governorate","idCountry":"163843","latitude":35.23333,"longitude":37.2},{"idState":"170062","name":"Aleppo Governorate","idCountry":"163843","latitude":36.25,"longitude":37.61667},{"idState":"170652","name":"Mu\u1e29\u0101faz\u0327at R\u012bf Dimashq","idCountry":"163843","latitude":33.5,"longitude":37.38333},{"idState":"170792","name":"Deir ez-Zor Governorate","idCountry":"163843","latitude":35.16667,"longitude":40.28333},{"idState":"170903","name":"Daraa Governorate","idCountry":"163843","latitude":32.85,"longitude":36.21667},{"idState":"172410","name":"As-Suwayda Governorate","idCountry":"163843","latitude":32.76667,"longitude":36.85},{"idState":"172957","name":"Ar-Raqqah Governorate","idCountry":"163843","latitude":36,"longitude":38.93333},{"idState":"173336","name":"Quneitra Governorate","idCountry":"163843","latitude":33.03333,"longitude":35.78333},{"idState":"173578","name":"Latakia Governorate","idCountry":"163843","latitude":35.56667,"longitude":36.03333},{"idState":"173813","name":"Al-Hasakah Governorate","idCountry":"163843","latitude":36.51667,"longitude":40.9},{"idState":"178145","name":"West Pokot","idCountry":"192950","latitude":1.75,"longitude":35.25},{"idState":"178440","name":"Wajir","idCountry":"192950","latitude":1.75,"longitude":40.01667},{"idState":"178837","name":"Uasin Gishu","idCountry":"192950","latitude":0.5,"longitude":35.31667},{"idState":"178914","name":"Turkana","idCountry":"192950","latitude":3,"longitude":35.5},{"idState":"179068","name":"Trans Nzoia","idCountry":"192950","latitude":1.045,"longitude":34.979},{"idState":"179380","name":"Tharaka - Nithi","idCountry":"192950","latitude":-0.10094,"longitude":38.02883},{"idState":"179585","name":"Tana River","idCountry":"192950","latitude":-1.53333,"longitude":39.41667},{"idState":"180320","name":"Siaya","idCountry":"192950","latitude":0.105,"longitude":34.302},{"idState":"180782","name":"Samburu","idCountry":"192950","latitude":1.33333,"longitude":37.11667},{"idState":"184742","name":"Nairobi","idCountry":"192950","latitude":-1.28333,"longitude":36.83333},{"idState":"185578","name":"Murang'A","idCountry":"192950","latitude":-0.684,"longitude":36.994},{"idState":"186298","name":"Mombasa","idCountry":"192950","latitude":-4.02,"longitude":39.66667},{"idState":"187583","name":"Marsabit","idCountry":"192950","latitude":2.96667,"longitude":37.6},{"idState":"187895","name":"Mandera","idCountry":"192950","latitude":3.36667,"longitude":40.7},{"idState":"189794","name":"Laikipia","idCountry":"192950","latitude":0.33333,"longitude":36.76667},{"idState":"190106","name":"Kwale","idCountry":"192950","latitude":-4.13333,"longitude":39.2},{"idState":"191037","name":"Kitui","idCountry":"192950","latitude":-1.835,"longitude":38.451},{"idState":"191242","name":"Kisumu","idCountry":"192950","latitude":-0.069,"longitude":34.64},{"idState":"191298","name":"Kisii","idCountry":"192950","latitude":-0.75,"longitude":34.83333},{"idState":"191420","name":"Kirinyaga","idCountry":"192950","latitude":-0.5,"longitude":37.33333},{"idState":"192064","name":"Kilifi","idCountry":"192950","latitude":-3.563,"longitude":39.644},{"idState":"192709","name":"Kiambu","idCountry":"192950","latitude":-1.09,"longitude":36.699},{"idState":"192898","name":"Kericho","idCountry":"192950","latitude":-0.273,"longitude":35.383},{"idState":"195271","name":"Kakamega","idCountry":"192950","latitude":0.334,"longitude":34.797},{"idState":"196228","name":"Isiolo","idCountry":"192950","latitude":0.98333,"longitude":38.53333},{"idState":"197744","name":"Garissa","idCountry":"192950","latitude":-0.172,"longitude":40.041},{"idState":"198474","name":"Embu","idCountry":"192950","latitude":-0.425,"longitude":37.531},{"idState":"199987","name":"Busia","idCountry":"192950","latitude":0.35,"longitude":34.17},{"idState":"200066","name":"Bungoma","idCountry":"192950","latitude":0.66,"longitude":34.639},{"idState":"200573","name":"Baringo","idCountry":"192950","latitude":0.66667,"longitude":36},{"idState":"204697","name":"Tshuapa","idCountry":"203312","latitude":-0.21667,"longitude":20.86667},{"idState":"204704","name":"Tshopo","idCountry":"203312","latitude":0.46667,"longitude":25.21667},{"idState":"205253","name":"Tanganika","idCountry":"203312","latitude":-5.93333,"longitude":29.2},{"idState":"205413","name":"South Kivu Province","idCountry":"203312","latitude":-3.16667,"longitude":28.25},{"idState":"205828","name":"Sankuru","idCountry":"203312","latitude":-4.96667,"longitude":23.45},{"idState":"206938","name":"Province du Nord-Kivu","idCountry":"203312","latitude":-0.66667,"longitude":28.75},{"idState":"208741","name":"Mongala","idCountry":"203312","latitude":2.06667,"longitude":21.51667},{"idState":"209610","name":"Province du Maniema","idCountry":"203312","latitude":-3,"longitude":26},{"idState":"210596","name":"Kasa\u00ef-Central","idCountry":"203312","latitude":-6.292,"longitude":22.483},{"idState":"214138","name":"Province du Kasa\u00ef Oriental","idCountry":"203312","latitude":-6.18333,"longitude":23.51667},{"idState":"214140","name":"Kasai District","idCountry":"203312","latitude":-5.35,"longitude":21.41667},{"idState":"215709","name":"Ituri","idCountry":"203312","latitude":1.56667,"longitude":30.25},{"idState":"216140","name":"Haut Uele","idCountry":"203312","latitude":2.76667,"longitude":27.61667},{"idState":"216141","name":"Haut-Lomani","idCountry":"203312","latitude":-8.73333,"longitude":25},{"idState":"216661","name":"Province de l\u2019\u00c9quateur","idCountry":"203312","latitude":0.2,"longitude":18.93333},{"idState":"219402","name":"Bas Uele","idCountry":"203312","latitude":2.8,"longitude":24.73333},{"idState":"220781","name":"Tadjourah","idCountry":"223816","latitude":12,"longitude":42.5},{"idState":"221525","name":"Obock","idCountry":"223816","latitude":12.25007,"longitude":43.08369},{"idState":"223818","name":"Djibouti Region","idCountry":"223816","latitude":11.56,"longitude":43.06},{"idState":"223889","name":"Dikhil","idCountry":"223816","latitude":11.5,"longitude":42.16667},{"idState":"225282","name":"Ali Sabieh Region","idCountry":"223816","latitude":11.2,"longitude":42.94},{"idState":"234594","name":"Central Region","idCountry":"226074","latitude":0.5,"longitude":32},{"idState":"236178","name":"Vakaga","idCountry":"239880","latitude":9.83333,"longitude":22.5},{"idState":"236887","name":"Ouaka","idCountry":"239880","latitude":6.25,"longitude":20.75},{"idState":"237556","name":"Mbomou","idCountry":"239880","latitude":5.5,"longitude":23.33333},{"idState":"238639","name":"Haut-Mbomou","idCountry":"239880","latitude":6.33333,"longitude":25.66667},{"idState":"238640","name":"Haute-Kotto","idCountry":"239880","latitude":7.41667,"longitude":23},{"idState":"240396","name":"Basse-Kotto","idCountry":"239880","latitude":5,"longitude":21.36667},{"idState":"240591","name":"Bamingui-Bangoran","idCountry":"239880","latitude":8.41667,"longitude":20.66667},{"idState":"241151","name":"Takamaka","idCountry":"241170","latitude":-4.78333,"longitude":55.51667},{"idState":"241181","name":"Saint Louis","idCountry":"241170","latitude":-4.63333,"longitude":55.43333},{"idState":"241215","name":"Port Glaud","idCountry":"241170","latitude":-4.65,"longitude":55.4},{"idState":"241221","name":"Pointe Larue","idCountry":"241170","latitude":-4.67738,"longitude":55.52173},{"idState":"241224","name":"Plaisance","idCountry":"241170","latitude":-4.65,"longitude":55.45833},{"idState":"241251","name":"Mont Fleuri","idCountry":"241170","latitude":-4.63333,"longitude":55.45833},{"idState":"241252","name":"Mont Buxton","idCountry":"241170","latitude":-4.61766,"longitude":55.44096},{"idState":"241302","name":"English River","idCountry":"241170","latitude":-4.61176,"longitude":55.45409},{"idState":"241311","name":"Inner Islands","idCountry":"241170","latitude":-4.66667,"longitude":55.46667},{"idState":"241330","name":"Grand Anse Mahe","idCountry":"241170","latitude":-4.68333,"longitude":55.45833},{"idState":"241331","name":"Grand Anse Praslin","idCountry":"241170","latitude":-4.31667,"longitude":55.71667},{"idState":"241336","name":"Glacis","idCountry":"241170","latitude":-4.575,"longitude":55.44167},{"idState":"241396","name":"Cascade","idCountry":"241170","latitude":-4.66667,"longitude":55.48333},{"idState":"241424","name":"Bel Ombre","idCountry":"241170","latitude":-4.61835,"longitude":55.41787},{"idState":"241426","name":"Bel Air","idCountry":"241170","latitude":-4.63333,"longitude":55.45},{"idState":"241428","name":"Beau Vallon","idCountry":"241170","latitude":-4.62014,"longitude":55.4316},{"idState":"241438","name":"Baie Sainte Anne","idCountry":"241170","latitude":-4.31667,"longitude":55.73333},{"idState":"241439","name":"Baie Lazare","idCountry":"241170","latitude":-4.74722,"longitude":55.48333},{"idState":"241444","name":"Anse Royale","idCountry":"241170","latitude":-4.74167,"longitude":55.51667},{"idState":"241447","name":"Anse Etoile","idCountry":"241170","latitude":-4.59167,"longitude":55.45},{"idState":"241449","name":"Anse Boileau","idCountry":"241170","latitude":-4.70833,"longitude":55.48333},{"idState":"241450","name":"Anse aux Pins","idCountry":"241170","latitude":-4.68931,"longitude":55.51718},{"idState":"248380","name":"Mu\u1e29\u0101faz\u0327at Ma\u2018\u0101n","idCountry":"248816","latitude":30.33333,"longitude":36.58333},{"idState":"248944","name":"Irbid","idCountry":"248816","latitude":32.5,"longitude":35.83333},{"idState":"250092","name":"Mu\u1e29\u0101faz\u0327at az Zarq\u0101\u2019","idCountry":"248816","latitude":32.08374,"longitude":36.07773},{"idState":"250199","name":"Mu\u1e29\u0101faz\u0327at a\u0163 \u0162af\u012blah","idCountry":"248816","latitude":30.75,"longitude":35.58333},{"idState":"250439","name":"Amman Governorate","idCountry":"248816","latitude":31.58369,"longitude":36.33335},{"idState":"250583","name":"Al Mafraq","idCountry":"248816","latitude":32.33333,"longitude":37.91667},{"idState":"250625","name":"Al Karak","idCountry":"248816","latitude":31.16667,"longitude":35.75},{"idState":"250751","name":"Mu\u1e29\u0101faz\u0327at al Balq\u0101\u2019","idCountry":"248816","latitude":32,"longitude":35.66667},{"idState":"273607","name":"Mohafazat Mont-Liban","idCountry":"272103","latitude":33.91667,"longitude":35.66667},{"idState":"276780","name":"Beyrouth","idCountry":"272103","latitude":33.88333,"longitude":35.5},{"idState":"278297","name":"Mohafazat Liban-Nord","idCountry":"272103","latitude":34.33333,"longitude":35.91667},{"idState":"279894","name":"Mohafazat Liban-Sud","idCountry":"272103","latitude":33.41667,"longitude":35.33333},{"idState":"280282","name":"Mohafazat B\u00e9qaa","idCountry":"272103","latitude":33.66667,"longitude":35.83333},{"idState":"281132","name":"Gaza Strip","idCountry":"6254930","latitude":31.41667,"longitude":34.33333},{"idState":"285153","name":"West Bank","idCountry":"6254930","latitude":31.66667,"longitude":35.25},{"idState":"285628","name":"Mu\u1e29\u0101faz\u0327at \u1e28awall\u012b","idCountry":"285570","latitude":29.3,"longitude":48.05},{"idState":"285788","name":"Al Asimah Governorate","idCountry":"285570","latitude":29.33333,"longitude":47.91667},{"idState":"285798","name":"Mu\u1e29\u0101faz\u0327at al Jahr\u0101\u2019","idCountry":"285570","latitude":29.5,"longitude":47.5},{"idState":"285816","name":"Mu\u1e29\u0101faz\u0327at al Farw\u0101n\u012byah","idCountry":"285570","latitude":29.25,"longitude":47.91667},{"idState":"285841","name":"Mu\u1e29\u0101faz\u0327at al A\u1e29mad\u012b","idCountry":"285570","latitude":28.91667,"longitude":48},{"idState":"290333","name":"Muharraq Governorate","idCountry":"290291","latitude":26.25,"longitude":50.61667},{"idState":"290595","name":"Umm al Qaywayn","idCountry":"290557","latitude":25.5,"longitude":55.75},{"idState":"291075","name":"Ra\u2019s al Khaymah","idCountry":"290557","latitude":25.66667,"longitude":56},{"idState":"292224","name":"Dubai","idCountry":"290557","latitude":25,"longitude":55.33333},{"idState":"292673","name":"Ash Sh\u0101riqah","idCountry":"290557","latitude":25,"longitude":55.75},{"idState":"292879","name":"Al Fujayrah","idCountry":"290557","latitude":25.13333,"longitude":56.25},{"idState":"292933","name":"\u2018Ajm\u0101n","idCountry":"290557","latitude":25.38333,"longitude":55.51667},{"idState":"292969","name":"Ab\u016b Z\u0327aby","idCountry":"290557","latitude":23.66667,"longitude":54},{"idState":"293198","name":"Jerusalem","idCountry":"294640","latitude":31.75,"longitude":35},{"idState":"293396","name":"Tel Aviv District","idCountry":"294640","latitude":32.08414,"longitude":34.79995},{"idState":"294800","name":"Haifa","idCountry":"294640","latitude":32.58333,"longitude":35},{"idState":"294824","name":"Northern District","idCountry":"294640","latitude":32.83333,"longitude":35.33333},{"idState":"294904","name":"Central District","idCountry":"294640","latitude":32.08333,"longitude":34.91667},{"idState":"294952","name":"Southern District","idCountry":"294640","latitude":30.66667,"longitude":34.83333},{"idState":"296560","name":"Yozgat","idCountry":"298795","latitude":39.58333,"longitude":35.33333},{"idState":"298113","name":"Van","idCountry":"298795","latitude":38.40736,"longitude":43.71779},{"idState":"298298","name":"U\u015fak","idCountry":"298795","latitude":38.5,"longitude":29.41667},{"idState":"298332","name":"\u015eanl\u0131urfa","idCountry":"298795","latitude":37.21283,"longitude":38.78174},{"idState":"298845","name":"Tunceli","idCountry":"298795","latitude":39.10711,"longitude":39.54749},{"idState":"300617","name":"Sivas","idCountry":"298795","latitude":39.79165,"longitude":37.00195},{"idState":"300821","name":"Siirt","idCountry":"298795","latitude":37.96152,"longitude":41.9458},{"idState":"303826","name":"Ni\u011fde","idCountry":"298795","latitude":37.83333,"longitude":34.75},{"idState":"303830","name":"Nev\u015fehir","idCountry":"298795","latitude":38.91667,"longitude":34.66667},{"idState":"304041","name":"Mu\u015f","idCountry":"298795","latitude":39,"longitude":41.75},{"idState":"304183","name":"Mu\u011fla","idCountry":"298795","latitude":37.23033,"longitude":28.35571},{"idState":"304794","name":"Mardin","idCountry":"298795","latitude":37.31775,"longitude":40.71533},{"idState":"304825","name":"Manisa","idCountry":"298795","latitude":38.83333,"longitude":28.16667},{"idState":"304919","name":"Malatya","idCountry":"298795","latitude":38.5,"longitude":38},{"idState":"305267","name":"K\u00fctahya","idCountry":"298795","latitude":39.25,"longitude":29.5},{"idState":"306569","name":"Konya","idCountry":"298795","latitude":38.16667,"longitude":32.5},{"idState":"307513","name":"K\u0131r\u015fehir","idCountry":"298795","latitude":39.33333,"longitude":34.16667},{"idState":"308463","name":"Kayseri","idCountry":"298795","latitude":38.73695,"longitude":35.49683},{"idState":"310858","name":"Kahramanmara\u015f","idCountry":"298795","latitude":38,"longitude":37},{"idState":"311044","name":"\u0130zmir","idCountry":"298795","latitude":38.46219,"longitude":27.09229},{"idState":"311071","name":"Isparta","idCountry":"298795","latitude":38,"longitude":31},{"idState":"311728","name":"Mersin","idCountry":"298795","latitude":36.86204,"longitude":34.65088},{"idState":"312394","name":"Hatay","idCountry":"298795","latitude":36.5,"longitude":36.25},{"idState":"312888","name":"Hakkari","idCountry":"298795","latitude":37.58333,"longitude":44.16667},{"idState":"314829","name":"Gaziantep","idCountry":"298795","latitude":37.08333,"longitude":37.33333},{"idState":"315201","name":"Eski\u015fehir","idCountry":"298795","latitude":39.66667,"longitude":31.16667},{"idState":"315367","name":"Erzurum","idCountry":"298795","latitude":40,"longitude":41.5},{"idState":"315372","name":"Erzincan","idCountry":"298795","latitude":39.75,"longitude":39.5},{"idState":"315807","name":"Elaz\u0131\u011f","idCountry":"298795","latitude":38.73695,"longitude":39.17725},{"idState":"316540","name":"Diyarbak\u0131r","idCountry":"298795","latitude":37.96152,"longitude":40.23193},{"idState":"317106","name":"Denizli","idCountry":"298795","latitude":37.84016,"longitude":29.06982},{"idState":"320390","name":"Burdur","idCountry":"298795","latitude":37.5,"longitude":30},{"idState":"321022","name":"Bitlis","idCountry":"298795","latitude":38.34201,"longitude":42.39134},{"idState":"321079","name":"Bing\u00f6l","idCountry":"298795","latitude":39.08333,"longitude":40.83333},{"idState":"321122","name":"Bilecik","idCountry":"298795","latitude":40,"longitude":30.16667},{"idState":"322164","name":"Bal\u0131kesir","idCountry":"298795","latitude":39.75,"longitude":28},{"idState":"322819","name":"Ayd\u0131n","idCountry":"298795","latitude":37.75,"longitude":28},{"idState":"323776","name":"Antalya","idCountry":"298795","latitude":36.76984,"longitude":31.90215},{"idState":"323784","name":"Ankara","idCountry":"298795","latitude":39.92063,"longitude":32.85403},{"idState":"325163","name":"A\u011fr\u0131","idCountry":"298795","latitude":39.66667,"longitude":43.16667},{"idState":"325302","name":"Afyonkarahisar","idCountry":"298795","latitude":38.75,"longitude":30.66667},{"idState":"325329","name":"Ad\u0131yaman","idCountry":"298795","latitude":37.75,"longitude":38.25},{"idState":"325361","name":"Adana","idCountry":"298795","latitude":36.985,"longitude":35.28809},{"idState":"347794","name":"Mu\u1e29\u0101faz\u0327at S\u016bh\u0101j","idCountry":"357994","latitude":26.5,"longitude":31.7},{"idState":"349401","name":"Mu\u1e29\u0101faz\u0327at Sham\u0101l S\u012bn\u0101\u2019","idCountry":"357994","latitude":30.5,"longitude":33.7},{"idState":"350546","name":"Mu\u1e29\u0101faz\u0327at Qin\u0101","idCountry":"357994","latitude":25.8,"longitude":32.75},{"idState":"352603","name":"Mu\u1e29\u0101faz\u0327at Ma\u0163r\u016b\u1e29","idCountry":"357994","latitude":29.7,"longitude":27.5},{"idState":"354500","name":"Kafr ash Shaykh","idCountry":"357994","latitude":31.3,"longitude":30.9},{"idState":"355182","name":"South Sinai Governorate","idCountry":"357994","latitude":29,"longitude":33.8},{"idState":"358044","name":"Damietta Governorate","idCountry":"357994","latitude":31.35,"longitude":31.75},{"idState":"358617","name":"Mu\u1e29\u0101faz\u0327at B\u016br Sa\u2018\u012bd","idCountry":"357994","latitude":31.12339,"longitude":32.41926},{"idState":"359171","name":"Mu\u1e29\u0101faz\u0327at Ban\u012b Suwayf","idCountry":"357994","latitude":28.9,"longitude":30.6},{"idState":"359781","name":"Mu\u1e29\u0101faz\u0327at Asy\u016b\u0163","idCountry":"357994","latitude":27.2,"longitude":31.1},{"idState":"359787","name":"Mu\u1e29\u0101faz\u0327at Asw\u0101n","idCountry":"357994","latitude":23.3,"longitude":32.9},{"idState":"359797","name":"As Suways","idCountry":"357994","latitude":29.7,"longitude":32.3},{"idState":"360016","name":"Mu\u1e29\u0101faz\u0327at ash Sharq\u012byah","idCountry":"357994","latitude":30.7,"longitude":31.8},{"idState":"360483","name":"Mu\u1e29\u0101faz\u0327at al W\u0101d\u012b al Jad\u012bd","idCountry":"357994","latitude":24.8,"longitude":28.9},{"idState":"360621","name":"Mu\u1e29\u0101faz\u0327at al Qaly\u016bb\u012byah","idCountry":"357994","latitude":30.3,"longitude":31.25},{"idState":"360631","name":"Cairo Governorate","idCountry":"357994","latitude":30.05,"longitude":31.65},{"idState":"360688","name":"Mu\u1e29\u0101faz\u0327at al Miny\u0101","idCountry":"357994","latitude":28.1,"longitude":30},{"idState":"360689","name":"Mu\u1e29\u0101faz\u0327at al Min\u016bf\u012byah","idCountry":"357994","latitude":30.5,"longitude":31},{"idState":"360997","name":"Mu\u1e29\u0101faz\u0327at al J\u012bzah","idCountry":"357994","latitude":29.99776,"longitude":31.05286},{"idState":"361056","name":"Ismailia Governorate","idCountry":"357994","latitude":30.6,"longitude":32.4},{"idState":"361059","name":"Mu\u1e29\u0101faz\u0327at al Iskandar\u012byah","idCountry":"357994","latitude":31,"longitude":29.75},{"idState":"361294","name":"Mu\u1e29\u0101faz\u0327at al Gharb\u012byah","idCountry":"357994","latitude":30.9,"longitude":31},{"idState":"361323","name":"Mu\u1e29\u0101faz\u0327at al Fayy\u016bm","idCountry":"357994","latitude":29.3,"longitude":30.5},{"idState":"361370","name":"Beheira Governorate","idCountry":"357994","latitude":30.6,"longitude":30.2},{"idState":"361468","name":"Red Sea Governorate","idCountry":"357994","latitude":27.18624,"longitude":33.78845},{"idState":"361849","name":"Mu\u1e29\u0101faz\u0327at ad Daqahl\u012byah","idCountry":"357994","latitude":31.1,"longitude":31.6},{"idState":"367894","name":"Ruweng","idCountry":"7909807","latitude":9.50658,"longitude":29.48637},{"idState":"378389","name":"Northern","idCountry":"366755","latitude":19.3,"longitude":29.5},{"idState":"379253","name":"Khartoum","idCountry":"366755","latitude":15.8,"longitude":33},{"idState":"389462","name":"Balad\u012byat ash Sham\u0101l","idCountry":"289688","latitude":25.98333,"longitude":51.2},{"idState":"389465","name":"Balad\u012byat al Khawr wa adh Dhakh\u012brah","idCountry":"289688","latitude":25.76667,"longitude":51.31667},{"idState":"389467","name":"Balad\u012byat Umm \u015eal\u0101l","idCountry":"289688","latitude":25.46667,"longitude":51.33333},{"idState":"389469","name":"Balad\u012byat ar Rayy\u0101n","idCountry":"289688","latitude":24.91667,"longitude":51},{"idState":"389470","name":"Balad\u012byat ad Daw\u1e29ah","idCountry":"289688","latitude":25.3,"longitude":51.5},{"idState":"389472","name":"Al Wakrah","idCountry":"289688","latitude":24.85,"longitude":51.33333},{"idState":"408646","name":"Red Sea","idCountry":"366755","latitude":19.96667,"longitude":35.66667},{"idState":"408648","name":"Al Jazirah State","idCountry":"366755","latitude":14.6,"longitude":33.35},{"idState":"408649","name":"Al Qadarif State","idCountry":"366755","latitude":14.05,"longitude":35.35},{"idState":"408653","name":"White Nile","idCountry":"366755","latitude":13.5,"longitude":32.4},{"idState":"408654","name":"Blue Nile","idCountry":"366755","latitude":11.15,"longitude":34.1},{"idState":"408658","name":"West Darfur","idCountry":"366755","latitude":13.41667,"longitude":22.66667},{"idState":"408659","name":"West Kordofan State","idCountry":"366755","latitude":11.83333,"longitude":28.31667},{"idState":"408660","name":"South Darfur","idCountry":"366755","latitude":11.5,"longitude":24.66667},{"idState":"408661","name":"South Kordofan","idCountry":"366755","latitude":11.26667,"longitude":30.83333},{"idState":"408663","name":"Kassala State","idCountry":"366755","latitude":15.9,"longitude":35.65},{"idState":"408664","name":"River Nile","idCountry":"366755","latitude":19,"longitude":33.2},{"idState":"408666","name":"North Darfur","idCountry":"366755","latitude":16,"longitude":25.5},{"idState":"408667","name":"North Kordofan","idCountry":"366755","latitude":14.68333,"longitude":29.93333},{"idState":"408669","name":"Sennar","idCountry":"366755","latitude":13,"longitude":34},{"idState":"409313","name":"Ararati Marz","idCountry":"174982","latitude":39.91667,"longitude":44.83333},{"idState":"409314","name":"Syunik\u2019i Marz","idCountry":"174982","latitude":39.33333,"longitude":46.25},{"idState":"409315","name":"Vayots\u2019 Dzor","idCountry":"174982","latitude":39.75,"longitude":45.41667},{"idState":"409417","name":"Shirvan","idCountry":"587116","latitude":39.9604,"longitude":48.88181},{"idState":"409418","name":"Lankaran Sahari","idCountry":"587116","latitude":38.73333,"longitude":48.83333},{"idState":"409419","name":"Shusha","idCountry":"587116","latitude":39.75,"longitude":46.75},{"idState":"409420","name":"Tartar Rayon","idCountry":"587116","latitude":40.33054,"longitude":46.94289},{"idState":"409421","name":"Xankandi Sahari","idCountry":"587116","latitude":39.81744,"longitude":46.75318},{"idState":"409423","name":"Khojavend District","idCountry":"587116","latitude":39.66667,"longitude":47},{"idState":"411735","name":"Mu\u1e29\u0101faz\u0327at ad D\u0101khil\u012byah","idCountry":"286963","latitude":22.5,"longitude":57.33333},{"idState":"411736","name":"Al Batinah South Governorate","idCountry":"286963","latitude":23.45,"longitude":57.7},{"idState":"411737","name":"Mu\u1e29\u0101faz\u0327at al Wus\u0163\u00e1","idCountry":"286963","latitude":20.16667,"longitude":56.61667},{"idState":"411738","name":"Ash Sharqiyah South","idCountry":"286963","latitude":21.65,"longitude":59.1},{"idState":"411739","name":"Az\u0327 Z\u0327\u0101hirah","idCountry":"286963","latitude":22.9,"longitude":55.95},{"idState":"411740","name":"Mu\u1e29\u0101faz\u0327at Masqa\u0163","idCountry":"286963","latitude":23.5835,"longitude":58.40366},{"idState":"411741","name":"Musandam","idCountry":"286963","latitude":26.03333,"longitude":56.3},{"idState":"411742","name":"Mu\u1e29\u0101faz\u0327at Z\u0327uf\u0101r","idCountry":"286963","latitude":18.48333,"longitude":54.18333},{"idState":"413931","name":"Ost\u0101n-e Ardab\u012bl","idCountry":"130758","latitude":38.5,"longitude":48},{"idState":"418862","name":"Isfahan","idCountry":"130758","latitude":33,"longitude":52.16667},{"idState":"422233","name":"Makamba Province","idCountry":"433561","latitude":-4.16667,"longitude":29.75278},{"idState":"423327","name":"Bururi Province","idCountry":"433561","latitude":-3.85,"longitude":29.63333},{"idState":"425550","name":"Muramvya Province","idCountry":"433561","latitude":-3.25,"longitude":29.66667},{"idState":"426271","name":"Gitega Province","idCountry":"433561","latitude":-3.5,"longitude":29.95},{"idState":"426699","name":"Ruyigi Province","idCountry":"433561","latitude":-3.45,"longitude":30.31667},{"idState":"427700","name":"Cankuzo Province","idCountry":"433561","latitude":-3.13333,"longitude":30.58333},{"idState":"428218","name":"Karuzi Province","idCountry":"433561","latitude":-3.125,"longitude":30.13333},{"idState":"428514","name":"Bubanza Province","idCountry":"433561","latitude":-3.11667,"longitude":29.4},{"idState":"430020","name":"Cibitoke Province","idCountry":"433561","latitude":-2.88333,"longitude":29.25},{"idState":"430567","name":"Ngozi Province","idCountry":"433561","latitude":-2.875,"longitude":29.925},{"idState":"430951","name":"Kayanza Province","idCountry":"433561","latitude":-3.06667,"longitude":29.66667},{"idState":"431747","name":"Muyinga Province","idCountry":"433561","latitude":-2.83333,"longitude":30.33333},{"idState":"432455","name":"Kirundo Province","idCountry":"433561","latitude":-2.58333,"longitude":30.16667},{"idState":"434147","name":"Rutana Province","idCountry":"433561","latitude":-3.86667,"longitude":30.1},{"idState":"434386","name":"Province de Mwaro","idCountry":"433561","latitude":-3.5,"longitude":29.66667},{"idState":"435764","name":"Manyara Region","idCountry":"149590","latitude":-4.5,"longitude":36.83333},{"idState":"443120","name":"Ajloun","idCountry":"248816","latitude":32.33333,"longitude":35.75},{"idState":"443121","name":"Jerash","idCountry":"248816","latitude":32.25,"longitude":35.91667},{"idState":"443122","name":"Mu\u1e29\u0101faz\u0327at al \u2018Aqabah","idCountry":"248816","latitude":29.75,"longitude":35.33333},{"idState":"443123","name":"Mu\u1e29\u0101faz\u0327at M\u0101dab\u0101","idCountry":"248816","latitude":31.58333,"longitude":35.66667},{"idState":"443183","name":"Osmaniye","idCountry":"298795","latitude":37.23525,"longitude":36.24596},{"idState":"443184","name":"I\u011fd\u0131r","idCountry":"298795","latitude":39.91667,"longitude":44},{"idState":"443185","name":"Aksaray","idCountry":"298795","latitude":38.36503,"longitude":34.0142},{"idState":"443186","name":"Batman","idCountry":"298795","latitude":38,"longitude":41.33333},{"idState":"443187","name":"Karaman","idCountry":"298795","latitude":37.08333,"longitude":33.25},{"idState":"443188","name":"K\u0131r\u0131kkale","idCountry":"298795","latitude":39.83333,"longitude":33.75},{"idState":"443189","name":"\u015e\u0131rnak","idCountry":"298795","latitude":37.5,"longitude":42.5},{"idState":"443213","name":"Kilis","idCountry":"298795","latitude":36.73,"longitude":37.14},{"idState":"443289","name":"Sha\u2018b\u012byat al Jabal al Akh\u1e11ar","idCountry":"2215636","latitude":32.2,"longitude":21.75},{"idState":"443792","name":"Ost\u0101n-e Golest\u0101n","idCountry":"130758","latitude":37.25,"longitude":55},{"idState":"443793","name":"Ost\u0101n-e Qazv\u012bn","idCountry":"130758","latitude":36,"longitude":49.75},{"idState":"443794","name":"Qom","idCountry":"130758","latitude":34.75,"longitude":51},{"idState":"444178","name":"\u0100d\u012bs \u0100beba \u0100stedader","idCountry":"337996","latitude":9,"longitude":38.75},{"idState":"444179","name":"Afar Region","idCountry":"337996","latitude":12,"longitude":41.5},{"idState":"444180","name":"Amhara Region","idCountry":"337996","latitude":11.5,"longitude":38.5},{"idState":"444181","name":"Benishangul-Gumuz Region","idCountry":"337996","latitude":11,"longitude":35.5},{"idState":"444182","name":"Dire Dawa Region","idCountry":"337996","latitude":9.567,"longitude":42.014},{"idState":"444183","name":"Gambela Region","idCountry":"337996","latitude":7.83333,"longitude":34.5},{"idState":"444184","name":"Harari Region","idCountry":"337996","latitude":9.25,"longitude":42.16667},{"idState":"444185","name":"Oromiya Region","idCountry":"337996","latitude":8,"longitude":39},{"idState":"444186","name":"Somali Region","idCountry":"337996","latitude":7,"longitude":44},{"idState":"444187","name":"Tigray Region","idCountry":"337996","latitude":14.16667,"longitude":38.83333},{"idState":"444188","name":"Southern Nations, Nationalities, and People's Region","idCountry":"337996","latitude":6.05862,"longitude":36.7273},{"idState":"444191","name":"Mohafazat Nabat\u00eey\u00e9","idCountry":"272103","latitude":33.25,"longitude":35.5},{"idState":"448254","name":"Agalega Islands","idCountry":"934292","latitude":-10.4,"longitude":56.61667},{"idState":"448408","name":"Les Mamelles","idCountry":"241170","latitude":-4.65137,"longitude":55.46993},{"idState":"448409","name":"Roche Caiman","idCountry":"241170","latitude":-4.64059,"longitude":55.46995},{"idState":"448410","name":"Au Cap","idCountry":"241170","latitude":-4.7,"longitude":55.51667},{"idState":"448497","name":"Anseba Region","idCountry":"338010","latitude":16.5,"longitude":37.5},{"idState":"448498","name":"Debub Region","idCountry":"338010","latitude":14.83333,"longitude":38.83333},{"idState":"448499","name":"Southern Red Sea Region","idCountry":"338010","latitude":13.75,"longitude":41.5},{"idState":"448500","name":"Gash-Barka Region","idCountry":"338010","latitude":15.25,"longitude":37.5},{"idState":"448501","name":"Maekel Region","idCountry":"338010","latitude":15.33333,"longitude":38.91667},{"idState":"448502","name":"Northern Red Sea Region","idCountry":"338010","latitude":16,"longitude":39},{"idState":"449265","name":"Arta Region","idCountry":"223816","latitude":11.5,"longitude":42.75},{"idState":"453751","name":"Oblast Razgrad","idCountry":"732800","latitude":43.65,"longitude":26.6},{"idState":"453752","name":"Karakalpakstan","idCountry":"1512440","latitude":44.21636,"longitude":58.82986},{"idState":"453753","name":"Oblast Montana","idCountry":"732800","latitude":43.5,"longitude":23.18333},{"idState":"454968","name":"Talsi Municipality","idCountry":"458258","latitude":57.33333,"longitude":22.58333},{"idState":"455888","name":"Saldus Municipality","idCountry":"458258","latitude":56.66667,"longitude":22.5},{"idState":"456173","name":"R\u012bga","idCountry":"458258","latitude":56.97778,"longitude":24.12167},{"idState":"456197","name":"R\u0113zeknes Novads","idCountry":"458258","latitude":56.5,"longitude":27.16667},{"idState":"456203","name":"R\u0113zekne","idCountry":"458258","latitude":56.51028,"longitude":27.34},{"idState":"456528","name":"Prei\u013ci Municipality","idCountry":"458258","latitude":56.27326,"longitude":26.6939},{"idState":"457061","name":"Ogres novads","idCountry":"458258","latitude":56.87581,"longitude":25.10307},{"idState":"457712","name":"Madona Municipality","idCountry":"458258","latitude":56.83333,"longitude":26.25},{"idState":"457773","name":"Ludzas novads","idCountry":"458258","latitude":56.5,"longitude":27.75},{"idState":"457889","name":"Limba\u017eu novads","idCountry":"458258","latitude":57.58333,"longitude":24.66667},{"idState":"457955","name":"Liep\u0101ja","idCountry":"458258","latitude":56.54194,"longitude":21.03667},{"idState":"458459","name":"Kuld\u012bgas novads","idCountry":"458258","latitude":56.83333,"longitude":22},{"idState":"458621","name":"Kr\u0101slavas novads","idCountry":"458258","latitude":55.92265,"longitude":27.31983},{"idState":"459202","name":"J\u016brmala","idCountry":"458258","latitude":56.95198,"longitude":23.69531},{"idState":"459278","name":"Jelgavas novads","idCountry":"458258","latitude":56.58333,"longitude":23.75},{"idState":"459281","name":"Jelgava","idCountry":"458258","latitude":56.65111,"longitude":23.71639},{"idState":"459282","name":"J\u0113kabpils Municipality","idCountry":"458258","latitude":56.33333,"longitude":25.83333},{"idState":"459664","name":"Gulbenes novads","idCountry":"458258","latitude":57.16667,"longitude":26.66667},{"idState":"460311","name":"Dobeles novads","idCountry":"458258","latitude":56.58333,"longitude":23.16667},{"idState":"460410","name":"Daugavpils municipality","idCountry":"458258","latitude":55.94666,"longitude":26.55481},{"idState":"460414","name":"Daugavpils","idCountry":"458258","latitude":55.88139,"longitude":26.53889},{"idState":"460569","name":"C\u0113su Novads","idCountry":"458258","latitude":57.24225,"longitude":25.4132},{"idState":"461112","name":"Bauskas Novads","idCountry":"458258","latitude":56.5,"longitude":24.33333},{"idState":"461160","name":"Balvu Novads","idCountry":"458258","latitude":57.03254,"longitude":27.43968},{"idState":"461525","name":"Al\u016bksnes Novads","idCountry":"458258","latitude":57.41667,"longitude":27},{"idState":"461613","name":"Aizkraukles novads","idCountry":"458258","latitude":56.60184,"longitude":25.25208},{"idState":"468898","name":"Yaroslavskaya Oblast\u2019","idCountry":"2017370","latitude":58,"longitude":39.5},{"idState":"472039","name":"Voronezhskaya Oblast\u2019","idCountry":"2017370","latitude":51,"longitude":40.5},{"idState":"472454","name":"Vologodskaya Oblast\u2019","idCountry":"2017370","latitude":60,"longitude":42},{"idState":"472755","name":"Volgogradskaya Oblast\u2019","idCountry":"2017370","latitude":49,"longitude":44},{"idState":"479119","name":"Ulyanovsk Oblast","idCountry":"2017370","latitude":54,"longitude":48},{"idState":"479613","name":"Udmurtskaya Respublika","idCountry":"2017370","latitude":57,"longitude":53},{"idState":"480041","name":"Tverskaya Oblast\u2019","idCountry":"2017370","latitude":57.00964,"longitude":35.00488},{"idState":"480508","name":"Tul\u2019skaya Oblast\u2019","idCountry":"2017370","latitude":54,"longitude":37.5},{"idState":"484048","name":"Tatarstan","idCountry":"2017370","latitude":55.33333,"longitude":51},{"idState":"484638","name":"Tambovskaya Oblast\u2019","idCountry":"2017370","latitude":52.75,"longitude":41.5},{"idState":"487839","name":"Stavropol\u2019skiy Kray","idCountry":"2017370","latitude":45,"longitude":44},{"idState":"491684","name":"Smolenskaya Oblast\u2019","idCountry":"2017370","latitude":55,"longitude":33},{"idState":"498671","name":"Saratovskaya Oblast\u2019","idCountry":"2017370","latitude":51.5,"longitude":47},{"idState":"499068","name":"Samarskaya Oblast\u2019","idCountry":"2017370","latitude":53,"longitude":50},{"idState":"500059","name":"Ryazanskaya Oblast\u2019","idCountry":"2017370","latitude":54.25,"longitude":40.5},{"idState":"501165","name":"Rostovskaya Oblast\u2019","idCountry":"2017370","latitude":47.44032,"longitude":41.08083},{"idState":"504338","name":"Pskovskaya Oblast\u2019","idCountry":"2017370","latitude":57.5,"longitude":29},{"idState":"511180","name":"Perm Krai","idCountry":"2017370","latitude":59,"longitude":57},{"idState":"511555","name":"Penzenskaya Oblast\u2019","idCountry":"2017370","latitude":53,"longitude":44.5},{"idState":"514801","name":"Orlovskaya Oblast\u2019","idCountry":"2017370","latitude":53,"longitude":36.25},{"idState":"515001","name":"Orenburgskaya Oblast\u2019","idCountry":"2017370","latitude":52,"longitude":56},{"idState":"519324","name":"Novgorodskaya Oblast\u2019","idCountry":"2017370","latitude":58.5,"longitude":32.5},{"idState":"519969","name":"North Ossetia","idCountry":"2017370","latitude":43,"longitude":44.25},{"idState":"522652","name":"Nenetskiy Avtonomnyy Okrug","idCountry":"2017370","latitude":67.5,"longitude":54},{"idState":"524304","name":"Murmanskaya Oblast\u2019","idCountry":"2017370","latitude":68,"longitude":34},{"idState":"524894","name":"Moskva","idCountry":"2017370","latitude":55.76167,"longitude":37.60667},{"idState":"524925","name":"Moscow Oblast","idCountry":"2017370","latitude":55.81363,"longitude":36.71631},{"idState":"525369","name":"Respublika Mordoviya","idCountry":"2017370","latitude":54.5,"longitude":44},{"idState":"529352","name":"Respublika Mariy-El","idCountry":"2017370","latitude":56.5,"longitude":48},{"idState":"535120","name":"Lipetskaya Oblast\u2019","idCountry":"2017370","latitude":52.5,"longitude":39},{"idState":"536199","name":"Leningradskaya Oblast\u2019","idCountry":"2017370","latitude":60,"longitude":32},{"idState":"536203","name":"Sankt-Peterburg","idCountry":"2017370","latitude":59.91667,"longitude":30.25},{"idState":"538555","name":"Kurskaya Oblast\u2019","idCountry":"2017370","latitude":51.5,"longitude":36},{"idState":"542415","name":"Krasnodarskiy Kray","idCountry":"2017370","latitude":44.98811,"longitude":38.97675},{"idState":"543871","name":"Kostromskaya Oblast\u2019","idCountry":"2017370","latitude":58.5,"longitude":44},{"idState":"545854","name":"Komi","idCountry":"2017370","latitude":64,"longitude":54},{"idState":"548389","name":"Kirovskaya Oblast\u2019","idCountry":"2017370","latitude":58,"longitude":50},{"idState":"552548","name":"Respublika Kareliya","idCountry":"2017370","latitude":64,"longitude":32.5},{"idState":"552927","name":"Karachayevo-Cherkesiya","idCountry":"2017370","latitude":44,"longitude":42},{"idState":"553899","name":"Kaluzhskaya Oblast\u2019","idCountry":"2017370","latitude":54.5,"longitude":35.5},{"idState":"553972","name":"Kalmykiya","idCountry":"2017370","latitude":46.5,"longitude":45.5},{"idState":"554230","name":"Kaliningradskaya Oblast\u2019","idCountry":"2017370","latitude":54.75,"longitude":21.5},{"idState":"554667","name":"Kabardino-Balkarskaya Respublika","idCountry":"2017370","latitude":43.5,"longitude":43.5},{"idState":"555235","name":"Ivanovskaya Oblast\u2019","idCountry":"2017370","latitude":57,"longitude":41.75},{"idState":"556349","name":"Respublika Ingushetiya","idCountry":"2017370","latitude":43.16667,"longitude":45},{"idState":"559838","name":"Nizhegorodskaya Oblast\u2019","idCountry":"2017370","latitude":56,"longitude":45},{"idState":"567293","name":"Dagestan","idCountry":"2017370","latitude":43,"longitude":47},{"idState":"567395","name":"Chuvashskaya Respublika","idCountry":"2017370","latitude":55.5,"longitude":47},{"idState":"569665","name":"Chechenskaya Respublika","idCountry":"2017370","latitude":43.25,"longitude":45.83333},{"idState":"571473","name":"Bryanskaya Oblast\u2019","idCountry":"2017370","latitude":53,"longitude":33.5},{"idState":"578071","name":"Belgorodskaya Oblast\u2019","idCountry":"2017370","latitude":50.75,"longitude":37.5},{"idState":"578853","name":"Bashkortostan","idCountry":"2017370","latitude":54,"longitude":56},{"idState":"580491","name":"Astrakhanskaya Oblast\u2019","idCountry":"2017370","latitude":47,"longitude":48},{"idState":"581043","name":"Arkhangel\u2019skaya Oblast\u2019","idCountry":"2017370","latitude":64,"longitude":44},{"idState":"584222","name":"Respublika Adygeya","idCountry":"2017370","latitude":45.0001,"longitude":40.01045},{"idState":"584583","name":"Zardab Rayon","idCountry":"587116","latitude":40.25,"longitude":47.75},{"idState":"584604","name":"Zaqatala Rayon","idCountry":"587116","latitude":41.58333,"longitude":46.66667},{"idState":"584650","name":"Yevlakh Rayon","idCountry":"587116","latitude":40.66667,"longitude":47},{"idState":"584742","name":"Oghuz Rayon","idCountry":"587116","latitude":41.08333,"longitude":47.5},{"idState":"584783","name":"Ujar Rayon","idCountry":"587116","latitude":40.41667,"longitude":47.75},{"idState":"584861","name":"Tovuz Rayon","idCountry":"587116","latitude":41,"longitude":45.75},{"idState":"585030","name":"Shamakhi Rayon","idCountry":"587116","latitude":40.58333,"longitude":48.66667},{"idState":"585031","name":"Shaki Rayon","idCountry":"587116","latitude":41.08333,"longitude":47.16667},{"idState":"585059","name":"Shamkir Rayon","idCountry":"587116","latitude":40.83333,"longitude":46.08333},{"idState":"585686","name":"Kurdamir Rayon","idCountry":"587116","latitude":40.25,"longitude":48.16667},{"idState":"585738","name":"Qabala Rayon","idCountry":"587116","latitude":40.91667,"longitude":47.83333},{"idState":"585749","name":"Qusar Rayon","idCountry":"587116","latitude":41.41667,"longitude":48.25},{"idState":"585786","name":"Quba Rayon","idCountry":"587116","latitude":41.16667,"longitude":48.41667},{"idState":"585967","name":"Goygol Rayon","idCountry":"587116","latitude":40.5,"longitude":46.33333},{"idState":"586001","name":"Khachmaz Rayon","idCountry":"587116","latitude":41.58333,"longitude":48.75},{"idState":"586047","name":"Kalbajar District","idCountry":"587116","latitude":40.1027,"longitude":46.1747},{"idState":"586087","name":"Qazakh Rayon","idCountry":"587116","latitude":41.26,"longitude":45.09},{"idState":"586112","name":"Goranboy Rayon","idCountry":"587116","latitude":40.58333,"longitude":46.66667},{"idState":"586290","name":"Qakh Rayon","idCountry":"587116","latitude":41.33333,"longitude":46.75},{"idState":"586320","name":"Ismayilli Rayon","idCountry":"587116","latitude":40.83333,"longitude":48.16667},{"idState":"586482","name":"Goychay Rayon","idCountry":"587116","latitude":40.58333,"longitude":47.83333},{"idState":"586725","name":"Shabran Rayon","idCountry":"587116","latitude":41.18542,"longitude":48.8275},{"idState":"586771","name":"Dashkasan Rayon","idCountry":"587116","latitude":40.41667,"longitude":46},{"idState":"587010","name":"Balakan Rayon","idCountry":"587116","latitude":41.75,"longitude":46.41667},{"idState":"587056","name":"Barda Rayon","idCountry":"587116","latitude":40.33333,"longitude":47.16667},{"idState":"587081","name":"Baku City","idCountry":"587116","latitude":40.39802,"longitude":49.72414},{"idState":"587245","name":"Absheron Rayon","idCountry":"587116","latitude":40.41667,"longitude":49.33333},{"idState":"587342","name":"Aghsu Rayon","idCountry":"587116","latitude":40.5,"longitude":48.33333},{"idState":"587376","name":"Aghdash Rayon","idCountry":"587116","latitude":40.58333,"longitude":47.41667},{"idState":"587448","name":"V\u00f5rumaa","idCountry":"453733","latitude":57.76667,"longitude":26.93333},{"idState":"587590","name":"Viljandimaa","idCountry":"453733","latitude":58.33333,"longitude":25.56667},{"idState":"587875","name":"Valgamaa","idCountry":"453733","latitude":57.91667,"longitude":26.16667},{"idState":"588334","name":"Tartumaa","idCountry":"453733","latitude":58.38065,"longitude":26.72496},{"idState":"588879","name":"Saaremaa","idCountry":"453733","latitude":58.41667,"longitude":22.58333},{"idState":"589115","name":"Raplamaa","idCountry":"453733","latitude":58.96667,"longitude":24.7},{"idState":"589373","name":"P\u00f5lvamaa","idCountry":"453733","latitude":58.08333,"longitude":27.16667},{"idState":"589576","name":"P\u00e4rnumaa","idCountry":"453733","latitude":58.46667,"longitude":24.56667},{"idState":"590854","name":"L\u00e4\u00e4ne-Virumaa","idCountry":"453733","latitude":59.25,"longitude":26.33333},{"idState":"590856","name":"L\u00e4\u00e4nemaa","idCountry":"453733","latitude":58.93333,"longitude":23.55},{"idState":"591901","name":"J\u00f5gevamaa","idCountry":"453733","latitude":58.73333,"longitude":26.46667},{"idState":"591961","name":"J\u00e4rvamaa","idCountry":"453733","latitude":58.91667,"longitude":25.66667},{"idState":"592075","name":"Ida-Virumaa","idCountry":"453733","latitude":59.25,"longitude":27.41667},{"idState":"592133","name":"Hiiumaa","idCountry":"453733","latitude":58.9,"longitude":22.63333},{"idState":"592170","name":"Harjumaa","idCountry":"453733","latitude":59.33333,"longitude":24.83333},{"idState":"601465","name":"Da\u015foguz Wela\u00fdaty","idCountry":"1218197","latitude":41,"longitude":58.5},{"idState":"604010","name":"Norrbotten","idCountry":"2661886","latitude":67,"longitude":20},{"idState":"607847","name":"West Kazakhstan","idCountry":"1522867","latitude":49.83333,"longitude":50.66667},{"idState":"608879","name":"Mangistauskaya Oblast\u2019","idCountry":"1522867","latitude":44,"longitude":54},{"idState":"609862","name":"Atyra\u016b Oblysy","idCountry":"1522867","latitude":47.58333,"longitude":52.16667},{"idState":"610688","name":"Aktyubinskaya Oblast\u2019","idCountry":"1522867","latitude":48.58333,"longitude":58.58333},{"idState":"611716","name":"K'alak'i T'bilisi","idCountry":"614540","latitude":41.71667,"longitude":44.83333},{"idState":"615929","name":"Ajaria","idCountry":"614540","latitude":41.66667,"longitude":42},{"idState":"616051","name":"Yerevan","idCountry":"174982","latitude":40.18333,"longitude":44.5},{"idState":"617077","name":"Raionul Edine\u0163","idCountry":"617790","latitude":48.16667,"longitude":27.25},{"idState":"617181","name":"Raionul Ungheni","idCountry":"617790","latitude":47.33333,"longitude":27.91667},{"idState":"617255","name":"Telene\u015fti","idCountry":"617790","latitude":47.58333,"longitude":28.5},{"idState":"617264","name":"Taraclia","idCountry":"617790","latitude":45.91667,"longitude":28.58333},{"idState":"617283","name":"Raionul \u015etefan Vod\u0103","idCountry":"617790","latitude":46.5,"longitude":29.66667},{"idState":"617301","name":"Raionul Str\u0103\u015feni","idCountry":"617790","latitude":47.16667,"longitude":28.58333},{"idState":"617366","name":"Raionul Soroca","idCountry":"617790","latitude":48.16667,"longitude":28.25},{"idState":"617483","name":"R\u00ee\u015fcani","idCountry":"617790","latitude":47.92778,"longitude":27.53509},{"idState":"617501","name":"Rezina","idCountry":"617790","latitude":47.66667,"longitude":28.83333},{"idState":"617639","name":"Orhei","idCountry":"617790","latitude":47.41667,"longitude":28.83333},{"idState":"617656","name":"Raionul Ocni\u0163a","idCountry":"617790","latitude":48.41667,"longitude":27.5},{"idState":"617715","name":"Anenii Noi","idCountry":"617790","latitude":46.91667,"longitude":29.25},{"idState":"617754","name":"Nisporeni","idCountry":"617790","latitude":47.08333,"longitude":28.16667},{"idState":"617903","name":"Leova","idCountry":"617790","latitude":46.5,"longitude":28.41667},{"idState":"617913","name":"S\u00eengerei","idCountry":"617790","latitude":47.66667,"longitude":28.16667},{"idState":"617962","name":"Criuleni","idCountry":"617790","latitude":47.15861,"longitude":29.03065},{"idState":"617991","name":"Ialoveni","idCountry":"617790","latitude":46.83333,"longitude":28.83333},{"idState":"618069","name":"Municipiul Chi\u015fin\u0103u","idCountry":"617790","latitude":47,"longitude":28.83333},{"idState":"618119","name":"Raionul C\u0103u\u015feni","idCountry":"617790","latitude":46.61884,"longitude":29.3135},{"idState":"618142","name":"Cantemir","idCountry":"617790","latitude":46.25,"longitude":28.33333},{"idState":"618162","name":"Raionul C\u0103l\u0103ra\u015fi","idCountry":"617790","latitude":47.29365,"longitude":28.30836},{"idState":"618164","name":"Raionul Cahul","idCountry":"617790","latitude":45.83333,"longitude":28.33333},{"idState":"618260","name":"Glodeni","idCountry":"617790","latitude":47.75,"longitude":27.5},{"idState":"618331","name":"Flore\u015fti","idCountry":"617790","latitude":47.87398,"longitude":28.37775},{"idState":"618345","name":"F\u0103le\u015fti","idCountry":"617790","latitude":47.58333,"longitude":27.75},{"idState":"618363","name":"Raionul Dub\u0103sari","idCountry":"617790","latitude":47.25,"longitude":29.11667},{"idState":"618369","name":"Raionul Drochia","idCountry":"617790","latitude":48.08333,"longitude":27.83333},{"idState":"618381","name":"Dondu\u015feni","idCountry":"617790","latitude":48.2677,"longitude":27.68616},{"idState":"618430","name":"Cimi\u015flia","idCountry":"617790","latitude":46.58333,"longitude":28.83333},{"idState":"618511","name":"Briceni","idCountry":"617790","latitude":48.25,"longitude":27},{"idState":"618565","name":"Basarabeasca","idCountry":"617790","latitude":46.41667,"longitude":28.91667},{"idState":"620134","name":"Vitebsk Oblast","idCountry":"630336","latitude":55,"longitude":29.5},{"idState":"625073","name":"Mogilyov Oblast","idCountry":"630336","latitude":54,"longitude":30.75},{"idState":"625142","name":"Minsk Oblast","idCountry":"630336","latitude":54,"longitude":28},{"idState":"625143","name":"Horad Minsk","idCountry":"630336","latitude":53.9,"longitude":27.56667},{"idState":"627535","name":"Gadabay Rayon","idCountry":"587116","latitude":40.5,"longitude":45.66667},{"idState":"628035","name":"Grodno Oblast","idCountry":"630336","latitude":53.5,"longitude":24.5},{"idState":"628281","name":"Gomel Oblast","idCountry":"630336","latitude":52,"longitude":30},{"idState":"629631","name":"Brest Oblast","idCountry":"630336","latitude":52.09976,"longitude":23.7854},{"idState":"662447","name":"Vrancea","idCountry":"798549","latitude":45.75,"longitude":26.91667},{"idState":"662892","name":"Jude\u0163ul V\u00e2lcea","idCountry":"798549","latitude":45.08333,"longitude":24.16667},{"idState":"663116","name":"Vaslui","idCountry":"798549","latitude":46.5,"longitude":27.75},{"idState":"664517","name":"Tulcea","idCountry":"798549","latitude":45,"longitude":28.83333},{"idState":"665091","name":"Jude\u0163ul Timi\u015f","idCountry":"798549","latitude":45.66667,"longitude":21.5},{"idState":"665283","name":"Teleorman","idCountry":"798549","latitude":44.08333,"longitude":25.16667},{"idState":"665849","name":"Suceava","idCountry":"798549","latitude":47.58333,"longitude":25.75},{"idState":"667267","name":"Jude\u0163ul Sibiu","idCountry":"798549","latitude":45.78428,"longitude":24.14383},{"idState":"667869","name":"Satu Mare","idCountry":"798549","latitude":47.75,"longitude":23},{"idState":"668248","name":"Jude\u0163ul S\u0103laj","idCountry":"798549","latitude":47.16667,"longitude":23.25},{"idState":"669737","name":"Prahova","idCountry":"798549","latitude":45.16667,"longitude":26},{"idState":"671857","name":"Olt","idCountry":"798549","latitude":44.33333,"longitude":24.5},{"idState":"672460","name":"Jude\u0163ul Neam\u0163","idCountry":"798549","latitude":47,"longitude":26.5},{"idState":"672628","name":"Jude\u0163ul Mure\u015f","idCountry":"798549","latitude":46.66667,"longitude":24.58333},{"idState":"673612","name":"Jude\u0163ul Mehedin\u0163i","idCountry":"798549","latitude":44.66667,"longitude":22.83333},{"idState":"673887","name":"Jude\u0163ul Maramure\u015f","idCountry":"798549","latitude":47.66667,"longitude":24},{"idState":"675809","name":"Jude\u0163ul Ia\u015fi","idCountry":"798549","latitude":47.25,"longitude":27.25},{"idState":"675848","name":"Jude\u0163ul Ialomi\u0163a","idCountry":"798549","latitude":44.66667,"longitude":27},{"idState":"675917","name":"Hunedoara","idCountry":"798549","latitude":45.75,"longitude":23},{"idState":"676309","name":"Harghita","idCountry":"798549","latitude":46.58333,"longitude":25.41667},{"idState":"676898","name":"Gorj","idCountry":"798549","latitude":45.04636,"longitude":23.28278},{"idState":"677104","name":"Giurgiu","idCountry":"798549","latitude":44.16667,"longitude":25.91667},{"idState":"677692","name":"Jude\u0163ul Gala\u0163i","idCountry":"798549","latitude":45.75,"longitude":27.75},{"idState":"679134","name":"Dolj","idCountry":"798549","latitude":44.16667,"longitude":23.75},{"idState":"679385","name":"Jude\u0163ul D\u00e2mbovi\u0163a","idCountry":"798549","latitude":44.91667,"longitude":25.5},{"idState":"680428","name":"Covasna","idCountry":"798549","latitude":45.91667,"longitude":26},{"idState":"680962","name":"Constan\u021ba","idCountry":"798549","latitude":44.25,"longitude":28.33333},{"idState":"681291","name":"Jude\u0163ul Cluj","idCountry":"798549","latitude":46.64944,"longitude":23.81836},{"idState":"682714","name":"Jude\u0163ul Cara\u015f-Severin","idCountry":"798549","latitude":45.08333,"longitude":22.08333},{"idState":"683016","name":"Jude\u0163ul C\u0103l\u0103ra\u015fi","idCountry":"798549","latitude":44.25,"longitude":27},{"idState":"683121","name":"Jude\u0163ul Buz\u0103u","idCountry":"798549","latitude":45.41667,"longitude":26.75},{"idState":"683504","name":"Bucure\u0219ti","idCountry":"798549","latitude":44.5,"longitude":26.08333},{"idState":"683843","name":"Jude\u0163ul Bra\u015fov","idCountry":"798549","latitude":45.75,"longitude":25.33333},{"idState":"683901","name":"Jude\u0163ul Br\u0103ila","idCountry":"798549","latitude":45.08333,"longitude":27.66667},{"idState":"684038","name":"Jude\u0163ul Boto\u015fani","idCountry":"798549","latitude":47.83333,"longitude":26.75},{"idState":"684647","name":"Jude\u0163ul Bistri\u0163a-N\u0103s\u0103ud","idCountry":"798549","latitude":47.16667,"longitude":24.58333},{"idState":"684878","name":"Bihor","idCountry":"798549","latitude":47,"longitude":22.33333},{"idState":"685947","name":"Jude\u0163ul Bac\u0103u","idCountry":"798549","latitude":46.41667,"longitude":26.83333},{"idState":"686192","name":"Jude\u0163ul Arge\u015f","idCountry":"798549","latitude":45,"longitude":24.83333},{"idState":"686253","name":"Arad","idCountry":"798549","latitude":46.33333,"longitude":21.75},{"idState":"686581","name":"Jude\u0163ul Alba","idCountry":"798549","latitude":46.06817,"longitude":23.57245},{"idState":"686966","name":"Zhytomyrs\u2019ka Oblast\u2019","idCountry":"690791","latitude":50.58333,"longitude":28.5},{"idState":"687699","name":"Zaporiz\u2019ka Oblast\u2019","idCountry":"690791","latitude":47.25,"longitude":35.66667},{"idState":"687869","name":"Zakarpattia Oblast","idCountry":"690791","latitude":48.33333,"longitude":23},{"idState":"689064","name":"Volyns\u2019ka Oblast\u2019","idCountry":"690791","latitude":51.16667,"longitude":24.86667},{"idState":"689559","name":"Vinnyts\u2019ka Oblast\u2019","idCountry":"690791","latitude":48.91667,"longitude":28.66667},{"idState":"691649","name":"Ternopil\u2019s\u2019ka Oblast\u2019","idCountry":"690791","latitude":49.4,"longitude":25.63333},{"idState":"692196","name":"Sums\u2019ka Oblast\u2019","idCountry":"690791","latitude":51,"longitude":34},{"idState":"694422","name":"Gorod Sevastopol","idCountry":"690791","latitude":44.55525,"longitude":33.53851},{"idState":"695592","name":"Rivnens\u2019ka Oblast\u2019","idCountry":"690791","latitude":51,"longitude":26.5},{"idState":"696634","name":"Poltavs\u2019ka Oblast\u2019","idCountry":"690791","latitude":49.47705,"longitude":33.81866},{"idState":"698738","name":"Odes\u2019ka Oblast\u2019","idCountry":"690791","latitude":46.75,"longitude":30.25},{"idState":"700567","name":"Mykolayivs\u2019ka Oblast\u2019","idCountry":"690791","latitude":47.41667,"longitude":31.83333},{"idState":"702549","name":"L\u2019vivs\u2019ka Oblast\u2019","idCountry":"690791","latitude":49.75,"longitude":23.91667},{"idState":"702657","name":"Luhans\u2019ka Oblast\u2019","idCountry":"690791","latitude":49,"longitude":39},{"idState":"703446","name":"Kyiv Oblast","idCountry":"690791","latitude":50.24018,"longitude":30.23163},{"idState":"703447","name":"Misto Kyyiv","idCountry":"690791","latitude":50.4429,"longitude":30.54896},{"idState":"703883","name":"Republic of Crimea","idCountry":"690791","latitude":45,"longitude":34},{"idState":"705811","name":"Kirovohrads\u2019ka Oblast\u2019","idCountry":"690791","latitude":48.5,"longitude":32},{"idState":"706370","name":"Khmel\u2019nyts\u2019ka Oblast\u2019","idCountry":"690791","latitude":49.5,"longitude":27},{"idState":"706442","name":"Khersons\u2019ka Oblast\u2019","idCountry":"690791","latitude":46.75,"longitude":33.66667},{"idState":"706482","name":"Kharkivs\u2019ka Oblast\u2019","idCountry":"690791","latitude":49.5,"longitude":36.5},{"idState":"707470","name":"Ivano-Frankivs\u2019ka Oblast\u2019","idCountry":"690791","latitude":48.7,"longitude":24.61667},{"idState":"709716","name":"Donets\u2019ka Oblast\u2019","idCountry":"690791","latitude":48,"longitude":37.66667},{"idState":"709929","name":"Dnipropetrovska Oblast'","idCountry":"690791","latitude":48.5,"longitude":35},{"idState":"710720","name":"Chernivets\u2019ka Oblast\u2019","idCountry":"690791","latitude":48.25,"longitude":26},{"idState":"710734","name":"Chernihivs\u2019ka Oblast\u2019","idCountry":"690791","latitude":51.33333,"longitude":32},{"idState":"710802","name":"Cherkas\u2019ka Oblast\u2019","idCountry":"690791","latitude":49.25,"longitude":31.33333},{"idState":"715593","name":"Szabolcs-Szatm\u00e1r-Bereg","idCountry":"719819","latitude":48,"longitude":22.16667},{"idState":"719637","name":"J\u00e1sz-Nagykun-Szolnok","idCountry":"719819","latitude":47.25,"longitude":20.5},{"idState":"720002","name":"Heves megye","idCountry":"719819","latitude":47.83333,"longitude":20.25},{"idState":"720293","name":"Hajd\u00fa-Bihar","idCountry":"719819","latitude":47.41667,"longitude":21.5},{"idState":"721589","name":"Csongr\u00e1d megye","idCountry":"719819","latitude":46.41667,"longitude":20.25},{"idState":"722064","name":"Borsod-Abauj Zemplen county","idCountry":"719819","latitude":48.25,"longitude":21},{"idState":"722433","name":"Bekes County","idCountry":"719819","latitude":46.75,"longitude":21},{"idState":"725713","name":"Oblast Vratsa","idCountry":"732800","latitude":43.4,"longitude":23.76667},{"idState":"726051","name":"Varna","idCountry":"732800","latitude":43.21667,"longitude":27.6},{"idState":"726419","name":"Oblast Dobrich","idCountry":"732800","latitude":43.68333,"longitude":27.9},{"idState":"727012","name":"Sofia","idCountry":"732800","latitude":42.66667,"longitude":23.8},{"idState":"727524","name":"Oblast Ruse","idCountry":"732800","latitude":43.7,"longitude":26},{"idState":"728194","name":"Plovdiv","idCountry":"732800","latitude":42.26667,"longitude":24.83333},{"idState":"728204","name":"Oblast Pleven","idCountry":"732800","latitude":43.5,"longitude":24.63333},{"idState":"728331","name":"Pernik","idCountry":"732800","latitude":42.63333,"longitude":22.88333},{"idState":"728379","name":"Pazardzhik","idCountry":"732800","latitude":42.08333,"longitude":24.16667},{"idState":"729560","name":"Lovech","idCountry":"732800","latitude":43.03333,"longitude":24.56667},{"idState":"730436","name":"Haskovo","idCountry":"732800","latitude":41.83333,"longitude":25.91667},{"idState":"731061","name":"Sofia-Grad","idCountry":"732800","latitude":42.66667,"longitude":23.38333},{"idState":"732771","name":"Burgas","idCountry":"732800","latitude":42.53333,"longitude":27.23333},{"idState":"733192","name":"Blagoevgrad","idCountry":"732800","latitude":41.73333,"longitude":23.45},{"idState":"736572","name":"Mount Athos","idCountry":"390903","latitude":40.15798,"longitude":24.33021},{"idState":"737021","name":"Zonguldak","idCountry":"298795","latitude":41.25,"longitude":31.83333},{"idState":"738647","name":"Trabzon","idCountry":"298795","latitude":40.86946,"longitude":39.81255},{"idState":"738742","name":"Tokat","idCountry":"298795","latitude":40.41667,"longitude":36.58333},{"idState":"738926","name":"Tekirda\u011f","idCountry":"298795","latitude":41,"longitude":27.5},{"idState":"739598","name":"Sinop","idCountry":"298795","latitude":41.77106,"longitude":34.87095},{"idState":"740263","name":"Samsun","idCountry":"298795","latitude":41.25,"longitude":36.33333},{"idState":"740352","name":"Sakarya","idCountry":"298795","latitude":40.75,"longitude":30.58333},{"idState":"740481","name":"Rize","idCountry":"298795","latitude":40.90443,"longitude":40.89489},{"idState":"741098","name":"Ordu","idCountry":"298795","latitude":40.90858,"longitude":37.68448},{"idState":"742865","name":"Kocaeli","idCountry":"298795","latitude":40.91667,"longitude":29.91667},{"idState":"743165","name":"K\u0131rklareli","idCountry":"298795","latitude":41.66667,"longitude":27.5},{"idState":"743881","name":"Kastamonu","idCountry":"298795","latitude":41.5,"longitude":33.66667},{"idState":"743942","name":"Kars","idCountry":"298795","latitude":40.41667,"longitude":43.08333},{"idState":"745042","name":"\u0130stanbul","idCountry":"298795","latitude":41.03508,"longitude":28.98331},{"idState":"746423","name":"G\u00fcm\u00fc\u015fhane","idCountry":"298795","latitude":40.25,"longitude":39.58333},{"idState":"746878","name":"Giresun","idCountry":"298795","latitude":40.5,"longitude":38.5},{"idState":"747711","name":"Edirne","idCountry":"298795","latitude":41.25,"longitude":26.66667},{"idState":"748877","name":"\u00c7orum","idCountry":"298795","latitude":40.5,"longitude":34.75},{"idState":"749747","name":"\u00c7ank\u0131r\u0131","idCountry":"298795","latitude":40.66667,"longitude":33.41667},{"idState":"749778","name":"\u00c7anakkale","idCountry":"298795","latitude":40.08333,"longitude":26.83333},{"idState":"750268","name":"Bursa","idCountry":"298795","latitude":40.16667,"longitude":29.08333},{"idState":"750510","name":"Bolu","idCountry":"298795","latitude":40.64131,"longitude":31.58216},{"idState":"751816","name":"Artvin","idCountry":"298795","latitude":41.16667,"longitude":41.83333},{"idState":"752014","name":"Amasya","idCountry":"298795","latitude":40.72619,"longitude":35.8867},{"idState":"780166","name":"Finnmark Fylke","idCountry":"3144096","latitude":70.0815,"longitude":29.7358},{"idState":"784272","name":"Autonomna Pokrajina Vojvodina","idCountry":"6290252","latitude":45,"longitude":20},{"idState":"784732","name":"Valandovo","idCountry":"718075","latitude":41.33444,"longitude":22.53222},{"idState":"785958","name":"Central Serbia","idCountry":"6290252","latitude":44,"longitude":21},{"idState":"786233","name":"Op\u0161tina Ro\u017eaje","idCountry":"3194884","latitude":42.84278,"longitude":20.15028},{"idState":"786339","name":"Resen","idCountry":"718075","latitude":41.03333,"longitude":21.01667},{"idState":"789090","name":"Kratovo","idCountry":"718075","latitude":42.08333,"longitude":22.16667},{"idState":"826294","name":"Vladimirskaya Oblast\u2019","idCountry":"2017370","latitude":56,"longitude":40.5},{"idState":"828259","name":"Aragatsotni Marz","idCountry":"174982","latitude":40.41667,"longitude":44.16667},{"idState":"828260","name":"Armaviri Marz","idCountry":"174982","latitude":40.11667,"longitude":44},{"idState":"828261","name":"Geghark\u2019unik\u2019i Marz","idCountry":"174982","latitude":40.25,"longitude":45.41667},{"idState":"828262","name":"Kotayk\u2019i Marz","idCountry":"174982","latitude":40.41667,"longitude":44.75},{"idState":"828263","name":"Lorru Marz","idCountry":"174982","latitude":41,"longitude":44.5},{"idState":"828264","name":"Shiraki Marz","idCountry":"174982","latitude":40.75,"longitude":43.83333},{"idState":"828265","name":"Tavushi Marz","idCountry":"174982","latitude":40.91667,"longitude":45.16667},{"idState":"828297","name":"Aghstafa Rayon","idCountry":"587116","latitude":41.25,"longitude":45.5},{"idState":"828298","name":"Ganja City","idCountry":"587116","latitude":40.6937,"longitude":46.34082},{"idState":"828299","name":"Mingacevir City","idCountry":"587116","latitude":40.76667,"longitude":47},{"idState":"828300","name":"Naftalan City","idCountry":"587116","latitude":40.50525,"longitude":46.81163},{"idState":"828301","name":"Gobustan Rayon","idCountry":"587116","latitude":40.5,"longitude":49},{"idState":"828302","name":"Samukh Rayon","idCountry":"587116","latitude":40.91667,"longitude":46.41667},{"idState":"828303","name":"Shaki city","idCountry":"587116","latitude":41.18333,"longitude":47.16667},{"idState":"828304","name":"Siazan Rayon","idCountry":"587116","latitude":41,"longitude":49.08333},{"idState":"828305","name":"Sumqayit City","idCountry":"587116","latitude":40.59466,"longitude":49.62799},{"idState":"828306","name":"Khizi Rayon","idCountry":"587116","latitude":40.75,"longitude":49.16667},{"idState":"828307","name":"Yevlakh City","idCountry":"587116","latitude":40.58333,"longitude":47.16667},{"idState":"828315","name":"Hajigabul Rayon","idCountry":"587116","latitude":40.08333,"longitude":48.91667},{"idState":"830603","name":"Lapland","idCountry":"660013","latitude":67.75,"longitude":26.5},{"idState":"830664","name":"Kainuu","idCountry":"660013","latitude":64.5,"longitude":28.5},{"idState":"830667","name":"Pohjois-Pohjanmaa","idCountry":"660013","latitude":65,"longitude":26.41667},{"idState":"830675","name":"Keski-Pohjanmaa","idCountry":"660013","latitude":63.58333,"longitude":24.08333},{"idState":"830676","name":"Pohjanmaa","idCountry":"660013","latitude":63.08333,"longitude":22.16667},{"idState":"830682","name":"Etel\u00e4-Pohjanmaa","idCountry":"660013","latitude":62.75,"longitude":23},{"idState":"830685","name":"Keski-Suomi","idCountry":"660013","latitude":62.5,"longitude":25.5},{"idState":"830686","name":"Pohjois-Karjala","idCountry":"660013","latitude":62.83333,"longitude":29.91667},{"idState":"830690","name":"Pohjois-Savo","idCountry":"660013","latitude":63.16667,"longitude":27.5},{"idState":"830695","name":"Southern Savonia","idCountry":"660013","latitude":61.75,"longitude":27.83333},{"idState":"830699","name":"Etel\u00e4-Karjala","idCountry":"660013","latitude":60.96667,"longitude":28.16667},{"idState":"830703","name":"Kymenlaakso","idCountry":"660013","latitude":60.83333,"longitude":26.91667},{"idState":"830704","name":"Pirkanmaa","idCountry":"660013","latitude":61.7,"longitude":23.71667},{"idState":"830705","name":"Kanta-H\u00e4me","idCountry":"660013","latitude":60.91667,"longitude":24.33333},{"idState":"830708","name":"Varsinais-Suomi","idCountry":"660013","latitude":60.5,"longitude":22.25},{"idState":"830709","name":"Uusimaa","idCountry":"660013","latitude":60.41667,"longitude":24.75},{"idState":"831040","name":"P\u00e4ij\u00e4nne-Tavastland","idCountry":"660013","latitude":61.25,"longitude":25.83333},{"idState":"831041","name":"Satakunta","idCountry":"660013","latitude":61.5,"longitude":22.16667},{"idState":"858785","name":"Wojew\u00f3dztwo Lubelskie","idCountry":"798544","latitude":51.23333,"longitude":22.9},{"idState":"858786","name":"Wojew\u00f3dztwo Ma\u0142opolskie","idCountry":"798544","latitude":49.86667,"longitude":20.26667},{"idState":"858787","name":"Wojew\u00f3dztwo Mazowieckie","idCountry":"798544","latitude":52.36667,"longitude":21.1},{"idState":"858788","name":"Wojew\u00f3dztwo Podkarpackie","idCountry":"798544","latitude":50,"longitude":22.16667},{"idState":"858789","name":"Wojew\u00f3dztwo Podlaskie","idCountry":"798544","latitude":53.25,"longitude":23},{"idState":"858790","name":"Wojew\u00f3dztwo \u015awi\u0119tokrzyskie","idCountry":"798544","latitude":50.75,"longitude":20.75},{"idState":"858791","name":"Wojew\u00f3dztwo Warmi\u0144sko-Mazurskie","idCountry":"798544","latitude":53.83333,"longitude":20.83333},{"idState":"858803","name":"H\u00eence\u015fti","idCountry":"617790","latitude":46.83333,"longitude":28.41667},{"idState":"858808","name":"\u015eold\u0103ne\u015fti","idCountry":"617790","latitude":47.83333,"longitude":28.66667},{"idState":"858889","name":"Unitatea Teritorial\u0103 din St\u00eenga Nistrului","idCountry":"617790","latitude":47.36667,"longitude":29.25},{"idState":"858895","name":"G\u0103g\u0103uzia","idCountry":"617790","latitude":46.16667,"longitude":28.66667},{"idState":"861487","name":"Municipiul Bender","idCountry":"617790","latitude":46.83333,"longitude":29.45},{"idState":"862467","name":"Bart\u0131n","idCountry":"298795","latitude":41.58333,"longitude":32.5},{"idState":"862468","name":"Karab\u00fck","idCountry":"298795","latitude":41.25,"longitude":32.5},{"idState":"862469","name":"Yalova","idCountry":"298795","latitude":40.58333,"longitude":29.16667},{"idState":"862470","name":"Ardahan","idCountry":"298795","latitude":41.08333,"longitude":42.83333},{"idState":"862471","name":"Bayburt","idCountry":"298795","latitude":40.25,"longitude":40.25},{"idState":"862938","name":"Op\u0161tina Peh\u010devo","idCountry":"718075","latitude":41.78333,"longitude":22.91667},{"idState":"862945","name":"Novo Selo","idCountry":"718075","latitude":41.41667,"longitude":22.9},{"idState":"862946","name":"Bosilovo","idCountry":"718075","latitude":41.46667,"longitude":22.78333},{"idState":"862947","name":"Vasilevo","idCountry":"718075","latitude":41.53333,"longitude":22.66667},{"idState":"862949","name":"Op\u0161tina Dojran","idCountry":"718075","latitude":41.23333,"longitude":22.7},{"idState":"862950","name":"Bogdanci","idCountry":"718075","latitude":41.2,"longitude":22.6},{"idState":"862953","name":"Op\u0161tina Kon\u010de","idCountry":"718075","latitude":41.53333,"longitude":22.4},{"idState":"862956","name":"Makedonska Kamenica","idCountry":"718075","latitude":42.05,"longitude":22.58333},{"idState":"862958","name":"Zrnovci","idCountry":"718075","latitude":41.83333,"longitude":22.45},{"idState":"862960","name":"Karbinci","idCountry":"718075","latitude":41.8,"longitude":22.28333},{"idState":"862961","name":"Demir Kapija","idCountry":"718075","latitude":41.38333,"longitude":22.25},{"idState":"862973","name":"Rosoman","idCountry":"718075","latitude":41.51,"longitude":21.92},{"idState":"862974","name":"Gradsko","idCountry":"718075","latitude":41.6,"longitude":21.91667},{"idState":"862975","name":"Lozovo","idCountry":"718075","latitude":41.75,"longitude":21.93333},{"idState":"862977","name":"\u010ce\u0161inovo-Oble\u0161evo","idCountry":"718075","latitude":41.9,"longitude":22.26667},{"idState":"863468","name":"Novaci","idCountry":"718075","latitude":41.01944,"longitude":21.6675},{"idState":"863485","name":"Berovo","idCountry":"718075","latitude":41.7097,"longitude":22.84796},{"idState":"863486","name":"Bitola","idCountry":"718075","latitude":41.01667,"longitude":21.31667},{"idState":"863488","name":"Mogila","idCountry":"718075","latitude":41.15806,"longitude":21.43556},{"idState":"863831","name":"Op\u0161tina Ara\u010dinovo","idCountry":"718075","latitude":42.05,"longitude":21.58333},{"idState":"863834","name":"Bogovinje","idCountry":"718075","latitude":41.95028,"longitude":20.88222},{"idState":"863835","name":"Brvenica","idCountry":"718075","latitude":41.88333,"longitude":21.03333},{"idState":"863836","name":"\u010cair","idCountry":"718075","latitude":42.07917,"longitude":21.44389},{"idState":"863838","name":"Op\u0161tina \u010ca\u0161ka","idCountry":"718075","latitude":41.59833,"longitude":21.59028},{"idState":"863840","name":"Op\u0161tina Centar","idCountry":"718075","latitude":42.005,"longitude":21.42889},{"idState":"863841","name":"Op\u0161tina Centar \u017dupa","idCountry":"718075","latitude":41.46667,"longitude":20.58333},{"idState":"863842","name":"Op\u0161tina \u010cu\u010der-Sandevo","idCountry":"718075","latitude":42.16667,"longitude":21.41667},{"idState":"863843","name":"Debar","idCountry":"718075","latitude":41.5325,"longitude":20.58444},{"idState":"863844","name":"Op\u0161tina Del\u010devo","idCountry":"718075","latitude":41.93333,"longitude":22.76667},{"idState":"863846","name":"Demir Hisar","idCountry":"718075","latitude":41.28083,"longitude":21.14389},{"idState":"863849","name":"Dolneni","idCountry":"718075","latitude":41.48333,"longitude":21.43333},{"idState":"863850","name":"Opstina Gjorce Petrov","idCountry":"718075","latitude":42.06086,"longitude":21.31927},{"idState":"863851","name":"Drugovo","idCountry":"718075","latitude":41.46667,"longitude":20.91667},{"idState":"863853","name":"Gazi Baba","idCountry":"718075","latitude":42.05,"longitude":21.51667},{"idState":"863854","name":"Gevgelija","idCountry":"718075","latitude":41.2,"longitude":22.4},{"idState":"863855","name":"Gostivar","idCountry":"718075","latitude":41.79306,"longitude":20.83222},{"idState":"863856","name":"Ilinden","idCountry":"718075","latitude":42,"longitude":21.63333},{"idState":"863858","name":"Jegunovce","idCountry":"718075","latitude":42.11306,"longitude":21.14528},{"idState":"863860","name":"Op\u0161tina Karpo\u0161","idCountry":"718075","latitude":42,"longitude":21.38333},{"idState":"863861","name":"Kavadarci","idCountry":"718075","latitude":41.285,"longitude":22.00139},{"idState":"863862","name":"Op\u0161tina Ki\u010devo","idCountry":"718075","latitude":41.51667,"longitude":20.95},{"idState":"863863","name":"Kisela Voda","idCountry":"718075","latitude":41.95,"longitude":21.51667},{"idState":"863865","name":"Op\u0161tina Ko\u010dani","idCountry":"718075","latitude":41.98333,"longitude":22.4},{"idState":"863869","name":"Kriva Palanka","idCountry":"718075","latitude":42.25,"longitude":22.33333},{"idState":"863870","name":"Op\u0161tina Krivoga\u0161tani","idCountry":"718075","latitude":41.33333,"longitude":21.36667},{"idState":"863871","name":"Op\u0161tina Kru\u0161evo","idCountry":"718075","latitude":41.36667,"longitude":21.26667},{"idState":"863873","name":"Kumanovo","idCountry":"718075","latitude":42.08944,"longitude":21.77278},{"idState":"863875","name":"Op\u0161tina Lipkovo","idCountry":"718075","latitude":42.16667,"longitude":21.6},{"idState":"863877","name":"Makedonski Brod","idCountry":"718075","latitude":41.65556,"longitude":21.23333},{"idState":"863881","name":"Negotino","idCountry":"718075","latitude":41.51667,"longitude":22.15},{"idState":"863883","name":"Ohrid","idCountry":"718075","latitude":41.13083,"longitude":20.87028},{"idState":"863885","name":"Oslomej","idCountry":"718075","latitude":41.6,"longitude":21.05},{"idState":"863886","name":"Petrovec","idCountry":"718075","latitude":41.91667,"longitude":21.71667},{"idState":"863887","name":"Plasnica","idCountry":"718075","latitude":41.45,"longitude":21.11667},{"idState":"863888","name":"Prilep","idCountry":"718075","latitude":41.28778,"longitude":21.67583},{"idState":"863889","name":"Op\u0161tina Probi\u0161tip","idCountry":"718075","latitude":41.96667,"longitude":22.15},{"idState":"863890","name":"Op\u0161tina Radovi\u0161","idCountry":"718075","latitude":41.65,"longitude":22.5},{"idState":"863891","name":"Op\u0161tina Rankovce","idCountry":"718075","latitude":42.21667,"longitude":22.15},{"idState":"863892","name":"Op\u0161tina Mavrovo i Rostu\u0161a","idCountry":"718075","latitude":41.65778,"longitude":20.68389},{"idState":"863894","name":"Saraj","idCountry":"718075","latitude":41.98333,"longitude":21.26667},{"idState":"863896","name":"Op\u0161tina Sopi\u0161te","idCountry":"718075","latitude":41.89,"longitude":21.32},{"idState":"863899","name":"Op\u0161tina Staro Nagori\u010dane","idCountry":"718075","latitude":42.23333,"longitude":21.93333},{"idState":"863900","name":"Op\u0161tina \u0160tip","idCountry":"718075","latitude":41.7,"longitude":22.2},{"idState":"863901","name":"Struga","idCountry":"718075","latitude":41.28139,"longitude":20.63361},{"idState":"863902","name":"Strumica","idCountry":"718075","latitude":41.41111,"longitude":22.64639},{"idState":"863903","name":"Op\u0161tina Studeni\u010dani","idCountry":"718075","latitude":41.83333,"longitude":21.43333},{"idState":"863904","name":"\u0160uto Orizari","idCountry":"718075","latitude":42.05,"longitude":21.41667},{"idState":"863905","name":"Sveti Nikole","idCountry":"718075","latitude":41.9,"longitude":21.98333},{"idState":"863906","name":"Tearce","idCountry":"718075","latitude":42.1,"longitude":21.05},{"idState":"863907","name":"Tetovo","idCountry":"718075","latitude":42.04444,"longitude":20.9025},{"idState":"863909","name":"Veles","idCountry":"718075","latitude":41.77583,"longitude":21.76278},{"idState":"863911","name":"Op\u0161tina Vev\u010dani","idCountry":"718075","latitude":41.23333,"longitude":20.58333},{"idState":"863912","name":"Vinica","idCountry":"718075","latitude":41.85917,"longitude":22.58417},{"idState":"863913","name":"Op\u0161tina Vrane\u0161tica","idCountry":"718075","latitude":41.5,"longitude":21.05},{"idState":"863914","name":"Op\u0161tina Vrap\u010di\u0161te","idCountry":"718075","latitude":41.85,"longitude":20.85},{"idState":"863917","name":"Zajas","idCountry":"718075","latitude":41.6,"longitude":20.9},{"idState":"863918","name":"Zelenikovo","idCountry":"718075","latitude":41.83333,"longitude":21.58333},{"idState":"863919","name":"Op\u0161tina \u017delino","idCountry":"718075","latitude":41.93333,"longitude":21.13333},{"idState":"864389","name":"Alytus County","idCountry":"597427","latitude":54.16667,"longitude":24.16667},{"idState":"864477","name":"Kaunas County","idCountry":"597427","latitude":55.16667,"longitude":24},{"idState":"864478","name":"Klaip\u0117da County","idCountry":"597427","latitude":55.66667,"longitude":21.33333},{"idState":"864479","name":"Marijampol\u0117 County","idCountry":"597427","latitude":54.75,"longitude":23.25},{"idState":"864480","name":"Panev\u0117\u017eys","idCountry":"597427","latitude":55.91667,"longitude":24.83333},{"idState":"864481","name":"\u0160iauliai County","idCountry":"597427","latitude":56,"longitude":23.33333},{"idState":"864482","name":"Taurag\u0117 County","idCountry":"597427","latitude":55.33333,"longitude":22.5},{"idState":"864483","name":"Tel\u0161i\u0173 apskritis","idCountry":"597427","latitude":56.08333,"longitude":22.16667},{"idState":"864484","name":"Utena County","idCountry":"597427","latitude":55.5,"longitude":25.75},{"idState":"864485","name":"Vilniaus apskritis","idCountry":"597427","latitude":54.83333,"longitude":25.33333},{"idState":"864552","name":"Gabrovo","idCountry":"732800","latitude":42.95,"longitude":25.25},{"idState":"864553","name":"Oblast Kardzhali","idCountry":"732800","latitude":41.53333,"longitude":25.43333},{"idState":"864554","name":"Oblast Kyustendil","idCountry":"732800","latitude":42.25,"longitude":22.9},{"idState":"864555","name":"Oblast Shumen","idCountry":"732800","latitude":43.33333,"longitude":27},{"idState":"864556","name":"Oblast Silistra","idCountry":"732800","latitude":43.93333,"longitude":27.05},{"idState":"864557","name":"Oblast Sliven","idCountry":"732800","latitude":42.66667,"longitude":26.28333},{"idState":"864558","name":"Oblast Smolyan","idCountry":"732800","latitude":41.61667,"longitude":24.65},{"idState":"864559","name":"Oblast Stara Zagora","idCountry":"732800","latitude":42.45,"longitude":25.56667},{"idState":"864560","name":"Oblast Targovishte","idCountry":"732800","latitude":43.26667,"longitude":26.38333},{"idState":"864561","name":"Oblast Veliko Tarnovo","idCountry":"732800","latitude":43.23333,"longitude":25.65},{"idState":"864562","name":"Oblast Vidin","idCountry":"732800","latitude":43.81667,"longitude":22.71667},{"idState":"864563","name":"Oblast Yambol","idCountry":"732800","latitude":42.33333,"longitude":26.63333},{"idState":"865084","name":"Kosice","idCountry":"3057568","latitude":48.66667,"longitude":21.33333},{"idState":"865085","name":"Presov","idCountry":"3057568","latitude":49.16667,"longitude":21.25},{"idState":"865518","name":"Ilfov","idCountry":"798549","latitude":44.58333,"longitude":26.16667},{"idState":"865521","name":"D\u00fczce","idCountry":"298795","latitude":40.83333,"longitude":31.16667},{"idState":"865536","name":"Kvemo Kartli","idCountry":"614540","latitude":41.51667,"longitude":44.51667},{"idState":"865537","name":"Kakheti","idCountry":"614540","latitude":41.75,"longitude":45.71667},{"idState":"865538","name":"Guria","idCountry":"614540","latitude":41.96667,"longitude":42.2},{"idState":"865539","name":"Imereti","idCountry":"614540","latitude":42.16667,"longitude":42.98333},{"idState":"865540","name":"Shida Kartli","idCountry":"614540","latitude":42.32,"longitude":44.14},{"idState":"865541","name":"Mtskheta-Mtianeti","idCountry":"614540","latitude":42.28333,"longitude":44.75},{"idState":"865542","name":"Racha-Lechkhumi and Kvemo Svaneti","idCountry":"614540","latitude":42.63333,"longitude":43.13333},{"idState":"865543","name":"Samegrelo-Zemo Svanetis Mkhare","idCountry":"614540","latitude":42.70076,"longitude":42.21496},{"idState":"865544","name":"Samtskhe-Javakheti","idCountry":"614540","latitude":41.58333,"longitude":43.26667},{"idState":"865730","name":"Qarku i Beratit","idCountry":"783754","latitude":40.63333,"longitude":20.08333},{"idState":"865731","name":"Qarku i Dibr\u00ebs","idCountry":"783754","latitude":41.6,"longitude":20.23333},{"idState":"865732","name":"Qarku i Elbasanit","idCountry":"783754","latitude":41.06667,"longitude":20.2},{"idState":"865733","name":"Qarku i Gjirokastr\u00ebs","idCountry":"783754","latitude":40.21667,"longitude":20.2},{"idState":"865734","name":"Qarku i Kor\u00e7\u00ebs","idCountry":"783754","latitude":40.61667,"longitude":20.66667},{"idState":"865735","name":"Qarku i Kuk\u00ebsit","idCountry":"783754","latitude":42.2,"longitude":20.36667},{"idState":"873909","name":"Municipiul B\u0103l\u0163i","idCountry":"617790","latitude":47.78333,"longitude":27.91667},{"idState":"875996","name":"Moxico","idCountry":"3351879","latitude":-12.84869,"longitude":20.93266},{"idState":"876337","name":"Kuando Kubango","idCountry":"3351879","latitude":-15.94761,"longitude":19.3832},{"idState":"877416","name":"Ruvuma Region","idCountry":"149590","latitude":-10.7,"longitude":36.23333},{"idState":"877744","name":"Mtwara Region","idCountry":"149590","latitude":-10.8,"longitude":39.13333},{"idState":"886119","name":"Midlands Province","idCountry":"878675","latitude":-19.2,"longitude":29.8},{"idState":"886747","name":"Matabeleland South Province","idCountry":"878675","latitude":-20.9,"longitude":28.8},{"idState":"886748","name":"Matabeleland North Province","idCountry":"878675","latitude":-18.83333,"longitude":27.41667},{"idState":"886761","name":"Masvingo Province","idCountry":"878675","latitude":-20.6,"longitude":31.4},{"idState":"886841","name":"Mashonaland West Province","idCountry":"878675","latitude":-17.16667,"longitude":29.75},{"idState":"886842","name":"Mashonaland East Province","idCountry":"878675","latitude":-17.96667,"longitude":31.66667},{"idState":"886843","name":"Mashonaland Central Province","idCountry":"878675","latitude":-16.7,"longitude":31.2},