{"success":true,"remaining_lookups":9214,"0":{"id":"9165838","label":"Batumi","value":"9165838","lat":41.6224399999999974397724145092070102691650390625,"lon":41.644620000000003301465767435729503631591796875,"poi_name":"Batumi","parent_id":"615929","long":41.644620000000003301465767435729503631591796875},"1":{"id":"9093838","label":"Kedis Munitsip\u2019alit\u2019et\u2019i","value":"9093838","lat":41.65874000000000165755409398116171360015869140625,"lon":41.97046999999999883357304497621953487396240234375,"poi_name":"Kedis Munitsip\u2019alit\u2019et\u2019i","parent_id":"615929","long":41.97046999999999883357304497621953487396240234375},"2":{"id":"613970","label":"Khelvachauri Municipality","value":"613970","lat":41.58332999999999657347871107049286365509033203125,"lon":41.66667000000000342652128892950713634490966796875,"poi_name":"Khelvachauri Municipality","parent_id":"615929","long":41.66667000000000342652128892950713634490966796875},"3":{"id":"9093934","label":"Kobuletis Munitsip\u2019alit\u2019et\u2019i","value":"9093934","lat":41.81219999999999714646037318743765354156494140625,"lon":41.8978299999999990177457220852375030517578125,"poi_name":"Kobuletis Munitsip\u2019alit\u2019et\u2019i","parent_id":"615929","long":41.8978299999999990177457220852375030517578125},"4":{"id":"613761","label":"K\u2019obulet\u2019is Raioni","value":"613761","lat":41.75,"lon":41.83332999999999657347871107049286365509033203125,"poi_name":"K\u2019obulet\u2019is Raioni","parent_id":"615929","long":41.83332999999999657347871107049286365509033203125}}