{"success":true,"remaining_lookups":7483,"0":{"id":"8628957","label":"Lacluta","value":"8628957","lat":-8.800000000000000710542735760100185871124267578125,"lon":126.1333300000000008367351256310939788818359375,"poi_name":"Lacluta","parent_id":"1622470","long":126.1333300000000008367351256310939788818359375},"1":{"id":"8618034","label":"Ossu","value":"8618034","lat":-8.7347699999999992570565154892392456531524658203125,"lon":126.3832400000000006912159733474254608154296875,"poi_name":"Ossu","parent_id":"1622470","long":126.3832400000000006912159733474254608154296875},"2":{"id":"8629273","label":"Uatocarabau","value":"8629273","lat":-8.7565799999999995861799106933176517486572265625,"lon":126.680599999999998317434801720082759857177734375,"poi_name":"Uatocarabau","parent_id":"1622470","long":126.680599999999998317434801720082759857177734375},"3":{"id":"8629272","label":"Uatolari","value":"8629272","lat":-8.762769999999999726014721090905368328094482421875,"lon":126.5735300000000052023096941411495208740234375,"poi_name":"Uatolari","parent_id":"1622470","long":126.5735300000000052023096941411495208740234375},"4":{"id":"8629271","label":"Viqueque","value":"8629271","lat":-8.8590800000000005098854671814478933811187744140625,"lon":126.369720000000000936779542826116085052490234375,"poi_name":"Viqueque","parent_id":"1622470","long":126.369720000000000936779542826116085052490234375}}