{"success":true,"remaining_lookups":7491,"0":{"id":"1944042","label":"Fatululik","value":"1944042","lat":-9.1908300000000000551381162949837744235992431640625,"lon":125.1319400000000001682565198279917240142822265625,"poi_name":"Fatululik","parent_id":"1639462","long":125.1319400000000001682565198279917240142822265625},"1":{"id":"8628962","label":"Fatumean","value":"8628962","lat":-9.229169999999999873807610129006206989288330078125,"lon":125.035830000000004247340257279574871063232421875,"poi_name":"Fatumean","parent_id":"1639462","long":125.035830000000004247340257279574871063232421875},"2":{"id":"8630092","label":"Fohorem","value":"8630092","lat":-9.283609999999999473629941348917782306671142578125,"lon":125.089439999999996189217199571430683135986328125,"poi_name":"Fohorem","parent_id":"1639462","long":125.089439999999996189217199571430683135986328125},"3":{"id":"8629258","label":"Maucatar","value":"8629258","lat":-9.2177199999999999135980033315718173980712890625,"lon":125.2298100000000005138645065017044544219970703125,"poi_name":"Maucatar","parent_id":"1639462","long":125.2298100000000005138645065017044544219970703125},"4":{"id":"8628955","label":"Suai","value":"8628955","lat":-9.300000000000000710542735760100185871124267578125,"lon":125.25,"poi_name":"Suai","parent_id":"1639462","long":125.25},"5":{"id":"8629259","label":"Tilomar","value":"8629259","lat":-9.3418200000000002347633198951371014118194580078125,"lon":125.108869999999996025508153252303600311279296875,"poi_name":"Tilomar","parent_id":"1639462","long":125.108869999999996025508153252303600311279296875},"6":{"id":"8617824","label":"Zumalai","value":"8617824","lat":-9.1575000000000006394884621840901672840118408203125,"lon":125.450559999999995852704159915447235107421875,"poi_name":"Zumalai","parent_id":"1639462","long":125.450559999999995852704159915447235107421875}}