{"success":true,"remaining_lookups":7489,"0":{"id":"8617853","label":"Atsabe","value":"8617853","lat":-8.9305800000000008509459803462959825992584228515625,"lon":125.3967999999999989313437254168093204498291015625,"poi_name":"Atsabe","parent_id":"1644865","long":125.3967999999999989313437254168093204498291015625},"1":{"id":"8617931","label":"Ermera Villa","value":"8617931","lat":-8.7522199999999994446397977299056947231292724609375,"lon":125.396940000000000736690708436071872711181640625,"poi_name":"Ermera Villa","parent_id":"1644865","long":125.396940000000000736690708436071872711181640625},"2":{"id":"8629076","label":"Hatulia","value":"8629076","lat":-8.8166700000000002290789780090562999248504638671875,"lon":125.3166700000000020054358174093067646026611328125,"poi_name":"Hatulia","parent_id":"1644865","long":125.3166700000000020054358174093067646026611328125},"3":{"id":"8628960","label":"Letefoho","value":"8628960","lat":-8.834440000000000736690708436071872711181640625,"lon":125.426389999999997826307662762701511383056640625,"poi_name":"Letefoho","parent_id":"1644865","long":125.426389999999997826307662762701511383056640625},"4":{"id":"8617920","label":"Railaco","value":"8617920","lat":-8.672370000000000800355337560176849365234375,"lon":125.4254600000000010595613275654613971710205078125,"poi_name":"Railaco","parent_id":"1644865","long":125.4254600000000010595613275654613971710205078125}}