{"success":true,"remaining_lookups":7493,"0":{"id":"8617910","label":"Baguia","value":"8617910","lat":-8.6278699999999997061195244896225631237030029296875,"lon":126.657430000000005065885488875210285186767578125,"poi_name":"Baguia","parent_id":"1649538","long":126.657430000000005065885488875210285186767578125},"1":{"id":"8617908","label":"Baucau","value":"8617908","lat":-8.46667000000000058435034588910639286041259765625,"lon":126.4500000000000028421709430404007434844970703125,"poi_name":"Baucau","parent_id":"1649538","long":126.4500000000000028421709430404007434844970703125},"2":{"id":"8617911","label":"Laga","value":"8617911","lat":-8.474109999999999587316779070533812046051025390625,"lon":126.5922800000000023601387511007487773895263671875,"poi_name":"Laga","parent_id":"1649538","long":126.5922800000000023601387511007487773895263671875},"3":{"id":"8617912","label":"Quelicai","value":"8617912","lat":-8.601350000000000051159076974727213382720947265625,"lon":126.5590399999999959845808916725218296051025390625,"poi_name":"Quelicai","parent_id":"1649538","long":126.5590399999999959845808916725218296051025390625},"4":{"id":"8617914","label":"Vemasse","value":"8617914","lat":-8.5103600000000003689137884066440165042877197265625,"lon":126.2082300000000003592504072003066539764404296875,"poi_name":"Vemasse","parent_id":"1649538","long":126.2082300000000003592504072003066539764404296875},"5":{"id":"8617918","label":"Venilale","value":"8617918","lat":-8.58238000000000056388671509921550750732421875,"lon":126.3786099999999947840478853322565555572509765625,"poi_name":"Venilale","parent_id":"1649538","long":126.3786099999999947840478853322565555572509765625}}