{"success":true,"remaining_lookups":7869,"0":{"id":"7688803","label":"Bugesera District","value":"7688803","lat":-2.2345600000000001017497197608463466167449951171875,"lon":30.148250000000000881072992342524230480194091796875,"poi_name":"Bugesera District","parent_id":"6413337","long":30.148250000000000881072992342524230480194091796875},"1":{"id":"7688800","label":"Gatsibo District","value":"7688800","lat":-1.59184999999999998721023075631819665431976318359375,"lon":30.455349999999999255351212923415005207061767578125,"poi_name":"Gatsibo District","parent_id":"6413337","long":30.455349999999999255351212923415005207061767578125},"2":{"id":"7688801","label":"Kayonza District","value":"7688801","lat":-1.851010000000000044195758164278231561183929443359375,"lon":30.651019999999999043893694761209189891815185546875,"poi_name":"Kayonza District","parent_id":"6413337","long":30.651019999999999043893694761209189891815185546875},"3":{"id":"7688805","label":"Kirehe District","value":"7688805","lat":-2.25659000000000009578116078046150505542755126953125,"lon":30.726169999999999760120772407390177249908447265625,"poi_name":"Kirehe District","parent_id":"6413337","long":30.726169999999999760120772407390177249908447265625},"4":{"id":"7688804","label":"Ngoma District","value":"7688804","lat":-2.18531999999999992922994351829402148723602294921875,"lon":30.469609999999999416786522488109767436981201171875,"poi_name":"Ngoma District","parent_id":"6413337","long":30.469609999999999416786522488109767436981201171875},"5":{"id":"7688799","label":"Nyagatare District","value":"7688799","lat":-1.314550000000000107291953099775128066539764404296875,"lon":30.372420000000001749640432535670697689056396484375,"poi_name":"Nyagatare District","parent_id":"6413337","long":30.372420000000001749640432535670697689056396484375},"6":{"id":"7688802","label":"Rwamagana District","value":"7688802","lat":-1.97280999999999995253574525122530758380889892578125,"lon":30.354279999999999262172423186711966991424560546875,"poi_name":"Rwamagana District","parent_id":"6413337","long":30.354279999999999262172423186711966991424560546875}}