{"success":true,"remaining_lookups":8802,"0":{"id":"1526967","label":"Abay A\u016bdany","value":"1526967","lat":49,"lon":79.25,"poi_name":"Abay A\u016bdany","parent_id":"1517381","long":79.25},"1":{"id":"1537309","label":"Abyraly A\u016bdany","value":"1537309","lat":49.33332999999999657347871107049286365509033203125,"lon":78,"poi_name":"Abyraly A\u016bdany","parent_id":"1517381","long":78},"2":{"id":"1526637","label":"Aqs\u016bat A\u016bdany","value":"1526637","lat":47.83332999999999657347871107049286365509033203125,"lon":82.5,"poi_name":"Aqs\u016bat A\u016bdany","parent_id":"1517381","long":82.5},"3":{"id":"1525986","label":"Ayak\u00f6z Qalasy","value":"1525986","lat":47.9333299999999979945641825906932353973388671875,"lon":80.3833300000000008367351256310939788818359375,"poi_name":"Ayak\u00f6z Qalasy","parent_id":"1517381","long":80.3833300000000008367351256310939788818359375},"4":{"id":"1525406","label":"Besqaraghay A\u016bdany","value":"1525406","lat":51,"lon":79.25,"poi_name":"Besqaraghay A\u016bdany","parent_id":"1517381","long":79.25},"5":{"id":"1525133","label":"Borod\u016bl\u012bkha A\u016bdany","value":"1525133","lat":50.83332999999999657347871107049286365509033203125,"lon":80.75,"poi_name":"Borod\u016bl\u012bkha A\u016bdany","parent_id":"1517381","long":80.75},"6":{"id":"1524226","label":"Gl\u016bbokoe A\u016bdany","value":"1524226","lat":50.33332999999999657347871107049286365509033203125,"lon":83,"poi_name":"Gl\u016bbokoe A\u016bdany","parent_id":"1517381","long":83},"7":{"id":"1522504","label":"K\u00f6kpekti A\u016bdany","value":"1522504","lat":48.5,"lon":82.75,"poi_name":"K\u00f6kpekti A\u016bdany","parent_id":"1517381","long":82.75},"8":{"id":"1521759","label":"K\u00fcrshim A\u016bdany","value":"1521759","lat":48.66667000000000342652128892950713634490966796875,"lon":84.25,"poi_name":"K\u00fcrshim A\u016bdany","parent_id":"1517381","long":84.25},"9":{"id":"1537288","label":"Len\u012bnogorsk Qalasy","value":"1537288","lat":50.3666699999999991632648743689060211181640625,"lon":83.533330000000006521077011711895465850830078125,"poi_name":"Len\u012bnogorsk Qalasy","parent_id":"1517381","long":83.533330000000006521077011711895465850830078125},"10":{"id":"1521244","label":"Maqanshy A\u016bdany","value":"1521244","lat":46.75,"lon":82.25,"poi_name":"Maqanshy A\u016bdany","parent_id":"1517381","long":82.25},"11":{"id":"1521109","label":"Marqak\u00f6l A\u016bdany","value":"1521109","lat":48.5,"lon":85.5,"poi_name":"Marqak\u00f6l A\u016bdany","parent_id":"1517381","long":85.5},"12":{"id":"1520548","label":"Novosh\u016bl\u2019ba A\u016bdany","value":"1520548","lat":50.5499999999999971578290569595992565155029296875,"lon":81.3333300000000036789060686714947223663330078125,"poi_name":"Novosh\u016bl\u2019ba A\u016bdany","parent_id":"1517381","long":81.3333300000000036789060686714947223663330078125},"13":{"id":"1522926","label":"Qotanqaraghay A\u016bdany","value":"1522926","lat":49.16667000000000342652128892950713634490966796875,"lon":86,"poi_name":"Qotanqaraghay A\u016bdany","parent_id":"1517381","long":86},"14":{"id":"1519757","label":"Samarskoe A\u016bdany","value":"1519757","lat":49.16667000000000342652128892950713634490966796875,"lon":83.5,"poi_name":"Samarskoe A\u016bdany","parent_id":"1517381","long":83.5},"15":{"id":"1537285","label":"Semey Qalasy","value":"1537285","lat":50.46667000000000058435034588910639286041259765625,"lon":80.216669999999993478922988288104534149169921875,"poi_name":"Semey Qalasy","parent_id":"1517381","long":80.216669999999993478922988288104534149169921875},"16":{"id":"1537289","label":"Serebryansk Qalasy","value":"1537289","lat":49.83332999999999657347871107049286365509033203125,"lon":83.5,"poi_name":"Serebryansk Qalasy","parent_id":"1517381","long":83.5},"17":{"id":"1524882","label":"Shar A\u016bdany","value":"1524882","lat":49.5,"lon":81,"poi_name":"Shar A\u016bdany","parent_id":"1517381","long":81},"18":{"id":"1519224","label":"Shemona\u012bkha A\u016bdany","value":"1519224","lat":50.66667000000000342652128892950713634490966796875,"lon":82.25,"poi_name":"Shemona\u012bkha A\u016bdany","parent_id":"1517381","long":82.25},"19":{"id":"1524717","label":"Shubarta\u016b A\u016bdany","value":"1524717","lat":47.83332999999999657347871107049286365509033203125,"lon":78.25,"poi_name":"Shubarta\u016b A\u016bdany","parent_id":"1517381","long":78.25},"20":{"id":"1518456","label":"Tarbaghatay A\u016bdany","value":"1518456","lat":47.5,"lon":83.75,"poi_name":"Tarbaghatay A\u016bdany","parent_id":"1517381","long":83.75},"21":{"id":"1518415","label":"Taskesken A\u016bdany","value":"1518415","lat":47.16667000000000342652128892950713634490966796875,"lon":80.5,"poi_name":"Taskesken A\u016bdany","parent_id":"1517381","long":80.5},"22":{"id":"1518334","label":"Tavr\u012bya A\u016bdany","value":"1518334","lat":50,"lon":82,"poi_name":"Tavr\u012bya A\u016bdany","parent_id":"1517381","long":82},"23":{"id":"1517810","label":"Ulan A\u016bdany","value":"1517810","lat":49.58332999999999657347871107049286365509033203125,"lon":82.75,"poi_name":"Ulan A\u016bdany","parent_id":"1517381","long":82.75},"24":{"id":"1517057","label":"Zaysan A\u016bdany","value":"1517057","lat":47.5,"lon":85,"poi_name":"Zaysan A\u016bdany","parent_id":"1517381","long":85},"25":{"id":"1516846","label":"Zhangasemey A\u016bdany","value":"1516846","lat":50.16667000000000342652128892950713634490966796875,"lon":79.75,"poi_name":"Zhangasemey A\u016bdany","parent_id":"1517381","long":79.75},"26":{"id":"1516713","label":"Zharma A\u016bdany","value":"1516713","lat":48.83332999999999657347871107049286365509033203125,"lon":81.25,"poi_name":"Zharma A\u016bdany","parent_id":"1517381","long":81.25},"27":{"id":"1516437","label":"Zyryanovsk A\u016bdany","value":"1516437","lat":49.83332999999999657347871107049286365509033203125,"lon":84.5,"poi_name":"Zyryanovsk A\u016bdany","parent_id":"1517381","long":84.5},"28":{"id":"1537287","label":"Zyryanovsk Qalasy","value":"1537287","lat":49.725560000000001537046045996248722076416015625,"lon":84.274439999999998462953954003751277923583984375,"poi_name":"Zyryanovsk Qalasy","parent_id":"1517381","long":84.274439999999998462953954003751277923583984375},"29":{"id":"1537286","label":"\u00d6skemen Qalasy","value":"1537286","lat":49.96667000000000058435034588910639286041259765625,"lon":82.6666699999999963210939313285052776336669921875,"poi_name":"\u00d6skemen Qalasy","parent_id":"1517381","long":82.6666699999999963210939313285052776336669921875},"30":{"id":"1525198","label":"\u00dclkennaryn A\u016bdany","value":"1525198","lat":49.25,"lon":84.5,"poi_name":"\u00dclkennaryn A\u016bdany","parent_id":"1517381","long":84.5},"31":{"id":"1517718","label":"\u00dcrzhar A\u016bdany","value":"1517718","lat":47.08332999999999657347871107049286365509033203125,"lon":81.6333300000000008367351256310939788818359375,"poi_name":"\u00dcrzhar A\u016bdany","parent_id":"1517381","long":81.6333300000000008367351256310939788818359375}}