{"success":true,"remaining_lookups":8804,"0":{"id":"1526436","label":"Aqk\u00f6l A\u016bdany","value":"1526436","lat":52.16667000000000342652128892950713634490966796875,"lon":71.25,"poi_name":"Aqk\u00f6l A\u016bdany","parent_id":"1518003","long":71.25},"1":{"id":"1517439","label":"Arshaly A\u016bdany","value":"1517439","lat":51,"lon":72.25,"poi_name":"Arshaly A\u016bdany","parent_id":"1518003","long":72.25},"2":{"id":"1526056","label":"Astrakhan A\u016bdany","value":"1526056","lat":51.5,"lon":69.5,"poi_name":"Astrakhan A\u016bdany","parent_id":"1518003","long":69.5},"3":{"id":"1526033","label":"Atbasar A\u016bdany","value":"1526033","lat":51.5,"lon":68.75,"poi_name":"Atbasar A\u016bdany","parent_id":"1518003","long":68.75},"4":{"id":"1537264","label":"Atbasar Qalasy","value":"1537264","lat":51.7999999999999971578290569595992565155029296875,"lon":68.3333300000000036789060686714947223663330078125,"poi_name":"Atbasar Qalasy","parent_id":"1518003","long":68.3333300000000036789060686714947223663330078125},"5":{"id":"1521227","label":"Bulandy A\u016bdany","value":"1521227","lat":52.16667000000000342652128892950713634490966796875,"lon":70,"poi_name":"Bulandy A\u016bdany","parent_id":"1518003","long":70},"6":{"id":"1521995","label":"Egindik\u00f6l A\u016bdany","value":"1521995","lat":51,"lon":69.5,"poi_name":"Egindik\u00f6l A\u016bdany","parent_id":"1518003","long":69.5},"7":{"id":"1517189","label":"Ereymenta\u016b A\u016bdany","value":"1517189","lat":51.5,"lon":73.25,"poi_name":"Ereymenta\u016b A\u016bdany","parent_id":"1518003","long":73.25},"8":{"id":"1517166","label":"Esil A\u016bdany","value":"1517166","lat":52,"lon":66.5,"poi_name":"Esil A\u016bdany","parent_id":"1518003","long":66.5},"9":{"id":"1537261","label":"K\u00f6ksheta\u016b Qalasy","value":"1537261","lat":53.27777999999999991587174008600413799285888671875,"lon":69.38889000000000351064954884350299835205078125,"poi_name":"K\u00f6ksheta\u016b Qalasy","parent_id":"1518003","long":69.38889000000000351064954884350299835205078125},"10":{"id":"1521748","label":"Qorghalzhyn A\u016bdany","value":"1521748","lat":50.58332999999999657347871107049286365509033203125,"lon":70,"poi_name":"Qorghalzhyn A\u016bdany","parent_id":"1518003","long":70},"11":{"id":"1522599","label":"Q\u012bma A\u016bdany","value":"1522599","lat":51.41667000000000342652128892950713634490966796875,"lon":67.4166699999999963210939313285052776336669921875,"poi_name":"Q\u012bma A\u016bdany","parent_id":"1518003","long":67.4166699999999963210939313285052776336669921875},"12":{"id":"1525806","label":"Sandyqta\u016b A\u016bdany","value":"1525806","lat":52.5,"lon":68.75,"poi_name":"Sandyqta\u016b A\u016bdany","parent_id":"1518003","long":68.75},"13":{"id":"1519241","label":"Shch\u016bch\u012bnsk A\u016bdany","value":"1519241","lat":52.91667000000000342652128892950713634490966796875,"lon":70.1666699999999963210939313285052776336669921875,"poi_name":"Shch\u016bch\u012bnsk A\u016bdany","parent_id":"1518003","long":70.1666699999999963210939313285052776336669921875},"14":{"id":"1537262","label":"Shch\u016bch\u012bnsk Qalasy","value":"1537262","lat":52.9333299999999979945641825906932353973388671875,"lon":70.2000000000000028421709430404007434844970703125,"poi_name":"Shch\u016bch\u012bnsk Qalasy","parent_id":"1518003","long":70.2000000000000028421709430404007434844970703125},"15":{"id":"1519052","label":"Shortandy A\u016bdany","value":"1519052","lat":51.66667000000000342652128892950713634490966796875,"lon":71,"poi_name":"Shortandy A\u016bdany","parent_id":"1518003","long":71},"16":{"id":"1519433","label":"Sileti A\u016bdany","value":"1519433","lat":52.16667000000000342652128892950713634490966796875,"lon":72.75,"poi_name":"Sileti A\u016bdany","parent_id":"1518003","long":72.75},"17":{"id":"1537265","label":"Stepnogorsk Qalasy","value":"1537265","lat":52.3622500000000030695446184836328029632568359375,"lon":71.97298000000000683940015733242034912109375,"poi_name":"Stepnogorsk Qalasy","parent_id":"1518003","long":71.97298000000000683940015733242034912109375},"18":{"id":"1518002","label":"Tsel\u012bnograd A\u016bdany","value":"1518002","lat":51.16667000000000342652128892950713634490966796875,"lon":71.25,"poi_name":"Tsel\u012bnograd A\u016bdany","parent_id":"1518003","long":71.25},"19":{"id":"1517044","label":"Zerendi A\u016bdany","value":"1517044","lat":52.91667000000000342652128892950713634490966796875,"lon":69.1666699999999963210939313285052776336669921875,"poi_name":"Zerendi A\u016bdany","parent_id":"1518003","long":69.1666699999999963210939313285052776336669921875},"20":{"id":"1516873","label":"Zhangadala A\u016bdany","value":"1516873","lat":51.16667000000000342652128892950713634490966796875,"lon":67.0833300000000036789060686714947223663330078125,"poi_name":"Zhangadala A\u016bdany","parent_id":"1518003","long":67.0833300000000036789060686714947223663330078125},"21":{"id":"1517012","label":"Zhaqsy A\u016bdany","value":"1517012","lat":52,"lon":67.5,"poi_name":"Zhaqsy A\u016bdany","parent_id":"1518003","long":67.5},"22":{"id":"1524603","label":"Zharqayyng A\u016bdany","value":"1524603","lat":51.16667000000000342652128892950713634490966796875,"lon":66.3333300000000036789060686714947223663330078125,"poi_name":"Zharqayyng A\u016bdany","parent_id":"1518003","long":66.3333300000000036789060686714947223663330078125},"23":{"id":"1524313","label":"\u0116ngbekshilder A\u016bdany","value":"1524313","lat":53,"lon":71,"poi_name":"\u0116ngbekshilder A\u016bdany","parent_id":"1518003","long":71}}