{"success":true,"remaining_lookups":8800,"0":{"id":"1526177","label":"Aryqbalyq A\u016bdany","value":"1526177","lat":52.83332999999999657347871107049286365509033203125,"lon":68.25,"poi_name":"Aryqbalyq A\u016bdany","parent_id":"1519367","long":68.25},"1":{"id":"1517412","label":"Ayyrta\u016b A\u016bdany","value":"1517412","lat":53.33332999999999657347871107049286365509033203125,"lon":68,"poi_name":"Ayyrta\u016b A\u016bdany","parent_id":"1519367","long":68},"2":{"id":"1525293","label":"Besk\u00f6l A\u016bdany","value":"1525293","lat":54.66667000000000342652128892950713634490966796875,"lon":68.75,"poi_name":"Besk\u00f6l A\u016bdany","parent_id":"1519367","long":68.75},"3":{"id":"1525010","label":"B\u016blaevo A\u016bdany","value":"1525010","lat":55,"lon":70.5,"poi_name":"B\u016blaevo A\u016bdany","parent_id":"1519367","long":70.5},"4":{"id":"1524749","label":"Chkalov A\u016bdany","value":"1524749","lat":53.66667000000000342652128892950713634490966796875,"lon":70.5,"poi_name":"Chkalov A\u016bdany","parent_id":"1519367","long":70.5},"5":{"id":"1524766","label":"Ch\u012bstopol\u2019e A\u016bdany","value":"1524766","lat":52.5,"lon":67,"poi_name":"Ch\u012bstopol\u2019e A\u016bdany","parent_id":"1519367","long":67},"6":{"id":"1522808","label":"Kellerovka A\u016bdany","value":"1522808","lat":53.83332999999999657347871107049286365509033203125,"lon":69.25,"poi_name":"Kellerovka A\u016bdany","parent_id":"1519367","long":69.25},"7":{"id":"1522032","label":"Krasnoarmeysk A\u016bdany","value":"1522032","lat":54.00251999999999696910890634171664714813232421875,"lon":70.0008399999999966212271829135715961456298828125,"poi_name":"Krasnoarmeysk A\u016bdany","parent_id":"1519367","long":70.0008399999999966212271829135715961456298828125},"8":{"id":"1522531","label":"K\u00f6ksheta\u016b A\u016bdany","value":"1522531","lat":53.33332999999999657347871107049286365509033203125,"lon":69.3333300000000036789060686714947223663330078125,"poi_name":"K\u00f6ksheta\u016b A\u016bdany","parent_id":"1519367","long":69.3333300000000036789060686714947223663330078125},"9":{"id":"1521634","label":"K\u016bybyshev A\u016bdany","value":"1521634","lat":53,"lon":66.5,"poi_name":"K\u016bybyshev A\u016bdany","parent_id":"1519367","long":66.5},"10":{"id":"1521352","label":"Len\u012bn A\u016bdany","value":"1521352","lat":54.33332999999999657347871107049286365509033203125,"lon":68.25,"poi_name":"Len\u012bn A\u016bdany","parent_id":"1519367","long":68.25},"11":{"id":"1521359","label":"Len\u012bn A\u016bdany","value":"1521359","lat":53.83332999999999657347871107049286365509033203125,"lon":72.1666699999999963210939313285052776336669921875,"poi_name":"Len\u012bn A\u016bdany","parent_id":"1519367","long":72.1666699999999963210939313285052776336669921875},"12":{"id":"1521375","label":"Len\u012bngrad A\u016bdany","value":"1521375","lat":53.83332999999999657347871107049286365509033203125,"lon":71.25,"poi_name":"Len\u012bngrad A\u016bdany","parent_id":"1519367","long":71.25},"13":{"id":"1521151","label":"Mamlyutka A\u016bdany","value":"1521151","lat":54.83332999999999657347871107049286365509033203125,"lon":68.25,"poi_name":"Mamlyutka A\u016bdany","parent_id":"1519367","long":68.25},"14":{"id":"1520854","label":"Moskva A\u016bdany","value":"1520854","lat":54.01666999999999774217940284870564937591552734375,"lon":68.4500000000000028421709430404007434844970703125,"poi_name":"Moskva A\u016bdany","parent_id":"1519367","long":68.4500000000000028421709430404007434844970703125},"15":{"id":"1520047","label":"Presnovka A\u016bdany","value":"1520047","lat":54.66667000000000342652128892950713634490966796875,"lon":67.1666699999999963210939313285052776336669921875,"poi_name":"Presnovka A\u016bdany","parent_id":"1519367","long":67.1666699999999963210939313285052776336669921875},"16":{"id":"1521400","label":"Qyzylt\u016b A\u016bdany","value":"1521400","lat":53.5,"lon":72.75,"poi_name":"Qyzylt\u016b A\u016bdany","parent_id":"1519367","long":72.75},"17":{"id":"1519834","label":"R\u016bzaevka A\u016bdany","value":"1519834","lat":53,"lon":67,"poi_name":"R\u016bzaevka A\u016bdany","parent_id":"1519367","long":67},"18":{"id":"1519383","label":"Sergeevka A\u016bdany","value":"1519383","lat":53.83332999999999657347871107049286365509033203125,"lon":67.5,"poi_name":"Sergeevka A\u016bdany","parent_id":"1519367","long":67.5},"19":{"id":"1518912","label":"Sokolovka A\u016bdany","value":"1518912","lat":55.16667000000000342652128892950713634490966796875,"lon":69.25,"poi_name":"Sokolovka A\u016bdany","parent_id":"1519367","long":69.25},"20":{"id":"1518835","label":"Sovet A\u016bdany","value":"1518835","lat":54.5,"lon":69.75,"poi_name":"Sovet A\u016bdany","parent_id":"1519367","long":69.75},"21":{"id":"1518161","label":"T\u012bm\u012bryazev A\u016bdany","value":"1518161","lat":53.83332999999999657347871107049286365509033203125,"lon":67,"poi_name":"T\u012bm\u012bryazev A\u016bdany","parent_id":"1519367","long":67},"22":{"id":"1517353","label":"Vozvyshenka A\u016bdany","value":"1517353","lat":54.3833300000000008367351256310939788818359375,"lon":70.75,"poi_name":"Vozvyshenka A\u016bdany","parent_id":"1519367","long":70.75},"23":{"id":"1524440","label":"Zhambyl A\u016bdany","value":"1524440","lat":54.33332999999999657347871107049286365509033203125,"lon":66.5,"poi_name":"Zhambyl A\u016bdany","parent_id":"1519367","long":66.5},"24":{"id":"1517502","label":"\u016a\u00e4l\u012bkhanov A\u016bdany","value":"1517502","lat":53.62590999999999752390067442320287227630615234375,"lon":72.3353599999999943293005344457924365997314453125,"poi_name":"\u016a\u00e4l\u012bkhanov A\u016bdany","parent_id":"1519367","long":72.3353599999999943293005344457924365997314453125}}