{"success":true,"remaining_lookups":8799,"0":{"id":"1517194","label":"Aqs\u016b A\u016bdany","value":"1517194","lat":52.16667000000000342652128892950713634490966796875,"lon":76.75,"poi_name":"Aqs\u016b A\u016bdany","parent_id":"1520239","long":76.75},"1":{"id":"1522019","label":"Aqtoghay A\u016bdany","value":"1522019","lat":52.75,"lon":75.1666699999999963210939313285052776336669921875,"poi_name":"Aqtoghay A\u016bdany","parent_id":"1520239","long":75.1666699999999963210939313285052776336669921875},"2":{"id":"1525651","label":"Bayana\u016byl A\u016bdany","value":"1525651","lat":50.91667000000000342652128892950713634490966796875,"lon":75.5,"poi_name":"Bayana\u016byl A\u016bdany","parent_id":"1520239","long":75.5},"3":{"id":"1524322","label":"Ekibastuz A\u016bdany","value":"1524322","lat":51.83332999999999657347871107049286365509033203125,"lon":74.9166699999999963210939313285052776336669921875,"poi_name":"Ekibastuz A\u016bdany","parent_id":"1520239","long":74.9166699999999963210939313285052776336669921875},"4":{"id":"1537292","label":"Ekibastuz Qalasy","value":"1537292","lat":51.66667000000000342652128892950713634490966796875,"lon":75.3666699999999991632648743689060211181640625,"poi_name":"Ekibastuz Qalasy","parent_id":"1520239","long":75.3666699999999991632648743689060211181640625},"5":{"id":"1523767","label":"Ertis A\u016bdany","value":"1523767","lat":53.25,"lon":74.5,"poi_name":"Ertis A\u016bdany","parent_id":"1520239","long":74.5},"6":{"id":"1537291","label":"Gorod Aksu","value":"1537291","lat":52.03332999999999941564965411089360713958740234375,"lon":76.9166699999999963210939313285052776336669921875,"poi_name":"Gorod Aksu","parent_id":"1520239","long":76.9166699999999963210939313285052776336669921875},"7":{"id":"1521382","label":"Lebyazh\u2019e A\u016bdany","value":"1521382","lat":51.5,"lon":78.1666699999999963210939313285052776336669921875,"poi_name":"Lebyazh\u2019e A\u016bdany","parent_id":"1520239","long":78.1666699999999963210939313285052776336669921875},"8":{"id":"1521012","label":"May A\u016bdany","value":"1521012","lat":51,"lon":77.5,"poi_name":"May A\u016bdany","parent_id":"1520239","long":77.5},"9":{"id":"1520238","label":"Pavlodar A\u016bdany","value":"1520238","lat":52.41667000000000342652128892950713634490966796875,"lon":77.5,"poi_name":"Pavlodar A\u016bdany","parent_id":"1520239","long":77.5},"10":{"id":"1537290","label":"Pavlodar Qalasy","value":"1537290","lat":52.2999999999999971578290569595992565155029296875,"lon":76.9500000000000028421709430404007434844970703125,"poi_name":"Pavlodar Qalasy","parent_id":"1520239","long":76.9500000000000028421709430404007434844970703125},"11":{"id":"1523663","label":"Qashyr A\u016bdany","value":"1523663","lat":53.25,"lon":76.5,"poi_name":"Qashyr A\u016bdany","parent_id":"1520239","long":76.5},"12":{"id":"1519247","label":"Sharbaqty A\u016bdany","value":"1519247","lat":52.41667000000000342652128892950713634490966796875,"lon":78.25,"poi_name":"Sharbaqty A\u016bdany","parent_id":"1520239","long":78.25},"13":{"id":"1516632","label":"Zhelez\u012bn A\u016bdany","value":"1516632","lat":53.83332999999999657347871107049286365509033203125,"lon":76,"poi_name":"Zhelez\u012bn A\u016bdany","parent_id":"1520239","long":76},"14":{"id":"1517745","label":"\u016al\u2019yanov A\u016bdany","value":"1517745","lat":50,"lon":74,"poi_name":"\u016al\u2019yanov A\u016bdany","parent_id":"1520239","long":74},"15":{"id":"1517619","label":"\u016aspenka A\u016bdany","value":"1517619","lat":53.08332999999999657347871107049286365509033203125,"lon":77.5,"poi_name":"\u016aspenka A\u016bdany","parent_id":"1520239","long":77.5}}