{"success":true,"remaining_lookups":8794,"0":{"id":"610685","label":"Aqzhayyq A\u016bdany","value":"610685","lat":50.66667000000000342652128892950713634490966796875,"lon":51.58332999999999657347871107049286365509033203125,"poi_name":"Aqzhayyq A\u016bdany","parent_id":"607847","long":51.58332999999999657347871107049286365509033203125},"1":{"id":"610162","label":"B\u00f6rili A\u016bdany","value":"610162","lat":51.33332999999999657347871107049286365509033203125,"lon":53,"poi_name":"B\u00f6rili A\u016bdany","parent_id":"607847","long":53},"2":{"id":"610130","label":"Chapaev A\u016bdany","value":"610130","lat":50.16667000000000342652128892950713634490966796875,"lon":51.08332999999999657347871107049286365509033203125,"poi_name":"Chapaev A\u016bdany","parent_id":"607847","long":51.08332999999999657347871107049286365509033203125},"3":{"id":"609453","label":"Kaztalovka A\u016bdany","value":"609453","lat":49.66667000000000342652128892950713634490966796875,"lon":48.66667000000000342652128892950713634490966796875,"poi_name":"Kaztalovka A\u016bdany","parent_id":"607847","long":48.66667000000000342652128892950713634490966796875},"4":{"id":"828320","label":"Oral Qalasy","value":"828320","lat":51.3666699999999991632648743689060211181640625,"lon":51.28332999999999941564965411089360713958740234375,"poi_name":"Oral Qalasy","parent_id":"607847","long":51.28332999999999941564965411089360713958740234375},"5":{"id":"607842","label":"Orda A\u016bdany","value":"607842","lat":48.75,"lon":48,"poi_name":"Orda A\u016bdany","parent_id":"607847","long":48},"6":{"id":"608573","label":"Pr\u012b\u016bral\u2019e A\u016bdany","value":"608573","lat":51.41667000000000342652128892950713634490966796875,"lon":51.75,"poi_name":"Pr\u012b\u016bral\u2019e A\u016bdany","parent_id":"607847","long":51.75},"7":{"id":"609541","label":"Qarat\u00f6be A\u016bdany","value":"609541","lat":49.66667000000000342652128892950713634490966796875,"lon":53.5,"poi_name":"Qarat\u00f6be A\u016bdany","parent_id":"607847","long":53.5},"8":{"id":"610089","label":"Shyngghyrla\u016b A\u016bdany","value":"610089","lat":50.66667000000000342652128892950713634490966796875,"lon":54,"poi_name":"Shyngghyrla\u016b A\u016bdany","parent_id":"607847","long":54},"9":{"id":"609978","label":"Syrym A\u016bdany","value":"609978","lat":50.25,"lon":52.75,"poi_name":"Syrym A\u016bdany","parent_id":"607847","long":52.75},"10":{"id":"609717","label":"Tasqala A\u016bdany","value":"609717","lat":50.75,"lon":50,"poi_name":"Tasqala A\u016bdany","parent_id":"607847","long":50},"11":{"id":"608048","label":"Taypaq A\u016bdany","value":"608048","lat":49.5,"lon":52,"poi_name":"Taypaq A\u016bdany","parent_id":"607847","long":52},"12":{"id":"608022","label":"Terekti A\u016bdany","value":"608022","lat":51.16667000000000342652128892950713634490966796875,"lon":52.16667000000000342652128892950713634490966796875,"poi_name":"Terekti A\u016bdany","parent_id":"607847","long":52.16667000000000342652128892950713634490966796875},"13":{"id":"607687","label":"Zelenoe A\u016bdany","value":"607687","lat":51.16667000000000342652128892950713634490966796875,"lon":50.83332999999999657347871107049286365509033203125,"poi_name":"Zelenoe A\u016bdany","parent_id":"607847","long":50.83332999999999657347871107049286365509033203125},"14":{"id":"609902","label":"Zhalpaqtal A\u016bdany","value":"609902","lat":49.75,"lon":50,"poi_name":"Zhalpaqtal A\u016bdany","parent_id":"607847","long":50},"15":{"id":"609964","label":"Zhangaqala A\u016bdany","value":"609964","lat":48.76666999999999774217940284870564937591552734375,"lon":50.25,"poi_name":"Zhangaqala A\u016bdany","parent_id":"607847","long":50.25},"16":{"id":"609952","label":"Zh\u00e4nibek A\u016bdany","value":"609952","lat":49.33332999999999657347871107049286365509033203125,"lon":47.5,"poi_name":"Zh\u00e4nibek A\u016bdany","parent_id":"607847","long":47.5}}