{"success":true,"remaining_lookups":9482,"0":{"id":"11288243","label":"Contramaestre","value":"11288243","lat":20.29157000000000010686562745831906795501708984375,"lon":-76.23881000000000085492501966655254364013671875,"poi_name":"Contramaestre","parent_id":"3536725","long":-76.23881000000000085492501966655254364013671875},"1":{"id":"11288244","label":"Guama","value":"11288244","lat":19.96958000000000055251803132705390453338623046875,"lon":-76.4382800000000059981175581924617290496826171875,"poi_name":"Guama","parent_id":"3536725","long":-76.4382800000000059981175581924617290496826171875},"2":{"id":"11288245","label":"Mella","value":"11288245","lat":20.363600000000001699618223938159644603729248046875,"lon":-75.90600000000000591171556152403354644775390625,"poi_name":"Mella","parent_id":"3536725","long":-75.90600000000000591171556152403354644775390625},"3":{"id":"3545062","label":"Municipio de Palma Soriano","value":"3545062","lat":20.21667000000000058435034588910639286041259765625,"lon":-76,"poi_name":"Municipio de Palma Soriano","parent_id":"3536725","long":-76},"4":{"id":"3539073","label":"Municipio de San Luis","value":"3539073","lat":20.183330000000001547277861391194164752960205078125,"lon":-75.849999999999994315658113919198513031005859375,"poi_name":"Municipio de San Luis","parent_id":"3536725","long":-75.849999999999994315658113919198513031005859375},"5":{"id":"3536726","label":"Municipio de Santiago de Cuba","value":"3536726","lat":20.016670000000001294893081649206578731536865234375,"lon":-75.8166700000000020054358174093067646026611328125,"poi_name":"Municipio de Santiago de Cuba","parent_id":"3536725","long":-75.8166700000000020054358174093067646026611328125},"6":{"id":"11288246","label":"Segundo Frente","value":"11288246","lat":20.412839999999999207602741080336272716522216796875,"lon":-75.4964599999999990131982485763728618621826171875,"poi_name":"Segundo Frente","parent_id":"3536725","long":-75.4964599999999990131982485763728618621826171875},"7":{"id":"11288254","label":"Songo - La Maya","value":"11288254","lat":20.163920000000000953832568484358489513397216796875,"lon":-75.697689999999994370227796025574207305908203125,"poi_name":"Songo - La Maya","parent_id":"3536725","long":-75.697689999999994370227796025574207305908203125},"8":{"id":"11288247","label":"Tercer Frente","value":"11288247","lat":20.15899999999999891997504164464771747589111328125,"lon":-76.3097499999999939745976007543504238128662109375,"poi_name":"Tercer Frente","parent_id":"3536725","long":-76.3097499999999939745976007543504238128662109375}}