{"success":true,"remaining_lookups":9489,"0":{"id":"11288185","label":"Bolivia","value":"11288185","lat":22.077549999999998675548340543173253536224365234375,"lon":-78.344189999999997553459252230823040008544921875,"poi_name":"Bolivia","parent_id":"3564175","long":-78.344189999999997553459252230823040008544921875},"1":{"id":"11288186","label":"Florencia","value":"11288186","lat":22.145179999999999864712663111276924610137939453125,"lon":-78.9732499999999930651028989814221858978271484375,"poi_name":"Florencia","parent_id":"3564175","long":-78.9732499999999930651028989814221858978271484375},"2":{"id":"11288187","label":"Majagua","value":"11288187","lat":21.878530000000001365378921036608517169952392578125,"lon":-78.97813999999999623469193466007709503173828125,"poi_name":"Majagua","parent_id":"3564175","long":-78.97813999999999623469193466007709503173828125},"3":{"id":"11287707","label":"Municipio de Baragu\u00e1","value":"11287707","lat":21.681940000000000878799255588091909885406494140625,"lon":-78.6244400000000069894667831249535083770751953125,"poi_name":"Municipio de Baragu\u00e1","parent_id":"3564175","long":-78.6244400000000069894667831249535083770751953125},"4":{"id":"11287709","label":"Municipio de Chambas","value":"11287709","lat":22.196670000000001010675987345166504383087158203125,"lon":-78.913330000000001973603502847254276275634765625,"poi_name":"Municipio de Chambas","parent_id":"3564175","long":-78.913330000000001973603502847254276275634765625},"5":{"id":"3564176","label":"Municipio de Ciego de \u00c1vila","value":"3564176","lat":21.85000000000000142108547152020037174224853515625,"lon":-78.766670000000004847606760449707508087158203125,"poi_name":"Municipio de Ciego de \u00c1vila","parent_id":"3564175","long":-78.766670000000004847606760449707508087158203125},"6":{"id":"11287708","label":"Municipio de Ciro Redondo","value":"11287708","lat":22.01888999999999896317603997886180877685546875,"lon":-78.70305999999999357896740548312664031982421875,"poi_name":"Municipio de Ciro Redondo","parent_id":"3564175","long":-78.70305999999999357896740548312664031982421875},"7":{"id":"3546433","label":"Municipio de Mor\u00f3n","value":"3546433","lat":22.1166699999999991632648743689060211181640625,"lon":-78.6333300000000008367351256310939788818359375,"poi_name":"Municipio de Mor\u00f3n","parent_id":"3564175","long":-78.6333300000000008367351256310939788818359375},"8":{"id":"11288188","label":"Primero De Enero","value":"11288188","lat":21.9450199999999995270627550780773162841796875,"lon":-78.4330700000000007321432349272072315216064453125,"poi_name":"Primero De Enero","parent_id":"3564175","long":-78.4330700000000007321432349272072315216064453125},"9":{"id":"11288190","label":"Venezuela","value":"11288190","lat":21.742110000000000269437805400229990482330322265625,"lon":-78.7872100000000017416823538951575756072998046875,"poi_name":"Venezuela","parent_id":"3564175","long":-78.7872100000000017416823538951575756072998046875}}