{"success":true,"remaining_lookups":9494,"0":{"id":"11288065","label":"Arroyo Naranjo","value":"11288065","lat":23.035889999999998423163560801185667514801025390625,"lon":-82.3710300000000046338755055330693721771240234375,"poi_name":"Arroyo Naranjo","parent_id":"3564073","long":-82.3710300000000046338755055330693721771240234375},"1":{"id":"11288067","label":"Boyeros","value":"11288067","lat":23.004290000000001015223460854031145572662353515625,"lon":-82.394329999999996516635292209684848785400390625,"poi_name":"Boyeros","parent_id":"3564073","long":-82.394329999999996516635292209684848785400390625},"2":{"id":"11288068","label":"Centro Habana","value":"11288068","lat":23.137979999999998881321516819298267364501953125,"lon":-82.361840000000000827640178613364696502685546875,"poi_name":"Centro Habana","parent_id":"3564073","long":-82.361840000000000827640178613364696502685546875},"3":{"id":"11288069","label":"Cerro","value":"11288069","lat":23.110350000000000392219590139575302600860595703125,"lon":-82.3798699999999968213160173036158084869384765625,"poi_name":"Cerro","parent_id":"3564073","long":-82.3798699999999968213160173036158084869384765625},"4":{"id":"11288070","label":"Cotorro","value":"11288070","lat":23.03853000000000150748746818862855434417724609375,"lon":-82.2651100000000070622263592667877674102783203125,"poi_name":"Cotorro","parent_id":"3564073","long":-82.2651100000000070622263592667877674102783203125},"5":{"id":"11288071","label":"Diez De Octubre","value":"11288071","lat":23.086939999999998462953954003751277923583984375,"lon":-82.3599999999999994315658113919198513031005859375,"poi_name":"Diez De Octubre","parent_id":"3564073","long":-82.3599999999999994315658113919198513031005859375},"6":{"id":"11288072","label":"La Habana Del Este","value":"11288072","lat":23.158220000000000027284841053187847137451171875,"lon":-82.3255300000000005411493475548923015594482421875,"poi_name":"La Habana Del Este","parent_id":"3564073","long":-82.3255300000000005411493475548923015594482421875},"7":{"id":"11288073","label":"La Habana Vieja","value":"11288073","lat":23.12980999999999909277903498150408267974853515625,"lon":-82.351709999999997080522007308900356292724609375,"poi_name":"La Habana Vieja","parent_id":"3564073","long":-82.351709999999997080522007308900356292724609375},"8":{"id":"11288074","label":"La Lisa","value":"11288074","lat":23.06569999999999964757080306299030780792236328125,"lon":-82.434629999999998517523636110126972198486328125,"poi_name":"La Lisa","parent_id":"3564073","long":-82.434629999999998517523636110126972198486328125},"9":{"id":"3557845","label":"Municipio de Guanabacoa","value":"3557845","lat":23.1166699999999991632648743689060211181640625,"lon":-82.2999999999999971578290569595992565155029296875,"poi_name":"Municipio de Guanabacoa","parent_id":"3564073","long":-82.2999999999999971578290569595992565155029296875},"10":{"id":"3547639","label":"Municipio de Marianao","value":"3547639","lat":23.083330000000000126192389870993793010711669921875,"lon":-82.4333299999999979945641825906932353973388671875,"poi_name":"Municipio de Marianao","parent_id":"3564073","long":-82.4333299999999979945641825906932353973388671875},"11":{"id":"3542500","label":"Municipio de Regla","value":"3542500","lat":23.1166699999999991632648743689060211181640625,"lon":-82.3333300000000036789060686714947223663330078125,"poi_name":"Municipio de Regla","parent_id":"3564073","long":-82.3333300000000036789060686714947223663330078125},"12":{"id":"11288253","label":"Playa","value":"11288253","lat":23.099340000000001538182914373464882373809814453125,"lon":-82.4484400000000050567905418574810028076171875,"poi_name":"Playa","parent_id":"3564073","long":-82.4484400000000050567905418574810028076171875},"13":{"id":"11288075","label":"Plaza De La Revolucion","value":"11288075","lat":23.118320000000000646878106635995209217071533203125,"lon":-82.3937700000000035061020753346383571624755859375,"poi_name":"Plaza De La Revolucion","parent_id":"3564073","long":-82.3937700000000035061020753346383571624755859375},"14":{"id":"11288076","label":"San Miguel Del Padron","value":"11288076","lat":23.064949999999999619149093632586300373077392578125,"lon":-82.2952800000000053159965318627655506134033203125,"poi_name":"San Miguel Del Padron","parent_id":"3564073","long":-82.2952800000000053159965318627655506134033203125}}