{"success":true,"remaining_lookups":9490,"0":{"id":"11288252","label":"Carlos Manuel De Cespedes","value":"11288252","lat":21.57495000000000118234311230480670928955078125,"lon":-78.2795200000000050977178034372627735137939453125,"poi_name":"Carlos Manuel De Cespedes","parent_id":"3566062","long":-78.2795200000000050977178034372627735137939453125},"1":{"id":"11288079","label":"Jimaguayu","value":"11288079","lat":21.24273000000000166664904099889099597930908203125,"lon":-77.8243599999999986494003678672015666961669921875,"poi_name":"Jimaguayu","parent_id":"3566062","long":-77.8243599999999986494003678672015666961669921875},"2":{"id":"11288080","label":"Minas","value":"11288080","lat":21.487519999999999953388396534137427806854248046875,"lon":-77.61029999999999517967808060348033905029296875,"poi_name":"Minas","parent_id":"3566062","long":-77.61029999999999517967808060348033905029296875},"3":{"id":"3566063","label":"Municipio de Camag\u00fcey","value":"3566063","lat":21.3833300000000008367351256310939788818359375,"lon":-77.9166699999999963210939313285052776336669921875,"poi_name":"Municipio de Camag\u00fcey","parent_id":"3566062","long":-77.9166699999999963210939313285052776336669921875},"4":{"id":"3559316","label":"Municipio de Esmeralda","value":"3559316","lat":21.85000000000000142108547152020037174224853515625,"lon":-78.1166699999999991632648743689060211181640625,"poi_name":"Municipio de Esmeralda","parent_id":"3566062","long":-78.1166699999999991632648743689060211181640625},"5":{"id":"3558766","label":"Municipio de Florida","value":"3558766","lat":21.53332999999999941564965411089360713958740234375,"lon":-78.216669999999993478922988288104534149169921875,"poi_name":"Municipio de Florida","parent_id":"3566062","long":-78.216669999999993478922988288104534149169921875},"6":{"id":"3557921","label":"Municipio de Gu\u00e1imaro","value":"3557921","lat":21.050000000000000710542735760100185871124267578125,"lon":-77.349999999999994315658113919198513031005859375,"poi_name":"Municipio de Gu\u00e1imaro","parent_id":"3566062","long":-77.349999999999994315658113919198513031005859375},"7":{"id":"3545838","label":"Municipio de Nuevitas","value":"3545838","lat":21.550000000000000710542735760100185871124267578125,"lon":-77.266670000000004847606760449707508087158203125,"poi_name":"Municipio de Nuevitas","parent_id":"3566062","long":-77.266670000000004847606760449707508087158203125},"8":{"id":"3537839","label":"Municipio de Santa Cruz del Sur","value":"3537839","lat":20.71667000000000058435034588910639286041259765625,"lon":-78,"poi_name":"Municipio de Santa Cruz del Sur","parent_id":"3566062","long":-78},"9":{"id":"11288301","label":"Najasa","value":"11288301","lat":21.072109999999998564135239575989544391632080078125,"lon":-77.7468099999999964211383485235273838043212890625,"poi_name":"Najasa","parent_id":"3566062","long":-77.7468099999999964211383485235273838043212890625},"10":{"id":"11288081","label":"Sibanicu","value":"11288081","lat":21.235690000000001731450538500212132930755615234375,"lon":-77.524079999999997880877344869077205657958984375,"poi_name":"Sibanicu","parent_id":"3566062","long":-77.524079999999997880877344869077205657958984375},"11":{"id":"11288082","label":"Sierra De Cubitas","value":"11288082","lat":21.551719999999999544115780736319720745086669921875,"lon":-77.46902000000000043655745685100555419921875,"poi_name":"Sierra De Cubitas","parent_id":"3566062","long":-77.46902000000000043655745685100555419921875},"12":{"id":"11288083","label":"Vertientes","value":"11288083","lat":21.263169999999998793782651773653924465179443359375,"lon":-78.1512500000000045474735088646411895751953125,"poi_name":"Vertientes","parent_id":"3566062","long":-78.1512500000000045474735088646411895751953125}}