{"success":true,"remaining_lookups":9495,"0":{"id":"11288249","label":"Bahia Honda","value":"11288249","lat":22.9045899999999988949639373458921909332275390625,"lon":-83.166030000000006339178071357309818267822265625,"poi_name":"Bahia Honda","parent_id":"7668824","long":-83.166030000000006339178071357309818267822265625},"1":{"id":"3569135","label":"Municipio de Alqu\u00edzar","value":"3569135","lat":22.800000000000000710542735760100185871124267578125,"lon":-82.5833300000000036789060686714947223663330078125,"poi_name":"Municipio de Alqu\u00edzar","parent_id":"7668824","long":-82.5833300000000036789060686714947223663330078125},"2":{"id":"3568311","label":"Municipio de Artemisa","value":"3568311","lat":22.816669999999998452722138608805835247039794921875,"lon":-82.766670000000004847606760449707508087158203125,"poi_name":"Municipio de Artemisa","parent_id":"7668824","long":-82.766670000000004847606760449707508087158203125},"3":{"id":"3567611","label":"Municipio de Bauta","value":"3567611","lat":22.983329999999998705106918350793421268463134765625,"lon":-82.5499999999999971578290569595992565155029296875,"poi_name":"Municipio de Bauta","parent_id":"7668824","long":-82.5499999999999971578290569595992565155029296875},"4":{"id":"3566283","label":"Municipio de Caimito","value":"3566283","lat":22.949999999999999289457264239899814128875732421875,"lon":-82.599999999999994315658113919198513031005859375,"poi_name":"Municipio de Caimito","parent_id":"7668824","long":-82.599999999999994315658113919198513031005859375},"5":{"id":"3565758","label":"Municipio de Candelaria","value":"3565758","lat":22.733329999999998705106918350793421268463134765625,"lon":-82.966669999999993478922988288104534149169921875,"poi_name":"Municipio de Candelaria","parent_id":"7668824","long":-82.966669999999993478922988288104534149169921875},"6":{"id":"3557800","label":"Municipio de Guanajay","value":"3557800","lat":22.933330000000001547277861391194164752960205078125,"lon":-82.6833299999999979945641825906932353973388671875,"poi_name":"Municipio de Guanajay","parent_id":"7668824","long":-82.6833299999999979945641825906932353973388671875},"7":{"id":"3557346","label":"Municipio de G\u00fcira de Melena","value":"3557346","lat":22.800000000000000710542735760100185871124267578125,"lon":-82.5,"poi_name":"Municipio de G\u00fcira de Melena","parent_id":"7668824","long":-82.5},"8":{"id":"3547597","label":"Municipio de Mariel","value":"3547597","lat":22.983329999999998705106918350793421268463134765625,"lon":-82.75,"poi_name":"Municipio de Mariel","parent_id":"7668824","long":-82.75},"9":{"id":"3540884","label":"Municipio de San Antonio de los Ba\u00f1os","value":"3540884","lat":22.8833300000000008367351256310939788818359375,"lon":-82.5,"poi_name":"Municipio de San Antonio de los Ba\u00f1os","parent_id":"7668824","long":-82.5},"10":{"id":"3540673","label":"Municipio de San Crist\u00f3bal","value":"3540673","lat":22.714459999999998984776539145968854427337646484375,"lon":-83.0456099999999963756636134348809719085693359375,"poi_name":"Municipio de San Crist\u00f3bal","parent_id":"7668824","long":-83.0456099999999963756636134348809719085693359375}}