{"success":true,"remaining_lookups":8904,"0":{"id":"11550038","label":"Provincia del Sud Sardegna","value":"11550038","lat":39.27691999999999694637153879739344120025634765625,"lon":8.5638400000000007850076144677586853504180908203125,"poi_name":"Provincia del Sud Sardegna","parent_id":"2523228","long":8.5638400000000007850076144677586853504180908203125},"1":{"id":"2525471","label":"Provincia di Cagliari","value":"2525471","lat":39.2450199999999966848918120376765727996826171875,"lon":9.0911899999999992161292539094574749469757080078125,"poi_name":"Provincia di Cagliari","parent_id":"2523228","long":9.0911899999999992161292539094574749469757080078125},"2":{"id":"3172153","label":"Provincia di Nuoro","value":"3172153","lat":40.27009000000000327190718962810933589935302734375,"lon":9.31203000000000002955857780762016773223876953125,"poi_name":"Provincia di Nuoro","parent_id":"2523228","long":9.31203000000000002955857780762016773223876953125},"3":{"id":"2523962","label":"Provincia di Oristano","value":"2523962","lat":40.01682000000000272166289505548775196075439453125,"lon":8.73131000000000057070792536251246929168701171875,"poi_name":"Provincia di Oristano","parent_id":"2523228","long":8.73131000000000057070792536251246929168701171875},"4":{"id":"3167094","label":"Provincia di Sassari","value":"3167094","lat":40.770139999999997826307662762701511383056640625,"lon":8.7588500000000006906475391588173806667327880859375,"poi_name":"Provincia di Sassari","parent_id":"2523228","long":8.7588500000000006906475391588173806667327880859375}}