{"success":true,"remaining_lookups":8902,"0":{"id":"3182882","label":"Province of Arezzo","value":"3182882","lat":43.53332999999999941564965411089360713958740234375,"lon":11.833330000000000126192389870993793010711669921875,"poi_name":"Province of Arezzo","parent_id":"3165361","long":11.833330000000000126192389870993793010711669921875},"1":{"id":"3176958","label":"Province of Florence","value":"3176958","lat":43.83332999999999657347871107049286365509033203125,"lon":11.333330000000000126192389870993793010711669921875,"poi_name":"Province of Florence","parent_id":"3165361","long":11.333330000000000126192389870993793010711669921875},"2":{"id":"3170646","label":"Province of Pisa","value":"3170646","lat":43.41667000000000342652128892950713634490966796875,"lon":10.71667000000000058435034588910639286041259765625,"poi_name":"Province of Pisa","parent_id":"3165361","long":10.71667000000000058435034588910639286041259765625},"3":{"id":"3175784","label":"Provincia di Grosseto","value":"3175784","lat":42.83332999999999657347871107049286365509033203125,"lon":11.25,"poi_name":"Provincia di Grosseto","parent_id":"3165361","long":11.25},"4":{"id":"3174658","label":"Provincia di Livorno","value":"3174658","lat":43.23333000000000225782059715129435062408447265625,"lon":10.583330000000000126192389870993793010711669921875,"poi_name":"Provincia di Livorno","parent_id":"3165361","long":10.583330000000000126192389870993793010711669921875},"5":{"id":"3174529","label":"Provincia di Lucca","value":"3174529","lat":44.03332999999999941564965411089360713958740234375,"lon":10.449999999999999289457264239899814128875732421875,"poi_name":"Provincia di Lucca","parent_id":"3165361","long":10.449999999999999289457264239899814128875732421875},"6":{"id":"3173767","label":"Provincia di Massa-Carrara","value":"3173767","lat":44.25,"lon":10.050000000000000710542735760100185871124267578125,"poi_name":"Provincia di Massa-Carrara","parent_id":"3165361","long":10.050000000000000710542735760100185871124267578125},"7":{"id":"3170620","label":"Provincia di Pistoia","value":"3170620","lat":43.96667000000000058435034588910639286041259765625,"lon":10.833330000000000126192389870993793010711669921875,"poi_name":"Provincia di Pistoia","parent_id":"3165361","long":10.833330000000000126192389870993793010711669921875},"8":{"id":"6458618","label":"Provincia di Prato","value":"6458618","lat":43.880459999999999354258761741220951080322265625,"lon":11.09685999999999950205165077932178974151611328125,"poi_name":"Provincia di Prato","parent_id":"3165361","long":11.09685999999999950205165077932178974151611328125},"9":{"id":"3166546","label":"Provincia di Siena","value":"3166546","lat":43.21667000000000058435034588910639286041259765625,"lon":11.4000000000000003552713678800500929355621337890625,"poi_name":"Provincia di Siena","parent_id":"3165361","long":11.4000000000000003552713678800500929355621337890625}}