{"success":true,"remaining_lookups":8910,"0":{"id":"3173434","label":"Citt\u00e0 metropolitana di Milano","value":"3173434","lat":45.45186000000000348109097103588283061981201171875,"lon":9.1458600000000007668177204323001205921173095703125,"poi_name":"Citt\u00e0 metropolitana di Milano","parent_id":"3174618","long":9.1458600000000007668177204323001205921173095703125},"1":{"id":"3182163","label":"Provincia di Bergamo","value":"3182163","lat":45.83332999999999657347871107049286365509033203125,"lon":9.800000000000000710542735760100185871124267578125,"poi_name":"Provincia di Bergamo","parent_id":"3174618","long":9.800000000000000710542735760100185871124267578125},"2":{"id":"3181553","label":"Provincia di Brescia","value":"3181553","lat":45.70647999999999910869519226253032684326171875,"lon":10.3356200000000004735056791105307638645172119140625,"poi_name":"Provincia di Brescia","parent_id":"3174618","long":10.3356200000000004735056791105307638645172119140625},"3":{"id":"3178227","label":"Provincia di Como","value":"3178227","lat":45.91248999999999824694896233268082141876220703125,"lon":9.1574399999999993582378010614775121212005615234375,"poi_name":"Provincia di Como","parent_id":"3174618","long":9.1574399999999993582378010614775121212005615234375},"4":{"id":"3177837","label":"Provincia di Cremona","value":"3177837","lat":45.23333000000000225782059715129435062408447265625,"lon":9.9333299999999997709210219909437000751495361328125,"poi_name":"Provincia di Cremona","parent_id":"3174618","long":9.9333299999999997709210219909437000751495361328125},"5":{"id":"6458616","label":"Provincia di Lecco","value":"6458616","lat":45.85396999999999678720996598713099956512451171875,"lon":9.390010000000000189857018995098769664764404296875,"poi_name":"Provincia di Lecco","parent_id":"3174618","long":9.390010000000000189857018995098769664764404296875},"6":{"id":"6458617","label":"Provincia di Lodi","value":"6458617","lat":45.296379999999999199644662439823150634765625,"lon":9.5285799999999998277644408517517149448394775390625,"poi_name":"Provincia di Lodi","parent_id":"3174618","long":9.5285799999999998277644408517517149448394775390625},"7":{"id":"3174050","label":"Provincia di Mantova","value":"3174050","lat":45.16667000000000342652128892950713634490966796875,"lon":10.78332999999999941564965411089360713958740234375,"poi_name":"Provincia di Mantova","parent_id":"3174618","long":10.78332999999999941564965411089360713958740234375},"8":{"id":"6955700","label":"Provincia di Monza e Brianza","value":"6955700","lat":45.5967399999999969395503285340964794158935546875,"lon":9.2161600000000003518607627484016120433807373046875,"poi_name":"Provincia di Monza e Brianza","parent_id":"3174618","long":9.2161600000000003518607627484016120433807373046875},"9":{"id":"3171364","label":"Provincia di Pavia","value":"3171364","lat":45.1166699999999991632648743689060211181640625,"lon":9.1333300000000008367351256310939788818359375,"poi_name":"Provincia di Pavia","parent_id":"3174618","long":9.1333300000000008367351256310939788818359375},"10":{"id":"3166396","label":"Provincia di Sondrio","value":"3166396","lat":46.21108000000000259888111031614243984222412109375,"lon":9.9490700000000007463540896424092352390289306640625,"poi_name":"Provincia di Sondrio","parent_id":"3174618","long":9.9490700000000007463540896424092352390289306640625},"11":{"id":"3164697","label":"Provincia di Varese","value":"3164697","lat":45.7999999999999971578290569595992565155029296875,"lon":8.800000000000000710542735760100185871124267578125,"poi_name":"Provincia di Varese","parent_id":"3174618","long":8.800000000000000710542735760100185871124267578125}}