{"success":true,"remaining_lookups":8915,"0":{"id":"3182649","label":"Provincia di Avellino","value":"3182649","lat":40.98333000000000225782059715129435062408447265625,"lon":15.1500000000000003552713678800500929355621337890625,"poi_name":"Provincia di Avellino","parent_id":"3181042","long":15.1500000000000003552713678800500929355621337890625},"1":{"id":"3182178","label":"Provincia di Benevento","value":"3182178","lat":41.21791999999999944748196867294609546661376953125,"lon":14.7463999999999995083044268540106713771820068359375,"poi_name":"Provincia di Benevento","parent_id":"3181042","long":14.7463999999999995083044268540106713771820068359375},"2":{"id":"3179865","label":"Provincia di Caserta","value":"3179865","lat":41.23333000000000225782059715129435062408447265625,"lon":14.166669999999999873807610129006206989288330078125,"poi_name":"Provincia di Caserta","parent_id":"3181042","long":14.166669999999999873807610129006206989288330078125},"3":{"id":"3172391","label":"Provincia di Napoli","value":"3172391","lat":40.8833300000000008367351256310939788818359375,"lon":14.416669999999999873807610129006206989288330078125,"poi_name":"Provincia di Napoli","parent_id":"3181042","long":14.416669999999999873807610129006206989288330078125},"4":{"id":"3168670","label":"Provincia di Salerno","value":"3168670","lat":40.4500000000000028421709430404007434844970703125,"lon":15.2666699999999995185362422489561140537261962890625,"poi_name":"Provincia di Salerno","parent_id":"3181042","long":15.2666699999999995185362422489561140537261962890625}}