{"success":true,"remaining_lookups":9327,"0":{"id":"9166029","label":"Adi Tekelezan Subregion","value":"9166029","lat":15.5693099999999997606892065959982573986053466796875,"lon":38.776150000000001227817847393453121185302734375,"poi_name":"Adi Tekelezan Subregion","parent_id":"448497","long":38.776150000000001227817847393453121185302734375},"1":{"id":"9166032","label":"Asmat","value":"9166032","lat":16.24980000000000046611603465862572193145751953125,"lon":38.03309999999999746478351880796253681182861328125,"poi_name":"Asmat","parent_id":"448497","long":38.03309999999999746478351880796253681182861328125},"2":{"id":"9166033","label":"Elabered Subregion","value":"9166033","lat":15.7105999999999994543031789362430572509765625,"lon":38.62859999999999871533873374573886394500732421875,"poi_name":"Elabered Subregion","parent_id":"448497","long":38.62859999999999871533873374573886394500732421875},"3":{"id":"10627798","label":"Geleb Subregion","value":"10627798","lat":15.79261999999999943611328490078449249267578125,"lon":38.7958100000000030149749363772571086883544921875,"poi_name":"Geleb Subregion","parent_id":"448497","long":38.7958100000000030149749363772571086883544921875},"4":{"id":"9166040","label":"Habero Subregion","value":"9166040","lat":16.27499999999999857891452847979962825775146484375,"lon":38.39999999999999857891452847979962825775146484375,"poi_name":"Habero Subregion","parent_id":"448497","long":38.39999999999999857891452847979962825775146484375},"5":{"id":"9166038","label":"Hagaz Subregion","value":"9166038","lat":15.7092299999999998050270733074285089969635009765625,"lon":38.26874000000000108911990537308156490325927734375,"poi_name":"Hagaz Subregion","parent_id":"448497","long":38.26874000000000108911990537308156490325927734375},"6":{"id":"9166039","label":"Halhal Subregion","value":"9166039","lat":15.9930000000000003268496584496460855007171630859375,"lon":38.2289999999999992041921359486877918243408203125,"poi_name":"Halhal Subregion","parent_id":"448497","long":38.2289999999999992041921359486877918243408203125},"7":{"id":"9166043","label":"Keren Subregion","value":"9166043","lat":15.78332999999999941564965411089360713958740234375,"lon":38.4500000000000028421709430404007434844970703125,"poi_name":"Keren Subregion","parent_id":"448497","long":38.4500000000000028421709430404007434844970703125},"8":{"id":"9166042","label":"Kerkebet","value":"9166042","lat":16.10000000000000142108547152020037174224853515625,"lon":37.41667000000000342652128892950713634490966796875,"poi_name":"Kerkebet","parent_id":"448497","long":37.41667000000000342652128892950713634490966796875},"9":{"id":"9166044","label":"Sela Subregion","value":"9166044","lat":16.879999999999999005240169935859739780426025390625,"lon":37.43999999999999772626324556767940521240234375,"poi_name":"Sela Subregion","parent_id":"448497","long":37.43999999999999772626324556767940521240234375}}