{"success":true,"remaining_lookups":7310,"0":{"id":"3333122","label":"Barnsley","value":"3333122","lat":53.53332999999999941564965411089360713958740234375,"lon":-1.5,"poi_name":"Barnsley","parent_id":"6269131","long":-1.5},"1":{"id":"3333123","label":"Bath and North East Somerset","value":"3333123","lat":51.33332999999999657347871107049286365509033203125,"lon":-2.5,"poi_name":"Bath and North East Somerset","parent_id":"6269131","long":-2.5},"2":{"id":"7290534","label":"Bedford","value":"7290534","lat":52.18831000000000130967237055301666259765625,"lon":-0.453160000000000007247535904753021895885467529296875,"poi_name":"Bedford","parent_id":"6269131","long":-0.453160000000000007247535904753021895885467529296875},"3":{"id":"3333126","label":"Blackburn with Darwen","value":"3333126","lat":53.66667000000000342652128892950713634490966796875,"lon":-2.466670000000000140261136039043776690959930419921875,"poi_name":"Blackburn with Darwen","parent_id":"6269131","long":-2.466670000000000140261136039043776690959930419921875},"4":{"id":"3333127","label":"Blackpool","value":"3333127","lat":53.83332999999999657347871107049286365509033203125,"lon":-3.033329999999999859738863960956223309040069580078125,"poi_name":"Blackpool","parent_id":"6269131","long":-3.033329999999999859738863960956223309040069580078125},"5":{"id":"3333128","label":"Borough of Bolton","value":"3333128","lat":53.58332999999999657347871107049286365509033203125,"lon":-2.5,"poi_name":"Borough of Bolton","parent_id":"6269131","long":-2.5},"6":{"id":"3333136","label":"Borough of Bury","value":"3333136","lat":53.58332999999999657347871107049286365509033203125,"lon":-2.333330000000000126192389870993793010711669921875,"poi_name":"Borough of Bury","parent_id":"6269131","long":-2.333330000000000126192389870993793010711669921875},"7":{"id":"2647601","label":"Borough of Halton","value":"2647601","lat":53.33332999999999657347871107049286365509033203125,"lon":-2.75,"poi_name":"Borough of Halton","parent_id":"6269131","long":-2.75},"8":{"id":"2641238","label":"Borough of North Tyneside","value":"2641238","lat":55.03332999999999941564965411089360713958740234375,"lon":-1.5,"poi_name":"Borough of North Tyneside","parent_id":"6269131","long":-1.5},"9":{"id":"3333179","label":"Borough of Oldham","value":"3333179","lat":53.5499999999999971578290569595992565155029296875,"lon":-2.083330000000000126192389870993793010711669921875,"poi_name":"Borough of Oldham","parent_id":"6269131","long":-2.083330000000000126192389870993793010711669921875},"10":{"id":"3333188","label":"Borough of Rochdale","value":"3333188","lat":53.58332999999999657347871107049286365509033203125,"lon":-2.166669999999999873807610129006206989288330078125,"poi_name":"Borough of Rochdale","parent_id":"6269131","long":-2.166669999999999873807610129006206989288330078125},"11":{"id":"3333202","label":"Borough of Stockport","value":"3333202","lat":53.41667000000000342652128892950713634490966796875,"lon":-2.166669999999999873807610129006206989288330078125,"poi_name":"Borough of Stockport","parent_id":"6269131","long":-2.166669999999999873807610129006206989288330078125},"12":{"id":"3333207","label":"Borough of Swindon","value":"3333207","lat":51.58332999999999657347871107049286365509033203125,"lon":-1.75,"poi_name":"Borough of Swindon","parent_id":"6269131","long":-1.75},"13":{"id":"3333208","label":"Borough of Tameside","value":"3333208","lat":53.5,"lon":-2.083330000000000126192389870993793010711669921875,"poi_name":"Borough of Tameside","parent_id":"6269131","long":-2.083330000000000126192389870993793010711669921875},"14":{"id":"2635885","label":"Borough of Thurrock","value":"2635885","lat":51.5,"lon":0.41666999999999998482991259152186103165149688720703125,"poi_name":"Borough of Thurrock","parent_id":"6269131","long":0.41666999999999998482991259152186103165149688720703125},"15":{"id":"3333210","label":"Borough of Torbay","value":"3333210","lat":50.4515999999999991132426657713949680328369140625,"lon":-3.5578500000000001790567694115452468395233154296875,"poi_name":"Borough of Torbay","parent_id":"6269131","long":-3.5578500000000001790567694115452468395233154296875},"16":{"id":"3333219","label":"Borough of Wigan","value":"3333219","lat":53.5,"lon":-2.583330000000000126192389870993793010711669921875,"poi_name":"Borough of Wigan","parent_id":"6269131","long":-2.583330000000000126192389870993793010711669921875},"17":{"id":"3333129","label":"Bournemouth","value":"3333129","lat":50.71918000000000148475010064430534839630126953125,"lon":-1.878060000000000062669869294040836393833160400390625,"poi_name":"Bournemouth","parent_id":"6269131","long":-1.878060000000000062669869294040836393833160400390625},"18":{"id":"3333130","label":"Bracknell Forest","value":"3333130","lat":51.41667000000000342652128892950713634490966796875,"lon":-0.75,"poi_name":"Bracknell Forest","parent_id":"6269131","long":-0.75},"19":{"id":"3333131","label":"Bradford","value":"3333131","lat":53.83332999999999657347871107049286365509033203125,"lon":-1.8333299999999999041477849459624849259853363037109375,"poi_name":"Bradford","parent_id":"6269131","long":-1.8333299999999999041477849459624849259853363037109375},"20":{"id":"3333133","label":"Brighton and Hove","value":"3333133","lat":50.83332999999999657347871107049286365509033203125,"lon":-0.133330000000000004067857162226573564112186431884765625,"poi_name":"Brighton and Hove","parent_id":"6269131","long":-0.133330000000000004067857162226573564112186431884765625},"21":{"id":"3333134","label":"Bristol","value":"3333134","lat":51.4500000000000028421709430404007434844970703125,"lon":-2.600000000000000088817841970012523233890533447265625,"poi_name":"Bristol","parent_id":"6269131","long":-2.600000000000000088817841970012523233890533447265625},"22":{"id":"2654408","label":"Buckinghamshire","value":"2654408","lat":51.75,"lon":-0.75,"poi_name":"Buckinghamshire","parent_id":"6269131","long":-0.75},"23":{"id":"3333137","label":"Calderdale","value":"3333137","lat":53.7000000000000028421709430404007434844970703125,"lon":-2,"poi_name":"Calderdale","parent_id":"6269131","long":-2},"24":{"id":"2653940","label":"Cambridgeshire","value":"2653940","lat":52.33332999999999657347871107049286365509033203125,"lon":0.08333000000000000129229960066368221305310726165771484375,"poi_name":"Cambridgeshire","parent_id":"6269131","long":0.08333000000000000129229960066368221305310726165771484375},"25":{"id":"7290535","label":"Central Bedfordshire","value":"7290535","lat":51.99754999999999682813722756691277027130126953125,"lon":-0.421480000000000021298518504409003071486949920654296875,"poi_name":"Central Bedfordshire","parent_id":"6269131","long":-0.421480000000000021298518504409003071486949920654296875},"26":{"id":"7290536","label":"Cheshire East","value":"7290536","lat":53.16702000000000083446138887666165828704833984375,"lon":-2.36244999999999993889332472463138401508331298828125,"poi_name":"Cheshire East","parent_id":"6269131","long":-2.36244999999999993889332472463138401508331298828125},"27":{"id":"7290537","label":"Cheshire West and Chester","value":"7290537","lat":53.16351999999999833335095900110900402069091796875,"lon":-2.73594999999999988204990586382336914539337158203125,"poi_name":"Cheshire West and Chester","parent_id":"6269131","long":-2.73594999999999988204990586382336914539337158203125},"28":{"id":"3333125","label":"City and Borough of Birmingham","value":"3333125","lat":52.48048000000000001818989403545856475830078125,"lon":-1.8982300000000000839150970932678319513797760009765625,"poi_name":"City and Borough of Birmingham","parent_id":"6269131","long":-1.8982300000000000839150970932678319513797760009765625},"29":{"id":"3333164","label":"City and Borough of Leeds","value":"3333164","lat":53.79643999999999692818164476193487644195556640625,"lon":-1.5477000000000000756728013584506697952747344970703125,"poi_name":"City and Borough of Leeds","parent_id":"6269131","long":-1.5477000000000000756728013584506697952747344970703125},"30":{"id":"3333190","label":"City and Borough of Salford","value":"3333190","lat":53.5,"lon":-2.333330000000000126192389870993793010711669921875,"poi_name":"City and Borough of Salford","parent_id":"6269131","long":-2.333330000000000126192389870993793010711669921875},"31":{"id":"3333212","label":"City and Borough of Wakefield","value":"3333212","lat":53.68084999999999951114659779705107212066650390625,"lon":-1.4989500000000000046185277824406512081623077392578125,"poi_name":"City and Borough of Wakefield","parent_id":"6269131","long":-1.4989500000000000046185277824406512081623077392578125},"32":{"id":"3333159","label":"City of Kingston upon Hull","value":"3333159","lat":53.75,"lon":-0.33333000000000001517008740847813896834850311279296875,"poi_name":"City of Kingston upon Hull","parent_id":"6269131","long":-0.33333000000000001517008740847813896834850311279296875},"33":{"id":"3333165","label":"City of Leicester","value":"3333165","lat":52.6333300000000008367351256310939788818359375,"lon":-1.13332999999999994855670593096874654293060302734375,"poi_name":"City of Leicester","parent_id":"6269131","long":-1.13332999999999994855670593096874654293060302734375},"34":{"id":"2633351","label":"City of York","value":"2633351","lat":53.9639600000000001500666257925331592559814453125,"lon":-1.0914200000000000567723645872320048511028289794921875,"poi_name":"City of York","parent_id":"6269131","long":-1.0914200000000000567723645872320048511028289794921875},"35":{"id":"2652355","label":"Cornwall","value":"2652355","lat":50.41667000000000342652128892950713634490966796875,"lon":-4.75,"poi_name":"Cornwall","parent_id":"6269131","long":-4.75},"36":{"id":"2650629","label":"County Durham","value":"2650629","lat":54.77680000000000148929757415316998958587646484375,"lon":-1.5757499999999999840127884453977458178997039794921875,"poi_name":"County Durham","parent_id":"6269131","long":-1.5757499999999999840127884453977458178997039794921875},"37":{"id":"3333139","label":"Coventry","value":"3333139","lat":52.41667000000000342652128892950713634490966796875,"lon":-1.5,"poi_name":"Coventry","parent_id":"6269131","long":-1.5},"38":{"id":"2651712","label":"Cumbria","value":"2651712","lat":54.58332999999999657347871107049286365509033203125,"lon":-2.833330000000000126192389870993793010711669921875,"poi_name":"Cumbria","parent_id":"6269131","long":-2.833330000000000126192389870993793010711669921875},"39":{"id":"3333141","label":"Darlington","value":"3333141","lat":54.53332999999999941564965411089360713958740234375,"lon":-1.5333300000000000817834688859875313937664031982421875,"poi_name":"Darlington","parent_id":"6269131","long":-1.5333300000000000817834688859875313937664031982421875},"40":{"id":"3333142","label":"Derby","value":"3333142","lat":52.9206999999999965211827657185494899749755859375,"lon":-1.4721699999999999786126636536209844052791595458984375,"poi_name":"Derby","parent_id":"6269131","long":-1.4721699999999999786126636536209844052791595458984375},"41":{"id":"2651346","label":"Derbyshire","value":"2651346","lat":53.16667000000000342652128892950713634490966796875,"lon":-1.5833299999999999041477849459624849259853363037109375,"poi_name":"Derbyshire","parent_id":"6269131","long":-1.5833299999999999041477849459624849259853363037109375},"42":{"id":"2651292","label":"Devon","value":"2651292","lat":50.75,"lon":-3.75,"poi_name":"Devon","parent_id":"6269131","long":-3.75},"43":{"id":"2638918","label":"District of Rutland","value":"2638918","lat":52.66667000000000342652128892950713634490966796875,"lon":-0.66666999999999998482991259152186103165149688720703125,"poi_name":"District of Rutland","parent_id":"6269131","long":-0.66666999999999998482991259152186103165149688720703125},"44":{"id":"3333143","label":"Doncaster","value":"3333143","lat":53.5,"lon":-1.0833299999999999041477849459624849259853363037109375,"poi_name":"Doncaster","parent_id":"6269131","long":-1.0833299999999999041477849459624849259853363037109375},"45":{"id":"2651079","label":"Dorset","value":"2651079","lat":50.75,"lon":-2.333330000000000126192389870993793010711669921875,"poi_name":"Dorset","parent_id":"6269131","long":-2.333330000000000126192389870993793010711669921875},"46":{"id":"3333144","label":"Dudley","value":"3333144","lat":52.5,"lon":-2.11667000000000005144329406903125345706939697265625,"poi_name":"Dudley","parent_id":"6269131","long":-2.11667000000000005144329406903125345706939697265625},"47":{"id":"2650345","label":"East Riding of Yorkshire","value":"2650345","lat":53.91667000000000342652128892950713634490966796875,"lon":-0.5,"poi_name":"East Riding of Yorkshire","parent_id":"6269131","long":-0.5},"48":{"id":"2650328","label":"East Sussex","value":"2650328","lat":50.91667000000000342652128892950713634490966796875,"lon":0.33333000000000001517008740847813896834850311279296875,"poi_name":"East Sussex","parent_id":"6269131","long":0.33333000000000001517008740847813896834850311279296875},"49":{"id":"2649889","label":"Essex","value":"2649889","lat":51.83332999999999657347871107049286365509033203125,"lon":0.58333000000000001517008740847813896834850311279296875,"poi_name":"Essex","parent_id":"6269131","long":0.58333000000000001517008740847813896834850311279296875},"50":{"id":"2648772","label":"Gateshead","value":"2648772","lat":54.9333299999999979945641825906932353973388671875,"lon":-1.6666700000000000958522150540375150740146636962890625,"poi_name":"Gateshead","parent_id":"6269131","long":-1.6666700000000000958522150540375150740146636962890625},"51":{"id":"2648402","label":"Gloucestershire","value":"2648402","lat":51.83332999999999657347871107049286365509033203125,"lon":-2.166669999999999873807610129006206989288330078125,"poi_name":"Gloucestershire","parent_id":"6269131","long":-2.166669999999999873807610129006206989288330078125},"52":{"id":"2648110","label":"Greater London","value":"2648110","lat":51.5,"lon":-0.1666700000000000125854882071507745422422885894775390625,"poi_name":"Greater London","parent_id":"6269131","long":-0.1666700000000000125854882071507745422422885894775390625},"53":{"id":"2647554","label":"Hampshire","value":"2647554","lat":51,"lon":-1.25,"poi_name":"Hampshire","parent_id":"6269131","long":-1.25},"54":{"id":"3333152","label":"Hartlepool","value":"3333152","lat":54.66667000000000342652128892950713634490966796875,"lon":-1.25,"poi_name":"Hartlepool","parent_id":"6269131","long":-1.25},"55":{"id":"2647071","label":"Herefordshire","value":"2647071","lat":52.08332999999999657347871107049286365509033203125,"lon":-2.75,"poi_name":"Herefordshire","parent_id":"6269131","long":-2.75},"56":{"id":"2647043","label":"Hertfordshire","value":"2647043","lat":51.83332999999999657347871107049286365509033203125,"lon":-0.25,"poi_name":"Hertfordshire","parent_id":"6269131","long":-0.25},"57":{"id":"2646007","label":"Isle of Wight","value":"2646007","lat":50.66667000000000342652128892950713634490966796875,"lon":-1.3333299999999999041477849459624849259853363037109375,"poi_name":"Isle of Wight","parent_id":"6269131","long":-1.3333299999999999041477849459624849259853363037109375},"58":{"id":"2638384","label":"Isles of Scilly","value":"2638384","lat":49.92116999999999649162418791092932224273681640625,"lon":-6.29431000000000029359625841607339680194854736328125,"poi_name":"Isles of Scilly","parent_id":"6269131","long":-6.29431000000000029359625841607339680194854736328125},"59":{"id":"3333158","label":"Kent","value":"3333158","lat":51.16667000000000342652128892950713634490966796875,"lon":0.66666999999999998482991259152186103165149688720703125,"poi_name":"Kent","parent_id":"6269131","long":0.66666999999999998482991259152186103165149688720703125},"60":{"id":"3333161","label":"Kirklees","value":"3333161","lat":53.58332999999999657347871107049286365509033203125,"lon":-1.75,"poi_name":"Kirklees","parent_id":"6269131","long":-1.75},"61":{"id":"3333162","label":"Knowsley","value":"3333162","lat":53.41667000000000342652128892950713634490966796875,"lon":-2.833330000000000126192389870993793010711669921875,"poi_name":"Knowsley","parent_id":"6269131","long":-2.833330000000000126192389870993793010711669921875},"62":{"id":"2644974","label":"Lancashire","value":"2644974","lat":53.83332999999999657347871107049286365509033203125,"lon":-2.5,"poi_name":"Lancashire","parent_id":"6269131","long":-2.5},"63":{"id":"2644667","label":"Leicestershire","value":"2644667","lat":52.66667000000000342652128892950713634490966796875,"lon":-1,"poi_name":"Leicestershire","parent_id":"6269131","long":-1},"64":{"id":"2644486","label":"Lincolnshire","value":"2644486","lat":53.16667000000000342652128892950713634490966796875,"lon":-0.25,"poi_name":"Lincolnshire","parent_id":"6269131","long":-0.25},"65":{"id":"3333167","label":"Liverpool","value":"3333167","lat":53.41667000000000342652128892950713634490966796875,"lon":-2.916669999999999873807610129006206989288330078125,"poi_name":"Liverpool","parent_id":"6269131","long":-2.916669999999999873807610129006206989288330078125},"66":{"id":"3333168","label":"Luton","value":"3333168","lat":51.89110000000000155750967678613960742950439453125,"lon":-0.427929999999999977067233203342766501009464263916015625,"poi_name":"Luton","parent_id":"6269131","long":-0.427929999999999977067233203342766501009464263916015625},"67":{"id":"3333169","label":"Manchester","value":"3333169","lat":53.41667000000000342652128892950713634490966796875,"lon":-2.25,"poi_name":"Manchester","parent_id":"6269131","long":-2.25},"68":{"id":"3333170","label":"Medway","value":"3333170","lat":51.41667000000000342652128892950713634490966796875,"lon":0.5,"poi_name":"Medway","parent_id":"6269131","long":0.5},"69":{"id":"3333220","label":"Metropolitan Borough of Wirral","value":"3333220","lat":53.33332999999999657347871107049286365509033203125,"lon":-3.083330000000000126192389870993793010711669921875,"poi_name":"Metropolitan Borough of Wirral","parent_id":"6269131","long":-3.083330000000000126192389870993793010711669921875},"70":{"id":"3333172","label":"Middlesbrough","value":"3333172","lat":54.53332999999999941564965411089360713958740234375,"lon":-1.1999999999999999555910790149937383830547332763671875,"poi_name":"Middlesbrough","parent_id":"6269131","long":-1.1999999999999999555910790149937383830547332763671875},"71":{"id":"3333173","label":"Milton Keynes","value":"3333173","lat":52.08332999999999657347871107049286365509033203125,"lon":-0.75,"poi_name":"Milton Keynes","parent_id":"6269131","long":-0.75},"72":{"id":"3333174","label":"Newcastle upon Tyne","value":"3333174","lat":55,"lon":-1.6666700000000000958522150540375150740146636962890625,"poi_name":"Newcastle upon Tyne","parent_id":"6269131","long":-1.6666700000000000958522150540375150740146636962890625},"73":{"id":"2641455","label":"Norfolk","value":"2641455","lat":52.66667000000000342652128892950713634490966796875,"lon":1,"poi_name":"Norfolk","parent_id":"6269131","long":1},"74":{"id":"3333175","label":"North East Lincolnshire","value":"3333175","lat":53.53332999999999941564965411089360713958740234375,"lon":-0.08333000000000000129229960066368221305310726165771484375,"poi_name":"North East Lincolnshire","parent_id":"6269131","long":-0.08333000000000000129229960066368221305310726165771484375},"75":{"id":"3333176","label":"North Lincolnshire","value":"3333176","lat":53.58332999999999657347871107049286365509033203125,"lon":-0.5,"poi_name":"North Lincolnshire","parent_id":"6269131","long":-0.5},"76":{"id":"3333177","label":"North Somerset","value":"3333177","lat":51.33332999999999657347871107049286365509033203125,"lon":-2.833330000000000126192389870993793010711669921875,"poi_name":"North Somerset","parent_id":"6269131","long":-2.833330000000000126192389870993793010711669921875},"77":{"id":"2641209","label":"North Yorkshire","value":"2641209","lat":54.16667000000000342652128892950713634490966796875,"lon":-1.5,"poi_name":"North Yorkshire","parent_id":"6269131","long":-1.5},"78":{"id":"2641429","label":"Northamptonshire","value":"2641429","lat":52.25,"lon":-0.83333000000000001517008740847813896834850311279296875,"poi_name":"Northamptonshire","parent_id":"6269131","long":-0.83333000000000001517008740847813896834850311279296875},"79":{"id":"2641235","label":"Northumberland","value":"2641235","lat":55.25,"lon":-2,"poi_name":"Northumberland","parent_id":"6269131","long":-2},"80":{"id":"3333178","label":"Nottingham","value":"3333178","lat":52.96667000000000058435034588910639286041259765625,"lon":-1.149999999999999911182158029987476766109466552734375,"poi_name":"Nottingham","parent_id":"6269131","long":-1.149999999999999911182158029987476766109466552734375},"81":{"id":"2641169","label":"Nottinghamshire","value":"2641169","lat":53.16667000000000342652128892950713634490966796875,"lon":-1,"poi_name":"Nottinghamshire","parent_id":"6269131","long":-1},"82":{"id":"2640726","label":"Oxfordshire","value":"2640726","lat":51.83332999999999657347871107049286365509033203125,"lon":-1.25,"poi_name":"Oxfordshire","parent_id":"6269131","long":-1.25},"83":{"id":"3333180","label":"Peterborough","value":"3333180","lat":52.58332999999999657347871107049286365509033203125,"lon":-0.25,"poi_name":"Peterborough","parent_id":"6269131","long":-0.25},"84":{"id":"3333181","label":"Plymouth","value":"3333181","lat":50.3833300000000008367351256310939788818359375,"lon":-4.13332999999999994855670593096874654293060302734375,"poi_name":"Plymouth","parent_id":"6269131","long":-4.13332999999999994855670593096874654293060302734375},"85":{"id":"3333182","label":"Poole","value":"3333182","lat":50.73333000000000225782059715129435062408447265625,"lon":-1.9666699999999999182165311140124686062335968017578125,"poi_name":"Poole","parent_id":"6269131","long":-1.9666699999999999182165311140124686062335968017578125},"86":{"id":"3333183","label":"Portsmouth","value":"3333183","lat":50.7999999999999971578290569595992565155029296875,"lon":-1.0666700000000000070343730840249918401241302490234375,"poi_name":"Portsmouth","parent_id":"6269131","long":-1.0666700000000000070343730840249918401241302490234375},"87":{"id":"3333184","label":"Reading","value":"3333184","lat":51.4500000000000028421709430404007434844970703125,"lon":-0.96667000000000002923883357652812264859676361083984375,"poi_name":"Reading","parent_id":"6269131","long":-0.96667000000000002923883357652812264859676361083984375},"88":{"id":"3333186","label":"Redcar and Cleveland","value":"3333186","lat":54.5499999999999971578290569595992565155029296875,"lon":-1,"poi_name":"Redcar and Cleveland","parent_id":"6269131","long":-1},"89":{"id":"3333189","label":"Rotherham","value":"3333189","lat":53.41667000000000342652128892950713634490966796875,"lon":-1.25,"poi_name":"Rotherham","parent_id":"6269131","long":-1.25},"90":{"id":"2633840","label":"Royal Borough of Windsor and Maidenhead","value":"2633840","lat":51.46667000000000058435034588910639286041259765625,"lon":-0.66666999999999998482991259152186103165149688720703125,"poi_name":"Royal Borough of Windsor and Maidenhead","parent_id":"6269131","long":-0.66666999999999998482991259152186103165149688720703125},"91":{"id":"3333191","label":"Sandwell","value":"3333191","lat":52.5,"lon":-2,"poi_name":"Sandwell","parent_id":"6269131","long":-2},"92":{"id":"3333192","label":"Sefton","value":"3333192","lat":53.5,"lon":-3,"poi_name":"Sefton","parent_id":"6269131","long":-3},"93":{"id":"3333193","label":"Sheffield","value":"3333193","lat":53.41667000000000342652128892950713634490966796875,"lon":-1.5,"poi_name":"Sheffield","parent_id":"6269131","long":-1.5},"94":{"id":"2638655","label":"Shropshire","value":"2638655","lat":52.66667000000000342652128892950713634490966796875,"lon":-2.75,"poi_name":"Shropshire","parent_id":"6269131","long":-2.75},"95":{"id":"3333194","label":"Slough","value":"3333194","lat":51.5,"lon":-0.5666700000000000070343730840249918401241302490234375,"poi_name":"Slough","parent_id":"6269131","long":-0.5666700000000000070343730840249918401241302490234375},"96":{"id":"3333195","label":"Solihull","value":"3333195","lat":52.41667000000000342652128892950713634490966796875,"lon":-1.75,"poi_name":"Solihull","parent_id":"6269131","long":-1.75},"97":{"id":"2637532","label":"Somerset","value":"2637532","lat":51.08332999999999657347871107049286365509033203125,"lon":-3,"poi_name":"Somerset","parent_id":"6269131","long":-3},"98":{"id":"3333198","label":"South Gloucestershire","value":"3333198","lat":51.5,"lon":-2.416669999999999873807610129006206989288330078125,"poi_name":"South Gloucestershire","parent_id":"6269131","long":-2.416669999999999873807610129006206989288330078125},"99":{"id":"3333199","label":"South Tyneside","value":"3333199","lat":54.9500000000000028421709430404007434844970703125,"lon":-1.4166700000000000958522150540375150740146636962890625,"poi_name":"South Tyneside","parent_id":"6269131","long":-1.4166700000000000958522150540375150740146636962890625}}