{"success":true,"remaining_lookups":8210,"0":{"id":"7870268","label":"Deir Al Balah","value":"7870268","lat":31.407650000000000289901436190120875835418701171875,"lon":34.36735999999999791043592267669737339019775390625,"poi_name":"Deir Al Balah","parent_id":"281132","long":34.36735999999999791043592267669737339019775390625},"1":{"id":"11184609","label":"Gaza","value":"11184609","lat":31.51064999999999827196006663143634796142578125,"lon":34.46410999999999802412276039831340312957763671875,"poi_name":"Gaza","parent_id":"281132","long":34.46410999999999802412276039831340312957763671875},"2":{"id":"7871092","label":"Khan Yunis Governorate","value":"7871092","lat":31.35000000000000142108547152020037174224853515625,"lon":34.2999999999999971578290569595992565155029296875,"poi_name":"Khan Yunis Governorate","parent_id":"281132","long":34.2999999999999971578290569595992565155029296875},"3":{"id":"7870263","label":"North Gaza","value":"7870263","lat":31.5246700000000004138200893066823482513427734375,"lon":34.535809999999997899067238904535770416259765625,"poi_name":"North Gaza","parent_id":"281132","long":34.535809999999997899067238904535770416259765625},"4":{"id":"7870260","label":"Rafah","value":"7870260","lat":31.27326000000000050249582272954285144805908203125,"lon":34.26062999999999902911440585739910602569580078125,"poi_name":"Rafah","parent_id":"281132","long":34.26062999999999902911440585739910602569580078125}}