{"success":true,"remaining_lookups":7953,"0":{"id":"686349","label":"Comuna Andreia\u015fu de Jos","value":"686349","lat":45.73669000000000295358404400758445262908935546875,"lon":26.82751999999999981127984938211739063262939453125,"poi_name":"Comuna Andreia\u015fu de Jos","parent_id":"662447","long":26.82751999999999981127984938211739063262939453125},"1":{"id":"684850","label":"Comuna Bilie\u015fti","value":"684850","lat":45.72106000000000136651578941382467746734619140625,"lon":27.34879000000000104364517028443515300750732421875,"poi_name":"Comuna Bilie\u015fti","parent_id":"662447","long":27.34879000000000104364517028443515300750732421875},"2":{"id":"684375","label":"Comuna Boghe\u015fti","value":"684375","lat":46.1621099999999984220266924239695072174072265625,"lon":27.418710000000000803765942691825330257415771484375,"poi_name":"Comuna Boghe\u015fti","parent_id":"662447","long":27.418710000000000803765942691825330257415771484375},"3":{"id":"684261","label":"Comuna Bolote\u015fti","value":"684261","lat":45.84098999999999790588844916783273220062255859375,"lon":27.04117000000000103909769677557051181793212890625,"poi_name":"Comuna Bolote\u015fti","parent_id":"662447","long":27.04117000000000103909769677557051181793212890625},"4":{"id":"684210","label":"Comuna Borde\u015fti","value":"684210","lat":45.5471500000000020236257114447653293609619140625,"lon":27.041039999999998855173544143326580524444580078125,"poi_name":"Comuna Borde\u015fti","parent_id":"662447","long":27.041039999999998855173544143326580524444580078125},"5":{"id":"683629","label":"Comuna Bro\u015fteni","value":"683629","lat":45.765659999999996898623066954314708709716796875,"lon":27.01304999999999978399500832892954349517822265625,"poi_name":"Comuna Bro\u015fteni","parent_id":"662447","long":27.01304999999999978399500832892954349517822265625},"6":{"id":"684748","label":"Comuna B\u00e2rse\u015fti","value":"684748","lat":45.90724000000000160071067512035369873046875,"lon":26.74716000000000093450580607168376445770263671875,"poi_name":"Comuna B\u00e2rse\u015fti","parent_id":"662447","long":26.74716000000000093450580607168376445770263671875},"7":{"id":"685623","label":"Comuna B\u0103le\u015fti","value":"685623","lat":45.44033999999999906549419392831623554229736328125,"lon":27.237030000000000740101313567720353603363037109375,"poi_name":"Comuna B\u0103le\u015fti","parent_id":"662447","long":27.237030000000000740101313567720353603363037109375},"8":{"id":"682078","label":"Comuna Chiojdeni","value":"682078","lat":45.56112999999999857436705497093498706817626953125,"lon":26.843889999999998252633304218761622905731201171875,"poi_name":"Comuna Chiojdeni","parent_id":"662447","long":26.843889999999998252633304218761622905731201171875},"9":{"id":"681662","label":"Comuna Cior\u0103\u015fti","value":"681662","lat":45.43869000000000113459464046172797679901123046875,"lon":27.30951999999999912915882305242121219635009765625,"poi_name":"Comuna Cior\u0103\u015fti","parent_id":"662447","long":27.30951999999999912915882305242121219635009765625},"10":{"id":"680873","label":"Comuna Corbi\u0163a","value":"680873","lat":46.16324999999999789679350215010344982147216796875,"lon":27.3086100000000016052581486292183399200439453125,"poi_name":"Comuna Corbi\u0163a","parent_id":"662447","long":27.3086100000000016052581486292183399200439453125},"11":{"id":"680508","label":"Comuna Cote\u015fti","value":"680508","lat":45.63689000000000106638253782875835895538330078125,"lon":27.07545999999999963847585604526102542877197265625,"poi_name":"Comuna Cote\u015fti","parent_id":"662447","long":27.07545999999999963847585604526102542877197265625},"12":{"id":"681860","label":"Comuna C\u00e2mpineanca","value":"681860","lat":45.70837999999999823330654180608689785003662109375,"lon":27.131910000000001303988028666935861110687255859375,"poi_name":"Comuna C\u00e2mpineanca","parent_id":"662447","long":27.131910000000001303988028666935861110687255859375},"13":{"id":"681835","label":"Comuna C\u00e2mpuri","value":"681835","lat":46.03618000000000165528035722672939300537109375,"lon":26.7542499999999989768184605054557323455810546875,"poi_name":"Comuna C\u00e2mpuri","parent_id":"662447","long":26.7542499999999989768184605054557323455810546875},"14":{"id":"681558","label":"Comuna C\u00e2rligele","value":"681558","lat":45.67723000000000155296220327727496623992919921875,"lon":27.0603100000000011959855328314006328582763671875,"poi_name":"Comuna C\u00e2rligele","parent_id":"662447","long":27.0603100000000011959855328314006328582763671875},"15":{"id":"678650","label":"Comuna Dumitre\u015fti","value":"678650","lat":45.5771500000000031604940886609256267547607421875,"lon":26.9072800000000000864019966684281826019287109375,"poi_name":"Comuna Dumitre\u015fti","parent_id":"662447","long":26.9072800000000000864019966684281826019287109375},"16":{"id":"678097","label":"Comuna Fitione\u015fti","value":"678097","lat":45.9665499999999980218490236438810825347900390625,"lon":27.0695300000000003137756721116602420806884765625,"poi_name":"Comuna Fitione\u015fti","parent_id":"662447","long":27.0695300000000003137756721116602420806884765625},"17":{"id":"8334851","label":"Comuna Garoafa","value":"8334851","lat":45.7981199999999972760633681900799274444580078125,"lon":27.250099999999999766941982670687139034271240234375,"poi_name":"Comuna Garoafa","parent_id":"662447","long":27.250099999999999766941982670687139034271240234375},"18":{"id":"676942","label":"Comuna Gole\u015fti","value":"676942","lat":45.66602999999999923375071375630795955657958984375,"lon":27.16707999999999856299837119877338409423828125,"poi_name":"Comuna Gole\u015fti","parent_id":"662447","long":27.16707999999999856299837119877338409423828125},"19":{"id":"676933","label":"Comuna Gologanu","value":"676933","lat":45.60978999999999672354533686302602291107177734375,"lon":27.2709100000000006502887117676436901092529296875,"poi_name":"Comuna Gologanu","parent_id":"662447","long":27.2709100000000006502887117676436901092529296875},"20":{"id":"676584","label":"Comuna Guge\u015fti","value":"676584","lat":45.5798199999999980036591296084225177764892578125,"lon":27.143699999999999050714905024506151676177978515625,"poi_name":"Comuna Guge\u015fti","parent_id":"662447","long":27.143699999999999050714905024506151676177978515625},"21":{"id":"676556","label":"Comuna Gura Cali\u0163ei","value":"676556","lat":45.61357000000000283534973277710378170013427734375,"lon":26.972840000000001481339495512656867504119873046875,"poi_name":"Comuna Gura Cali\u0163ei","parent_id":"662447","long":26.972840000000001481339495512656867504119873046875},"22":{"id":"676062","label":"Comuna Homocea","value":"676062","lat":46.15796000000000276486389338970184326171875,"lon":27.23107999999999861984179005958139896392822265625,"poi_name":"Comuna Homocea","parent_id":"662447","long":27.23107999999999861984179005958139896392822265625},"23":{"id":"675292","label":"Comuna Jari\u015ftea","value":"675292","lat":45.79986999999999852661858312785625457763671875,"lon":27.042570000000001328999132965691387653350830078125,"poi_name":"Comuna Jari\u015ftea","parent_id":"662447","long":27.042570000000001328999132965691387653350830078125},"24":{"id":"675207","label":"Comuna Jitia","value":"675207","lat":45.584800000000001318767317570745944976806640625,"lon":26.748760000000000758291207603178918361663818359375,"poi_name":"Comuna Jitia","parent_id":"662447","long":26.748760000000000758291207603178918361663818359375},"25":{"id":"673592","label":"Comuna Mera","value":"673592","lat":45.773269999999996571204974316060543060302734375,"lon":26.9342299999999994497557054273784160614013671875,"poi_name":"Comuna Mera","parent_id":"662447","long":26.9342299999999994497557054273784160614013671875},"26":{"id":"8334937","label":"Comuna Milcovul","value":"8334937","lat":45.65207000000000192585503100417554378509521484375,"lon":27.259280000000000399040800402872264385223388671875,"poi_name":"Comuna Milcovul","parent_id":"662447","long":27.259280000000000399040800402872264385223388671875},"27":{"id":"672717","label":"Comuna Movili\u0163a","value":"672717","lat":45.95750000000000312638803734444081783294677734375,"lon":27.10486999999999824240148882381618022918701171875,"poi_name":"Comuna Movili\u0163a","parent_id":"662447","long":27.10486999999999824240148882381618022918701171875},"28":{"id":"674065","label":"Comuna M\u0103ic\u0103ne\u015fti","value":"674065","lat":45.5006699999999995043253875337541103363037109375,"lon":27.46121000000000123009158414788544178009033203125,"poi_name":"Comuna M\u0103ic\u0103ne\u015fti","parent_id":"662447","long":27.46121000000000123009158414788544178009033203125},"29":{"id":"672356","label":"Comuna Negrile\u015fti","value":"672356","lat":45.936970000000002301021595485508441925048828125,"lon":26.7063500000000004774847184307873249053955078125,"poi_name":"Comuna Negrile\u015fti","parent_id":"662447","long":26.7063500000000004774847184307873249053955078125},"30":{"id":"672300","label":"Comuna Nereju","value":"672300","lat":45.70832999999999657347871107049286365509033203125,"lon":26.697939999999999116653270903043448925018310546875,"poi_name":"Comuna Nereju","parent_id":"662447","long":26.697939999999999116653270903043448925018310546875},"31":{"id":"672189","label":"Comuna Nistore\u015fti","value":"672189","lat":45.81577999999999661895344615913927555084228515625,"lon":26.677279999999999660076355212368071079254150390625,"poi_name":"Comuna Nistore\u015fti","parent_id":"662447","long":26.677279999999999660076355212368071079254150390625},"32":{"id":"672514","label":"Comuna N\u0103ne\u015fti","value":"672514","lat":45.57800999999999902456693234853446483612060546875,"lon":27.499880000000000990212356555275619029998779296875,"poi_name":"Comuna N\u0103ne\u015fti","parent_id":"662447","long":27.499880000000000990212356555275619029998779296875},"33":{"id":"672500","label":"Comuna N\u0103ruja","value":"672500","lat":45.82307999999999736928657512180507183074951171875,"lon":26.766169999999998907469489495269954204559326171875,"poi_name":"Comuna N\u0103ruja","parent_id":"662447","long":26.766169999999998907469489495269954204559326171875},"34":{"id":"8334996","label":"Comuna Obreji\u0163a","value":"8334996","lat":45.5010199999999969122654874809086322784423828125,"lon":27.08973999999999904275682638399302959442138671875,"poi_name":"Comuna Obreji\u0163a","parent_id":"662447","long":27.08973999999999904275682638399302959442138671875},"35":{"id":"671441","label":"Comuna Paltin","value":"671441","lat":45.77917999999999665305949747562408447265625,"lon":26.747699999999998254907040973193943500518798828125,"poi_name":"Comuna Paltin","parent_id":"662447","long":26.747699999999998254907040973193943500518798828125},"36":{"id":"670399","label":"Comuna Ploscu\u0163eni","value":"670399","lat":46.0610300000000023601387511007487773895263671875,"lon":27.265950000000000130739863379858434200286865234375,"poi_name":"Comuna Ploscu\u0163eni","parent_id":"662447","long":27.265950000000000130739863379858434200286865234375},"37":{"id":"8334990","label":"Comuna Poiana Cristei","value":"8334990","lat":45.6688199999999966394170769490301609039306640625,"lon":26.971250000000001278976924368180334568023681640625,"poi_name":"Comuna Poiana Cristei","parent_id":"662447","long":26.971250000000001278976924368180334568023681640625},"38":{"id":"669877","label":"Comuna Pope\u015fti","value":"669877","lat":45.58982999999999918827597866766154766082763671875,"lon":27.065599999999999880628820392303168773651123046875,"poi_name":"Comuna Pope\u015fti","parent_id":"662447","long":27.065599999999999880628820392303168773651123046875},"39":{"id":"669502","label":"Comuna Pufe\u015fti","value":"669502","lat":46.011110000000002173692337237298488616943359375,"lon":27.20900999999999925194060779176652431488037109375,"poi_name":"Comuna Pufe\u015fti","parent_id":"662447","long":27.20900999999999925194060779176652431488037109375},"40":{"id":"671222","label":"Comuna P\u0103ule\u015fti","value":"671222","lat":45.88712000000000301724867313168942928314208984375,"lon":26.68703000000000002955857780762016773223876953125,"poi_name":"Comuna P\u0103ule\u015fti","parent_id":"662447","long":26.68703000000000002955857780762016773223876953125},"41":{"id":"671207","label":"Comuna P\u0103une\u015fti","value":"671207","lat":46.0406600000000025829649530351161956787109375,"lon":27.103359999999998564135239575989544391632080078125,"poi_name":"Comuna P\u0103une\u015fti","parent_id":"662447","long":27.103359999999998564135239575989544391632080078125},"42":{"id":"668992","label":"Comuna Reghiu","value":"668992","lat":45.79672000000000053887561080045998096466064453125,"lon":26.83648000000000166664904099889099597930908203125,"poi_name":"Comuna Reghiu","parent_id":"662447","long":26.83648000000000166664904099889099597930908203125},"43":{"id":"668493","label":"Comuna Rugine\u015fti","value":"668493","lat":46.0788500000000027512214728631079196929931640625,"lon":27.118030000000000967474989010952413082122802734375,"poi_name":"Comuna Rugine\u015fti","parent_id":"662447","long":27.118030000000000967474989010952413082122802734375},"44":{"id":"669347","label":"Comuna R\u0103coasa","value":"669347","lat":45.99786000000000285581336356699466705322265625,"lon":26.885480000000001155058271251618862152099609375,"poi_name":"Comuna R\u0103coasa","parent_id":"662447","long":26.885480000000001155058271251618862152099609375},"45":{"id":"669136","label":"Comuna R\u0103stoaca","value":"669136","lat":45.66082999999999714191289967857301235198974609375,"lon":27.28723000000000098452801466919481754302978515625,"poi_name":"Comuna R\u0103stoaca","parent_id":"662447","long":27.28723000000000098452801466919481754302978515625},"46":{"id":"667215","label":"Comuna Sihlea","value":"667215","lat":45.49398000000000052978066378273069858551025390625,"lon":27.1562899999999984856913215480744838714599609375,"poi_name":"Comuna Sihlea","parent_id":"662447","long":27.1562899999999984856913215480744838714599609375},"47":{"id":"666675","label":"Comuna Slobozia Bradului","value":"666675","lat":45.4920299999999997453414835035800933837890625,"lon":27.039770000000000749196260585449635982513427734375,"poi_name":"Comuna Slobozia Bradului","parent_id":"662447","long":27.039770000000000749196260585449635982513427734375},"48":{"id":"666672","label":"Comuna Slobozia-Cior\u0103\u015fti","value":"666672","lat":45.6060599999999993769961292855441570281982421875,"lon":27.213989999999999014335116953589022159576416015625,"poi_name":"Comuna Slobozia-Cior\u0103\u015fti","parent_id":"662447","long":27.213989999999999014335116953589022159576416015625},"49":{"id":"666392","label":"Comuna Soveja","value":"666392","lat":45.99705000000000154614099301397800445556640625,"lon":26.653510000000000701447788742370903491973876953125,"poi_name":"Comuna Soveja","parent_id":"662447","long":26.653510000000000701447788742370903491973876953125},"50":{"id":"666331","label":"Comuna Spulber","value":"666331","lat":45.74654000000000309000824927352368831634521484375,"lon":26.739249999999998408384271897375583648681640625,"poi_name":"Comuna Spulber","parent_id":"662447","long":26.739249999999998408384271897375583648681640625},"51":{"id":"666006","label":"Comuna Str\u0103oane","value":"666006","lat":45.9289500000000003865352482534945011138916015625,"lon":27.043589999999998241264620446600019931793212890625,"poi_name":"Comuna Str\u0103oane","parent_id":"662447","long":27.043589999999998241264620446600019931793212890625},"52":{"id":"665753","label":"Comuna Suraia","value":"665753","lat":45.6806600000000031513991416431963443756103515625,"lon":27.384190000000000253521648119203746318817138671875,"poi_name":"Comuna Suraia","parent_id":"662447","long":27.384190000000000253521648119203746318817138671875},"53":{"id":"664506","label":"Comuna Tulnici","value":"664506","lat":45.93283000000000271256794803775846958160400390625,"lon":26.60452000000000083446138887666165828704833984375,"poi_name":"Comuna Tulnici","parent_id":"662447","long":26.60452000000000083446138887666165828704833984375},"54":{"id":"665094","label":"Comuna T\u00e2mboe\u015fti","value":"665094","lat":45.51791999999999660531102563254535198211669921875,"lon":27.04554999999999864712663111276924610137939453125,"poi_name":"Comuna T\u00e2mboe\u015fti","parent_id":"662447","long":27.04554999999999864712663111276924610137939453125},"55":{"id":"8334857","label":"Comuna T\u00e3t\u00e3ranu","value":"8334857","lat":45.516210000000000945874489843845367431640625,"lon":27.30930000000000035242919693700969219207763671875,"poi_name":"Comuna T\u00e3t\u00e3ranu","parent_id":"662447","long":27.30930000000000035242919693700969219207763671875},"56":{"id":"665543","label":"Comuna T\u0103n\u0103soaia","value":"665543","lat":46.10161000000000086629370343871414661407470703125,"lon":27.379819999999998714201865368522703647613525390625,"poi_name":"Comuna T\u0103n\u0103soaia","parent_id":"662447","long":27.379819999999998714201865368522703647613525390625},"57":{"id":"664168","label":"Comuna Ureche\u015fti","value":"664168","lat":45.6018100000000004001776687800884246826171875,"lon":27.0714100000000001955413608811795711517333984375,"poi_name":"Comuna Ureche\u015fti","parent_id":"662447","long":27.0714100000000001955413608811795711517333984375},"58":{"id":"663445","label":"Comuna Valea S\u0103rii","value":"663445","lat":45.87892000000000081172402133233845233917236328125,"lon":26.808229999999998227622199920006096363067626953125,"poi_name":"Comuna Valea S\u0103rii","parent_id":"662447","long":26.808229999999998227622199920006096363067626953125},"59":{"id":"662966","label":"Comuna Vidra","value":"662966","lat":45.91420000000000101181285572238266468048095703125,"lon":26.90505999999999886540535953827202320098876953125,"poi_name":"Comuna Vidra","parent_id":"662447","long":26.90505999999999886540535953827202320098876953125},"60":{"id":"662798","label":"Comuna Vintileasca","value":"662798","lat":45.6296999999999997044142219237983226776123046875,"lon":26.726079999999999614601620123721659183502197265625,"poi_name":"Comuna Vintileasca","parent_id":"662447","long":26.726079999999999614601620123721659183502197265625},"61":{"id":"8334772","label":"Comuna Vizantea-Livezi","value":"8334772","lat":45.96233000000000146201273309998214244842529296875,"lon":26.813469999999998805151335545815527439117431640625,"poi_name":"Comuna Vizantea-Livezi","parent_id":"662447","long":26.813469999999998805151335545815527439117431640625},"62":{"id":"662436","label":"Comuna Vr\u00e2ncioaia","value":"662436","lat":45.87169000000000096406438387930393218994140625,"lon":26.709710000000001173248165287077426910400390625,"poi_name":"Comuna Vr\u00e2ncioaia","parent_id":"662447","long":26.709710000000001173248165287077426910400390625},"63":{"id":"662384","label":"Comuna Vulturu","value":"662384","lat":45.60782999999999987039700499735772609710693359375,"lon":27.422809999999998353814589790999889373779296875,"poi_name":"Comuna Vulturu","parent_id":"662447","long":27.422809999999998353814589790999889373779296875},"64":{"id":"662831","label":"Comuna V\u00e2n\u0103tori","value":"662831","lat":45.73875000000000312638803734444081783294677734375,"lon":27.269510000000000360387275577522814273834228515625,"poi_name":"Comuna V\u00e2n\u0103tori","parent_id":"662447","long":27.269510000000000360387275577522814273834228515625},"65":{"id":"662737","label":"Comuna V\u00e2rte\u015fcoiu","value":"662737","lat":45.7246499999999969077180139720439910888671875,"lon":27.064710000000001599573806743137538433074951171875,"poi_name":"Comuna V\u00e2rte\u015fcoiu","parent_id":"662447","long":27.064710000000001599573806743137538433074951171875},"66":{"id":"665149","label":"Comuna \u0162ife\u015fti","value":"665149","lat":45.8532900000000012141754268668591976165771484375,"lon":27.103870000000000572981662116944789886474609375,"poi_name":"Comuna \u0162ife\u015fti","parent_id":"662447","long":27.103870000000000572981662116944789886474609375},"67":{"id":"678699","label":"Comun\u0103 Dumbr\u0103veni","value":"678699","lat":45.55416000000000309455572278238832950592041015625,"lon":27.09037000000000006139089236967265605926513671875,"poi_name":"Comun\u0103 Dumbr\u0103veni","parent_id":"662447","long":27.09037000000000006139089236967265605926513671875},"68":{"id":"8334958","label":"Municipiul  Adjud","value":"8334958","lat":46.11464000000000140744305099360644817352294921875,"lon":27.192840000000000344471118296496570110321044921875,"poi_name":"Municipiul  Adjud","parent_id":"662447","long":27.192840000000000344471118296496570110321044921875},"69":{"id":"8334936","label":"Municipiul Foc\u015fani","value":"8334936","lat":45.69004000000000331738192471675574779510498046875,"lon":27.227740000000000719637682777829468250274658203125,"poi_name":"Municipiul Foc\u015fani","parent_id":"662447","long":27.227740000000000719637682777829468250274658203125},"70":{"id":"8334935","label":"Ora\u015f M\u00e3r\u00e3\u015fe\u015fti","value":"8334935","lat":45.904460000000000263753463514149188995361328125,"lon":27.22305000000000063664629124104976654052734375,"poi_name":"Ora\u015f M\u00e3r\u00e3\u015fe\u015fti","parent_id":"662447","long":27.22305000000000063664629124104976654052734375},"71":{"id":"8334932","label":"Ora\u015f Odobe\u015fti","value":"8334932","lat":45.75010999999999938836481305770576000213623046875,"lon":27.087540000000000617319528828375041484832763671875,"poi_name":"Ora\u015f Odobe\u015fti","parent_id":"662447","long":27.087540000000000617319528828375041484832763671875},"72":{"id":"8334934","label":"Ora\u015f Panciu","value":"8334934","lat":45.906610000000000582076609134674072265625,"lon":27.093579999999999330384525819681584835052490234375,"poi_name":"Ora\u015f Panciu","parent_id":"662447","long":27.093579999999999330384525819681584835052490234375}}