{"success":true,"remaining_lookups":7961,"0":{"id":"686400","label":"Comuna Alunu","value":"686400","lat":45.0095400000000012141754268668591976165771484375,"lon":23.817599999999998772182152606546878814697265625,"poi_name":"Comuna Alunu","parent_id":"662892","long":23.817599999999998772182152606546878814697265625},"1":{"id":"686387","label":"Comuna Am\u0103r\u0103\u015fti","value":"686387","lat":44.76106999999999658257365808822214603424072265625,"lon":24.143820000000001613216227269731462001800537109375,"poi_name":"Comuna Am\u0103r\u0103\u015fti","parent_id":"662892","long":24.143820000000001613216227269731462001800537109375},"2":{"id":"684996","label":"Comuna Berisl\u0103ve\u015fti","value":"684996","lat":45.264060000000000627551344223320484161376953125,"lon":24.437850000000000960653778747655451297760009765625,"poi_name":"Comuna Berisl\u0103ve\u015fti","parent_id":"662892","long":24.437850000000000960653778747655451297760009765625},"3":{"id":"684327","label":"Comuna Boi\u015foara","value":"684327","lat":45.44232000000000226691554416902363300323486328125,"lon":24.37462000000000017507773009128868579864501953125,"poi_name":"Comuna Boi\u015foara","parent_id":"662892","long":24.37462000000000017507773009128868579864501953125},"4":{"id":"8334902","label":"Comuna Bude\u015fti","value":"8334902","lat":45.0471399999999988494892022572457790374755859375,"lon":24.366029999999998523207977996207773685455322265625,"poi_name":"Comuna Bude\u015fti","parent_id":"662892","long":24.366029999999998523207977996207773685455322265625},"5":{"id":"683345","label":"Comuna Bujoreni","value":"683345","lat":45.16235000000000354702933691442012786865234375,"lon":24.36592999999999875626599532552063465118408203125,"poi_name":"Comuna Bujoreni","parent_id":"662892","long":24.36592999999999875626599532552063465118408203125},"6":{"id":"683273","label":"Comuna Bune\u015fti","value":"683273","lat":45.10202000000000310819814330898225307464599609375,"lon":24.213969999999999771489456179551780223846435546875,"poi_name":"Comuna Bune\u015fti","parent_id":"662892","long":24.213969999999999771489456179551780223846435546875},"7":{"id":"685381","label":"Comuna B\u0103rb\u0103te\u015fti","value":"685381","lat":45.14153999999999911096892901696264743804931640625,"lon":24.109329999999999927240423858165740966796875,"poi_name":"Comuna B\u0103rb\u0103te\u015fti","parent_id":"662892","long":24.109329999999999927240423858165740966796875},"8":{"id":"8334930","label":"Comuna Cerni\u015foara","value":"8334930","lat":45.03432000000000101636032923124730587005615234375,"lon":24.004870000000000374029696104116737842559814453125,"poi_name":"Comuna Cerni\u015foara","parent_id":"662892","long":24.004870000000000374029696104116737842559814453125},"9":{"id":"680923","label":"Comuna Cop\u0103ceni","value":"680923","lat":44.9822300000000012687451089732348918914794921875,"lon":23.981639999999998735802364535629749298095703125,"poi_name":"Comuna Cop\u0103ceni","parent_id":"662892","long":23.981639999999998735802364535629749298095703125},"10":{"id":"680565","label":"Comuna Coste\u015fti","value":"680565","lat":45.1693599999999975125319906510412693023681640625,"lon":24.05812999999999846068021724931895732879638671875,"poi_name":"Comuna Coste\u015fti","parent_id":"662892","long":24.05812999999999846068021724931895732879638671875},"11":{"id":"680278","label":"Comuna Cre\u0163eni","value":"680278","lat":44.70571000000000339014150085859000682830810546875,"lon":24.18008999999999986130205797962844371795654296875,"poi_name":"Comuna Cre\u0163eni","parent_id":"662892","long":24.18008999999999986130205797962844371795654296875},"12":{"id":"681925","label":"Comuna C\u00e2ineni","value":"681925","lat":45.482259999999996580299921333789825439453125,"lon":24.29984999999999928377292235381901264190673828125,"poi_name":"Comuna C\u00e2ineni","parent_id":"662892","long":24.29984999999999928377292235381901264190673828125},"13":{"id":"679421","label":"Comuna Dicule\u015fti","value":"679421","lat":44.6097400000000021691448637284338474273681640625,"lon":23.987950000000001438138497178442776203155517578125,"poi_name":"Comuna Dicule\u015fti","parent_id":"662892","long":23.987950000000001438138497178442776203155517578125},"14":{"id":"678940","label":"Comuna Dr\u0103goe\u015fti","value":"678940","lat":44.80393000000000114368958747945725917816162109375,"lon":24.294000000000000483169060316868126392364501953125,"poi_name":"Comuna Dr\u0103goe\u015fti","parent_id":"662892","long":24.294000000000000483169060316868126392364501953125},"15":{"id":"679825","label":"Comuna D\u0103e\u015fti","value":"679825","lat":45.1858399999999988949639373458921909332275390625,"lon":24.393370000000000885620465851388871669769287109375,"poi_name":"Comuna D\u0103e\u015fti","parent_id":"662892","long":24.393370000000000885620465851388871669769287109375},"16":{"id":"679747","label":"Comuna D\u0103nicei","value":"679747","lat":44.91181000000000267391442321240901947021484375,"lon":24.445029999999999148485585465095937252044677734375,"poi_name":"Comuna D\u0103nicei","parent_id":"662892","long":24.445029999999999148485585465095937252044677734375},"17":{"id":"677893","label":"Comuna Fr\u00e2nce\u015fti-M\u00e2n\u0103stireni","value":"677893","lat":45.02358000000000259888111031614243984222412109375,"lon":24.1679400000000015324985724873840808868408203125,"poi_name":"Comuna Fr\u00e2nce\u015fti-M\u00e2n\u0103stireni","parent_id":"662892","long":24.1679400000000015324985724873840808868408203125},"18":{"id":"8334933","label":"Comuna F\u00e2rt\u00e3\u0163e\u015fti","value":"8334933","lat":44.77577000000000140289557748474180698394775390625,"lon":23.980799999999998561861502821557223796844482421875,"poi_name":"Comuna F\u00e2rt\u00e3\u0163e\u015fti","parent_id":"662892","long":23.980799999999998561861502821557223796844482421875},"19":{"id":"678382","label":"Comuna F\u0103ure\u015fti","value":"678382","lat":44.57350999999999885403667576611042022705078125,"lon":24.00871000000000066165739553980529308319091796875,"poi_name":"Comuna F\u0103ure\u015fti","parent_id":"662892","long":24.00871000000000066165739553980529308319091796875},"20":{"id":"677649","label":"Comuna Galicea","value":"677649","lat":44.94427999999999912006387603469192981719970703125,"lon":24.296330000000001092530510504730045795440673828125,"poi_name":"Comuna Galicea","parent_id":"662892","long":24.296330000000001092530510504730045795440673828125},"21":{"id":"677330","label":"Comuna Ghioroiu","value":"677330","lat":44.6786799999999999499777914024889469146728515625,"lon":23.84740000000000037516656448133289813995361328125,"poi_name":"Comuna Ghioroiu","parent_id":"662892","long":23.84740000000000037516656448133289813995361328125},"22":{"id":"677081","label":"Comuna Gl\u0103vile","value":"677081","lat":44.80422999999999689180185669101774692535400390625,"lon":24.122550000000000380850906367413699626922607421875,"poi_name":"Comuna Gl\u0103vile","parent_id":"662892","long":24.122550000000000380850906367413699626922607421875},"23":{"id":"676943","label":"Comuna Gole\u015fti","value":"676943","lat":45.11370000000000146656020660884678363800048828125,"lon":24.473949999999998539124135277234017848968505859375,"poi_name":"Comuna Gole\u015fti","parent_id":"662892","long":24.473949999999998539124135277234017848968505859375},"24":{"id":"676809","label":"Comuna Gr\u0103di\u015ftea","value":"676809","lat":44.89929000000000058889781939797103404998779296875,"lon":23.816210000000001656417225603945553302764892578125,"poi_name":"Comuna Gr\u0103di\u015ftea","parent_id":"662892","long":23.816210000000001656417225603945553302764892578125},"25":{"id":"676425","label":"Comuna Gu\u015foeni","value":"676425","lat":44.72133999999999787178239785134792327880859375,"lon":24.126960000000000405862010666169226169586181640625,"poi_name":"Comuna Gu\u015foeni","parent_id":"662892","long":24.126960000000000405862010666169226169586181640625},"26":{"id":"675538","label":"Comuna Ione\u015fti","value":"675538","lat":44.85428999999999888359525357373058795928955078125,"lon":24.231339999999999434976416523568332195281982421875,"poi_name":"Comuna Ione\u015fti","parent_id":"662892","long":24.231339999999999434976416523568332195281982421875},"27":{"id":"675070","label":"Comuna Lalo\u015fu","value":"675070","lat":44.53045999999999793317329022102057933807373046875,"lon":24.046890000000001208491084980778396129608154296875,"poi_name":"Comuna Lalo\u015fu","parent_id":"662892","long":24.046890000000001208491084980778396129608154296875},"28":{"id":"8334967","label":"Comuna Livezi","value":"8334967","lat":44.8370000000000032969182939268648624420166015625,"lon":23.83209000000000088448359747417271137237548828125,"poi_name":"Comuna Livezi","parent_id":"662892","long":23.83209000000000088448359747417271137237548828125},"29":{"id":"674313","label":"Comuna Lunge\u015fti","value":"674313","lat":44.6027100000000018553691916167736053466796875,"lon":24.178940000000000765112417866475880146026611328125,"poi_name":"Comuna Lunge\u015fti","parent_id":"662892","long":24.178940000000000765112417866475880146026611328125},"30":{"id":"675091","label":"Comuna L\u0103custeni","value":"675091","lat":44.708629999999999427018337883055210113525390625,"lon":23.892140000000001265334503841586410999298095703125,"poi_name":"Comuna L\u0103custeni","parent_id":"662892","long":23.892140000000001265334503841586410999298095703125},"31":{"id":"675084","label":"Comuna L\u0103de\u015fti","value":"675084","lat":44.87013999999999924739313428290188312530517578125,"lon":24.04350000000000164845914696343243122100830078125,"poi_name":"Comuna L\u0103de\u015fti","parent_id":"662892","long":24.04350000000000164845914696343243122100830078125},"32":{"id":"675042","label":"Comuna L\u0103pu\u015fata","value":"675042","lat":44.9259100000000017871570889838039875030517578125,"lon":24.009759999999999990905052982270717620849609375,"poi_name":"Comuna L\u0103pu\u015fata","parent_id":"662892","long":24.009759999999999990905052982270717620849609375},"33":{"id":"674037","label":"Comuna Malaia","value":"674037","lat":45.3642899999999968940755934454500675201416015625,"lon":24.044560000000000599129634792916476726531982421875,"poi_name":"Comuna Malaia","parent_id":"662892","long":24.044560000000000599129634792916476726531982421875},"34":{"id":"673680","label":"Comuna Matee\u015fti","value":"673680","lat":45.06783999999999679175743949599564075469970703125,"lon":23.8549000000000006593836587853729724884033203125,"poi_name":"Comuna Matee\u015fti","parent_id":"662892","long":23.8549000000000006593836587853729724884033203125},"35":{"id":"673410","label":"Comuna Mih\u0103e\u015fti","value":"673410","lat":45.0328200000000009595169103704392910003662109375,"lon":24.24501000000000061618266045115888118743896484375,"poi_name":"Comuna Mih\u0103e\u015fti","parent_id":"662892","long":24.24501000000000061618266045115888118743896484375},"36":{"id":"673327","label":"Comuna Milcoiu","value":"673327","lat":45.04046000000000304908098769374191761016845703125,"lon":24.467860000000001718944986350834369659423828125,"poi_name":"Comuna Milcoiu","parent_id":"662892","long":24.467860000000001718944986350834369659423828125},"37":{"id":"673044","label":"Comuna Mitrofani","value":"673044","lat":44.7510400000000032605385058559477329254150390625,"lon":24.202719999999999345163814723491668701171875,"poi_name":"Comuna Mitrofani","parent_id":"662892","long":24.202719999999999345163814723491668701171875},"38":{"id":"672703","label":"Comuna Muereasca","value":"672703","lat":45.20364000000000004320099833421409130096435546875,"lon":24.29726000000000141199052450247108936309814453125,"poi_name":"Comuna Muereasca","parent_id":"662892","long":24.29726000000000141199052450247108936309814453125},"39":{"id":"671585","label":"Comuna M\u0103ciuca","value":"671585","lat":44.75806999999999646888682036660611629486083984375,"lon":24.024080000000001433591023669578135013580322265625,"poi_name":"Comuna M\u0103ciuca","parent_id":"662892","long":24.024080000000001433591023669578135013580322265625},"40":{"id":"674198","label":"Comuna M\u0103dulari-Beica","value":"674198","lat":44.67819999999999680539986002258956432342529296875,"lon":24.101209999999998245812093955464661121368408203125,"poi_name":"Comuna M\u0103dulari-Beica","parent_id":"662892","long":24.101209999999998245812093955464661121368408203125},"41":{"id":"674022","label":"Comuna M\u0103ld\u0103re\u015fti","value":"674022","lat":45.1025800000000032241587177850306034088134765625,"lon":24.0061299999999988585841492749750614166259765625,"poi_name":"Comuna M\u0103ld\u0103re\u015fti","parent_id":"662892","long":24.0061299999999988585841492749750614166259765625},"42":{"id":"8334802","label":"Comuna Nicolae B\u00e3lcescu","value":"8334802","lat":44.9876000000000004774847184307873249053955078125,"lon":24.4198999999999983856469043530523777008056640625,"poi_name":"Comuna Nicolae B\u00e3lcescu","parent_id":"662892","long":24.4198999999999983856469043530523777008056640625},"43":{"id":"682621","label":"Comuna Olanu","value":"682621","lat":44.8741600000000033787728170864284038543701171875,"lon":24.291689999999999116653270903043448925018310546875,"poi_name":"Comuna Olanu","parent_id":"662892","long":24.291689999999999116653270903043448925018310546875},"44":{"id":"671704","label":"Comuna Orle\u015fti","value":"671704","lat":44.78125,"lon":24.246230000000000615045792073942720890045166015625,"poi_name":"Comuna Orle\u015fti","parent_id":"662892","long":24.246230000000000615045792073942720890045166015625},"45":{"id":"671599","label":"Comuna Ote\u015fani","value":"671599","lat":45.04807000000000272166289505548775196075439453125,"lon":24.0398899999999997589839040301740169525146484375,"poi_name":"Comuna Ote\u015fani","parent_id":"662892","long":24.0398899999999997589839040301740169525146484375},"46":{"id":"671115","label":"Comuna Peri\u015fani","value":"671115","lat":45.3792499999999989768184605054557323455810546875,"lon":24.407759999999999678266249247826635837554931640625,"poi_name":"Comuna Peri\u015fani","parent_id":"662892","long":24.407759999999999678266249247826635837554931640625},"47":{"id":"671079","label":"Comuna Pesceana","value":"671079","lat":44.88168999999999897454472375102341175079345703125,"lon":24.127970000000001249418346560560166835784912109375,"poi_name":"Comuna Pesceana","parent_id":"662892","long":24.127970000000001249418346560560166835784912109375},"48":{"id":"670859","label":"Comuna Pietrari","value":"670859","lat":45.1158599999999978535925038158893585205078125,"lon":24.102419999999998623252395191229879856109619140625,"poi_name":"Comuna Pietrari","parent_id":"662892","long":24.102419999999998623252395191229879856109619140625},"49":{"id":"8334823","label":"Comuna Pope\u015fti","value":"8334823","lat":44.97908000000000328100213664583861827850341796875,"lon":24.110140000000001236912794411182403564453125,"poi_name":"Comuna Pope\u015fti","parent_id":"662892","long":24.110140000000001236912794411182403564453125},"50":{"id":"669547","label":"Comuna Prundeni","value":"669547","lat":44.734600000000000363797880709171295166015625,"lon":24.24862999999999857436705497093498706817626953125,"poi_name":"Comuna Prundeni","parent_id":"662892","long":24.24862999999999857436705497093498706817626953125},"51":{"id":"671197","label":"Comuna P\u0103u\u015fe\u015fti","value":"671197","lat":45.07341000000000263980837189592421054840087890625,"lon":24.1355199999999996407495927996933460235595703125,"poi_name":"Comuna P\u0103u\u015fe\u015fti","parent_id":"662892","long":24.1355199999999996407495927996933460235595703125},"52":{"id":"671199","label":"Comuna P\u0103u\u015fe\u015fti-M\u0103gla\u015fi","value":"671199","lat":45.141649999999998499333742074668407440185546875,"lon":24.24474000000000017962520360015332698822021484375,"poi_name":"Comuna P\u0103u\u015fe\u015fti-M\u0103gla\u015fi","parent_id":"662892","long":24.24474000000000017962520360015332698822021484375},"53":{"id":"669316","label":"Comuna Racovi\u0163a","value":"669316","lat":45.41199999999999903366187936626374721527099609375,"lon":24.3179200000000008685674401931464672088623046875,"poi_name":"Comuna Racovi\u0163a","parent_id":"662892","long":24.3179200000000008685674401931464672088623046875},"54":{"id":"668765","label":"Comuna Roe\u015fti","value":"668765","lat":44.92016000000000275349520961754024028778076171875,"lon":24.077929999999998500470610451884567737579345703125,"poi_name":"Comuna Roe\u015fti","parent_id":"662892","long":24.077929999999998500470610451884567737579345703125},"55":{"id":"668627","label":"Comuna Ro\u015fiile","value":"668627","lat":44.88537000000000176669345819391310214996337890625,"lon":23.9243799999999993133315001614391803741455078125,"poi_name":"Comuna Ro\u015fiile","parent_id":"662892","long":23.9243799999999993133315001614391803741455078125},"56":{"id":"668455","label":"Comuna Runcu","value":"668455","lat":45.18684999999999973852027324028313159942626953125,"lon":24.459790000000001697344487183727324008941650390625,"poi_name":"Comuna Runcu","parent_id":"662892","long":24.459790000000001697344487183727324008941650390625},"57":{"id":"667563","label":"Comuna Scundu","value":"667563","lat":44.8487999999999971123543218709528446197509765625,"lon":24.179809999999999803321770741604268550872802734375,"poi_name":"Comuna Scundu","parent_id":"662892","long":24.179809999999999803321770741604268550872802734375},"58":{"id":"667042","label":"Comuna Sine\u015fti","value":"667042","lat":44.932310000000001082298695109784603118896484375,"lon":23.839510000000000644604369881562888622283935546875,"poi_name":"Comuna Sine\u015fti","parent_id":"662892","long":23.839510000000000644604369881562888622283935546875},"59":{"id":"666746","label":"Comuna Sl\u0103tioara","value":"666746","lat":45.1239599999999967394614941440522670745849609375,"lon":23.88580999999999932015271042473614215850830078125,"poi_name":"Comuna Sl\u0103tioara","parent_id":"662892","long":23.88580999999999932015271042473614215850830078125},"60":{"id":"666063","label":"Comuna Stoene\u015fti","value":"666063","lat":45.14715000000000344471118296496570110321044921875,"lon":24.1633700000000004592948243953287601470947265625,"poi_name":"Comuna Stoene\u015fti","parent_id":"662892","long":24.1633700000000004592948243953287601470947265625},"61":{"id":"666049","label":"Comuna Stoile\u015fti","value":"666049","lat":44.9146300000000024965629563666880130767822265625,"lon":24.359919999999998907469489495269954204559326171875,"poi_name":"Comuna Stoile\u015fti","parent_id":"662892","long":24.359919999999998907469489495269954204559326171875},"62":{"id":"665929","label":"Comuna Stroe\u015fti","value":"665929","lat":45.07518999999999920191839919425547122955322265625,"lon":23.926449999999999107558323885314166545867919921875,"poi_name":"Comuna Stroe\u015fti","parent_id":"662892","long":23.926449999999999107558323885314166545867919921875},"63":{"id":"666294","label":"Comuna St\u0103ne\u015fti","value":"666294","lat":44.81358999999999781493897899053990840911865234375,"lon":24.04263999999999867895894567482173442840576171875,"poi_name":"Comuna St\u0103ne\u015fti","parent_id":"662892","long":24.04263999999999867895894567482173442840576171875},"64":{"id":"665662","label":"Comuna Sute\u015fti","value":"665662","lat":44.671030000000001791704562492668628692626953125,"lon":24.2189300000000002910383045673370361328125,"poi_name":"Comuna Sute\u015fti","parent_id":"662892","long":24.2189300000000002910383045673370361328125},"65":{"id":"668228","label":"Comuna S\u0103l\u0103trucel","value":"668228","lat":45.266840000000001964508555829524993896484375,"lon":24.38920999999999850160747882910072803497314453125,"poi_name":"Comuna S\u0103l\u0103trucel","parent_id":"662892","long":24.38920999999999850160747882910072803497314453125},"66":{"id":"665203","label":"Comuna Tetoiu","value":"665203","lat":44.78374000000000165755409398116171360015869140625,"lon":23.91734999999999899955582804977893829345703125,"poi_name":"Comuna Tetoiu","parent_id":"662892","long":23.91734999999999899955582804977893829345703125},"67":{"id":"664899","label":"Comuna Tite\u015fti","value":"664899","lat":45.41971000000000202589944819919764995574951171875,"lon":24.393229999999999080273482832126319408416748046875,"poi_name":"Comuna Tite\u015fti","parent_id":"662892","long":24.393229999999999080273482832126319408416748046875},"68":{"id":"664794","label":"Comuna Tom\u015fani","value":"664794","lat":45.09606000000000136651578941382467746734619140625,"lon":24.060199999999998254907040973193943500518798828125,"poi_name":"Comuna Tom\u015fani","parent_id":"662892","long":24.060199999999998254907040973193943500518798828125},"69":{"id":"663967","label":"Comuna Vaideeni","value":"663967","lat":45.1732200000000005957190296612679958343505859375,"lon":23.88622000000000156205715029500424861907958984375,"poi_name":"Comuna Vaideeni","parent_id":"662892","long":23.88622000000000156205715029500424861907958984375},"70":{"id":"8334800","label":"Comuna Valea Mare","value":"8334800","lat":44.67374000000000222598828258924186229705810546875,"lon":24.000550000000000494537744089029729366302490234375,"poi_name":"Comuna Valea Mare","parent_id":"662892","long":24.000550000000000494537744089029729366302490234375},"71":{"id":"662616","label":"Comuna Vl\u0103de\u015fti","value":"662616","lat":45.13573999999999841747921891510486602783203125,"lon":24.301809999999999689634933019988238811492919921875,"poi_name":"Comuna Vl\u0103de\u015fti","parent_id":"662892","long":24.301809999999999689634933019988238811492919921875},"72":{"id":"662540","label":"Comuna Voice\u015fti","value":"662540","lat":44.59651000000000209411155083216726779937744140625,"lon":24.299800000000001176658770418725907802581787109375,"poi_name":"Comuna Voice\u015fti","parent_id":"662892","long":24.299800000000001176658770418725907802581787109375},"73":{"id":"662528","label":"Comuna Voineasa","value":"662528","lat":45.41127999999999786950866109691560268402099609375,"lon":23.97610999999999847887011128477752208709716796875,"poi_name":"Comuna Voineasa","parent_id":"662892","long":23.97610999999999847887011128477752208709716796875},"74":{"id":"662273","label":"Comuna Z\u0103treni","value":"662273","lat":44.77069000000000187355908565223217010498046875,"lon":23.843199999999999505462255910970270633697509765625,"poi_name":"Comuna Z\u0103treni","parent_id":"662892","long":23.843199999999999505462255910970270633697509765625},"75":{"id":"666818","label":"Comuna \u015eirineasa","value":"666818","lat":44.9387100000000003774403012357652187347412109375,"lon":24.185700000000000642330633127130568027496337890625,"poi_name":"Comuna \u015eirineasa","parent_id":"662892","long":24.185700000000000642330633127130568027496337890625},"76":{"id":"666227","label":"Comuna \u015etef\u0103ne\u015fti","value":"666227","lat":44.60540999999999911551640252582728862762451171875,"lon":24.233380000000000364934749086387455463409423828125,"poi_name":"Comuna \u015etef\u0103ne\u015fti","parent_id":"662892","long":24.233380000000000364934749086387455463409423828125},"77":{"id":"8334895","label":"Comuna \u015eu\u015fani","value":"8334895","lat":44.6100899999999995770849636755883693695068359375,"lon":24.100210000000000576392267248593270778656005859375,"poi_name":"Comuna \u015eu\u015fani","parent_id":"662892","long":24.100210000000000576392267248593270778656005859375},"78":{"id":"8334928","label":"Municipiul Dr\u00e3g\u00e3\u015fani","value":"8334928","lat":44.64414000000000015688783605583012104034423828125,"lon":24.246320000000000760564944357611238956451416015625,"poi_name":"Municipiul Dr\u00e3g\u00e3\u015fani","parent_id":"662892","long":24.246320000000000760564944357611238956451416015625},"79":{"id":"8334979","label":"Municipiul R\u00e2mnicu V\u00e2lcea","value":"8334979","lat":45.09447999999999723286236985586583614349365234375,"lon":24.35215000000000173940861714072525501251220703125,"poi_name":"Municipiul R\u00e2mnicu V\u00e2lcea","parent_id":"662892","long":24.35215000000000173940861714072525501251220703125},"80":{"id":"8334926","label":"Ora\u015f Berbe\u015fti","value":"8334926","lat":44.9991500000000002046363078989088535308837890625,"lon":23.88013000000000118916432256810367107391357421875,"poi_name":"Ora\u015f Berbe\u015fti","parent_id":"662892","long":23.88013000000000118916432256810367107391357421875},"81":{"id":"683694","label":"Ora\u015f Brezoi","value":"683694","lat":45.35087999999999652800397598184645175933837890625,"lon":24.256810000000001537046045996248722076416015625,"poi_name":"Ora\u015f Brezoi","parent_id":"662892","long":24.256810000000001537046045996248722076416015625},"82":{"id":"685978","label":"Ora\u015f B\u00e3beni","value":"685978","lat":44.9702300000000008139977580867707729339599609375,"lon":24.2255499999999983629095368087291717529296875,"poi_name":"Ora\u015f B\u00e3beni","parent_id":"662892","long":24.2255499999999983629095368087291717529296875},"83":{"id":"8334965","label":"Ora\u015f B\u00e3ile Govora","value":"8334965","lat":45.08174000000000347654349752701818943023681640625,"lon":24.18245999999999895635482971556484699249267578125,"poi_name":"Ora\u015f B\u00e3ile Govora","parent_id":"662892","long":24.18245999999999895635482971556484699249267578125},"84":{"id":"8334927","label":"Ora\u015f B\u00e3ile Ol\u00e3ne\u015fti","value":"8334927","lat":45.20058999999999826968632987700402736663818359375,"lon":24.234159999999999257624949677847325801849365234375,"poi_name":"Ora\u015f B\u00e3ile Ol\u00e3ne\u015fti","parent_id":"662892","long":24.234159999999999257624949677847325801849365234375},"85":{"id":"685652","label":"Ora\u015f B\u00e3lce\u015fti","value":"685652","lat":44.62941000000000002501110429875552654266357421875,"lon":23.94051999999999935653249849565327167510986328125,"poi_name":"Ora\u015f B\u00e3lce\u015fti","parent_id":"662892","long":23.94051999999999935653249849565327167510986328125},"86":{"id":"8334918","label":"Ora\u015f C\u00e3lim\u00e3ne\u015fti","value":"8334918","lat":45.2425199999999989586285664699971675872802734375,"lon":24.34375,"poi_name":"Ora\u015f C\u00e3lim\u00e3ne\u015fti","parent_id":"662892","long":24.34375},"87":{"id":"676024","label":"Ora\u015f Horezu","value":"676024","lat":45.16962000000000188038029591552913188934326171875,"lon":23.984480000000001354010237264446914196014404296875,"poi_name":"Ora\u015f Horezu","parent_id":"662892","long":23.984480000000001354010237264446914196014404296875},"88":{"id":"8334929","label":"Ora\u015f Ocnele Mari","value":"8334929","lat":45.0890399999999971214492688886821269989013671875,"lon":24.281620000000000203499439521692693233489990234375,"poi_name":"Ora\u015f Ocnele Mari","parent_id":"662892","long":24.281620000000000203499439521692693233489990234375}}