{"success":true,"remaining_lookups":7965,"0":{"id":"8334758","label":"Comuna Agapia","value":"8334758","lat":47.16196000000000054797055781818926334381103515625,"lon":26.295449999999998880184648442082107067108154296875,"poi_name":"Comuna Agapia","parent_id":"672460","long":26.295449999999998880184648442082107067108154296875},"1":{"id":"8334985","label":"Comuna Alexandru Cel Bun","value":"8334985","lat":46.9398800000000022691892809234559535980224609375,"lon":26.2684899999999998954081092961132526397705078125,"poi_name":"Comuna Alexandru Cel Bun","parent_id":"672460","long":26.2684899999999998954081092961132526397705078125},"2":{"id":"685854","label":"Comuna Bahna","value":"685854","lat":46.7785999999999972942532622255384922027587890625,"lon":26.797419999999998907469489495269954204559326171875,"poi_name":"Comuna Bahna","parent_id":"672460","long":26.797419999999998907469489495269954204559326171875},"3":{"id":"684914","label":"Comuna Bicaz Chei","value":"684914","lat":46.834350000000000591171556152403354644775390625,"lon":25.87234000000000122554411063902080059051513671875,"poi_name":"Comuna Bicaz Chei","parent_id":"672460","long":25.87234000000000122554411063902080059051513671875},"4":{"id":"684912","label":"Comuna Bicazu Ardelean","value":"684912","lat":46.86883999999999872443368076346814632415771484375,"lon":25.92569999999999907913661445491015911102294921875,"poi_name":"Comuna Bicazu Ardelean","parent_id":"672460","long":25.92569999999999907913661445491015911102294921875},"5":{"id":"684457","label":"Comuna Bode\u015fti-Precista","value":"684457","lat":47.0381900000000001682565198279917240142822265625,"lon":26.4378999999999990677679306827485561370849609375,"poi_name":"Comuna Bode\u015fti-Precista","parent_id":"672460","long":26.4378999999999990677679306827485561370849609375},"6":{"id":"684370","label":"Comuna Boghicea","value":"684370","lat":47.06025000000000346744855050928890705108642578125,"lon":27.110820000000000362661012331955134868621826171875,"poi_name":"Comuna Boghicea","parent_id":"672460","long":27.110820000000000362661012331955134868621826171875},"7":{"id":"684229","label":"Comuna Borca","value":"684229","lat":47.19098999999999932697392068803310394287109375,"lon":25.781400000000001426769813406281173229217529296875,"poi_name":"Comuna Borca","parent_id":"672460","long":25.781400000000001426769813406281173229217529296875},"8":{"id":"684188","label":"Comuna Borle\u015fti","value":"684188","lat":46.78934000000000281715983874164521694183349609375,"lon":26.49080000000000012505552149377763271331787109375,"poi_name":"Comuna Borle\u015fti","parent_id":"672460","long":26.49080000000000012505552149377763271331787109375},"9":{"id":"684063","label":"Comuna Bote\u015fti","value":"684063","lat":47.0641499999999979308995534665882587432861328125,"lon":26.75968999999999908823156147263944149017333984375,"poi_name":"Comuna Bote\u015fti","parent_id":"672460","long":26.75968999999999908823156147263944149017333984375},"10":{"id":"683998","label":"Comuna Bozieni","value":"683998","lat":46.844459999999997990016709081828594207763671875,"lon":27.15281999999999840156306163407862186431884765625,"poi_name":"Comuna Bozieni","parent_id":"672460","long":27.15281999999999840156306163407862186431884765625},"11":{"id":"683608","label":"Comuna Brusturi-Dr\u0103g\u0103ne\u015fti","value":"683608","lat":47.2957899999999966667019180022180080413818359375,"lon":26.35443000000000068894223659299314022064208984375,"poi_name":"Comuna Brusturi-Dr\u0103g\u0103ne\u015fti","parent_id":"672460","long":26.35443000000000068894223659299314022064208984375},"12":{"id":"684833","label":"Comuna B\u00e2ra","value":"684833","lat":47.01319000000000158934199134819209575653076171875,"lon":27.0401600000000001955413608811795711517333984375,"poi_name":"Comuna B\u00e2ra","parent_id":"672460","long":27.0401600000000001955413608811795711517333984375},"13":{"id":"685336","label":"Comuna B\u00e2rg\u00e3uani","value":"685336","lat":46.97876999999999725332600064575672149658203125,"lon":26.64589000000000140744305099360644817352294921875,"poi_name":"Comuna B\u00e2rg\u00e3uani","parent_id":"672460","long":26.64589000000000140744305099360644817352294921875},"14":{"id":"685550","label":"Comuna B\u0103l\u0163\u0103te\u015fti","value":"685550","lat":47.13076000000000220779838855378329753875732421875,"lon":26.30187000000000097088559414260089397430419921875,"poi_name":"Comuna B\u0103l\u0163\u0103te\u015fti","parent_id":"672460","long":26.30187000000000097088559414260089397430419921875},"15":{"id":"682482","label":"Comuna Ceahl\u0103u","value":"682482","lat":47.04487999999999914280124357901513576507568359375,"lon":25.95955000000000012505552149377763271331787109375,"poi_name":"Comuna Ceahl\u0103u","parent_id":"672460","long":25.95955000000000012505552149377763271331787109375},"16":{"id":"680829","label":"Comuna Cordun","value":"680829","lat":46.97290000000000276259015663526952266693115234375,"lon":26.862649999999998584598870365880429744720458984375,"poi_name":"Comuna Cordun","parent_id":"672460","long":26.862649999999998584598870365880429744720458984375},"17":{"id":"680539","label":"Comuna Costi\u015fa","value":"680539","lat":46.75818000000000296267899102531373500823974609375,"lon":26.646229999999999193960320553742349147796630859375,"poi_name":"Comuna Costi\u015fa","parent_id":"672460","long":26.646229999999999193960320553742349147796630859375},"18":{"id":"680381","label":"Comuna Cr\u0103c\u0103oani","value":"680381","lat":47.09597000000000122099663713015615940093994140625,"lon":26.258649999999999380406734417192637920379638671875,"poi_name":"Comuna Cr\u0103c\u0103oani","parent_id":"672460","long":26.258649999999999380406734417192637920379638671875},"19":{"id":"681812","label":"Comuna C\u00e2nde\u015fti","value":"681812","lat":46.71667000000000058435034588910639286041259765625,"lon":26.583330000000000126192389870993793010711669921875,"poi_name":"Comuna C\u00e2nde\u015fti","parent_id":"672460","long":26.583330000000000126192389870993793010711669921875},"20":{"id":"679256","label":"Comuna Dobreni","value":"679256","lat":46.99481999999999715100784669630229473114013671875,"lon":26.40941000000000116187948151491582393646240234375,"poi_name":"Comuna Dobreni","parent_id":"672460","long":26.40941000000000116187948151491582393646240234375},"21":{"id":"679181","label":"Comuna Dochia","value":"679181","lat":46.9174000000000006593836587853729724884033203125,"lon":26.584849999999999425881469505839049816131591796875,"poi_name":"Comuna Dochia","parent_id":"672460","long":26.584849999999999425881469505839049816131591796875},"22":{"id":"679132","label":"Comuna Dolje\u015fti","value":"679132","lat":47.02806000000000352656570612452924251556396484375,"lon":26.975570000000001158468876383267343044281005859375,"poi_name":"Comuna Dolje\u015fti","parent_id":"672460","long":26.975570000000001158468876383267343044281005859375},"23":{"id":"678918","label":"Comuna Dragomire\u015fti","value":"678918","lat":47.0279799999999994497557054273784160614013671875,"lon":26.575359999999999871533873374573886394500732421875,"poi_name":"Comuna Dragomire\u015fti","parent_id":"672460","long":26.575359999999999871533873374573886394500732421875},"24":{"id":"678990","label":"Comuna Dr\u0103g\u0103ne\u015fti","value":"678990","lat":47.31204000000000320369508699513971805572509765625,"lon":26.41550000000000153477230924181640148162841796875,"poi_name":"Comuna Dr\u0103g\u0103ne\u015fti","parent_id":"672460","long":26.41550000000000153477230924181640148162841796875},"25":{"id":"678765","label":"Comuna Dulce\u015fti","value":"678765","lat":46.98346000000000088903107098303735256195068359375,"lon":26.78061999999999898136593401432037353515625,"poi_name":"Comuna Dulce\u015fti","parent_id":"672460","long":26.78061999999999898136593401432037353515625},"26":{"id":"678714","label":"Comuna Dumbrava Ro\u015fie","value":"678714","lat":46.8853500000000025238477974198758602142333984375,"lon":26.44116999999999961801222525537014007568359375,"poi_name":"Comuna Dumbrava Ro\u015fie","parent_id":"672460","long":26.44116999999999961801222525537014007568359375},"27":{"id":"679777","label":"Comuna D\u0103muc","value":"679777","lat":46.75621000000000293539414997212588787078857421875,"lon":25.892189999999999372448655776679515838623046875,"poi_name":"Comuna D\u0103muc","parent_id":"672460","long":25.892189999999999372448655776679515838623046875},"28":{"id":"8334685","label":"Comuna F\u00e3urei","value":"8334685","lat":46.91528000000000275804268312640488147735595703125,"lon":26.718340000000001310809238930232822895050048828125,"poi_name":"Comuna F\u00e3urei","parent_id":"672460","long":26.718340000000001310809238930232822895050048828125},"29":{"id":"678436","label":"Comuna F\u0103rca\u015fa","value":"678436","lat":47.1527200000000021873347577638924121856689453125,"lon":25.848800000000000665068000671453773975372314453125,"poi_name":"Comuna F\u0103rca\u015fa","parent_id":"672460","long":25.848800000000000665068000671453773975372314453125},"30":{"id":"677453","label":"Comuna Gher\u0103e\u015fti","value":"677453","lat":47.03620000000000089812601800076663494110107421875,"lon":26.82009000000000042973624658770859241485595703125,"poi_name":"Comuna Gher\u0103e\u015fti","parent_id":"672460","long":26.82009000000000042973624658770859241485595703125},"31":{"id":"677361","label":"Comuna Ghind\u0103oani","value":"677361","lat":47.1098300000000023146640160121023654937744140625,"lon":26.33908999999999878127709962427616119384765625,"poi_name":"Comuna Ghind\u0103oani","parent_id":"672460","long":26.33908999999999878127709962427616119384765625},"32":{"id":"677157","label":"Comuna Girov","value":"677157","lat":46.9491799999999983583620632998645305633544921875,"lon":26.482440000000000424051904701627790927886962890625,"poi_name":"Comuna Girov","parent_id":"672460","long":26.482440000000000424051904701627790927886962890625},"33":{"id":"8334760","label":"Comuna Grin\u0163ie\u015f","value":"8334760","lat":47.0247200000000020736479200422763824462890625,"lon":25.87635999999999825149643584154546260833740234375,"poi_name":"Comuna Grin\u0163ie\u015f","parent_id":"672460","long":25.87635999999999825149643584154546260833740234375},"34":{"id":"676603","label":"Comuna Grum\u0103ze\u015fti","value":"676603","lat":47.14726999999999890178514760918915271759033203125,"lon":26.386410000000001474518285249359905719757080078125,"poi_name":"Comuna Grum\u0103ze\u015fti","parent_id":"672460","long":26.386410000000001474518285249359905719757080078125},"35":{"id":"677289","label":"Comuna G\u00e2din\u0163i","value":"677289","lat":46.93708000000000168938640854321420192718505859375,"lon":27.005880000000001217586031998507678508758544921875,"poi_name":"Comuna G\u00e2din\u0163i","parent_id":"672460","long":27.005880000000001217586031998507678508758544921875},"36":{"id":"677208","label":"Comuna G\u00e2rcina","value":"677208","lat":46.992220000000003210516297258436679840087890625,"lon":26.328199999999998937028067302890121936798095703125,"poi_name":"Comuna G\u00e2rcina","parent_id":"672460","long":26.328199999999998937028067302890121936798095703125},"37":{"id":"676330","label":"Comuna Hangu","value":"676330","lat":47.03524999999999778310666442848742008209228515625,"lon":26.06400000000000005684341886080801486968994140625,"poi_name":"Comuna Hangu","parent_id":"672460","long":26.06400000000000005684341886080801486968994140625},"38":{"id":"8334924","label":"Comuna Horia","value":"8334924","lat":46.9063900000000018053469830192625522613525390625,"lon":26.93890999999999991132426657713949680328369140625,"poi_name":"Comuna Horia","parent_id":"672460","long":26.93890999999999991132426657713949680328369140625},"39":{"id":"675751","label":"Comuna Icuse\u015fti","value":"675751","lat":46.7989400000000017598722479306161403656005859375,"lon":26.99076000000000163936419994570314884185791015625,"poi_name":"Comuna Icuse\u015fti","parent_id":"672460","long":26.99076000000000163936419994570314884185791015625},"40":{"id":"675554","label":"Comuna Ion Creang\u0103","value":"675554","lat":46.86068999999999817873685969971120357513427734375,"lon":27.00357999999999947249307297170162200927734375,"poi_name":"Comuna Ion Creang\u0103","parent_id":"672460","long":27.00357999999999947249307297170162200927734375},"41":{"id":"8334986","label":"Comuna Moldoveni","value":"8334986","lat":46.8213099999999968758856994099915027618408203125,"lon":26.787910000000000110276232589967548847198486328125,"poi_name":"Comuna Moldoveni","parent_id":"672460","long":26.787910000000000110276232589967548847198486328125},"42":{"id":"673787","label":"Comuna M\u0103rgineni","value":"673787","lat":46.892369999999999663486960344016551971435546875,"lon":26.657419999999998339035300887189805507659912109375,"poi_name":"Comuna M\u0103rgineni","parent_id":"672460","long":26.657419999999998339035300887189805507659912109375},"43":{"id":"672367","label":"Comuna Negre\u015fti","value":"672367","lat":47.04778999999999911096892901696264743804931640625,"lon":26.350049999999999528199623455293476581573486328125,"poi_name":"Comuna Negre\u015fti","parent_id":"672460","long":26.350049999999999528199623455293476581573486328125},"44":{"id":"671798","label":"Comuna Oniceni","value":"671798","lat":46.7892599999999987403498380444943904876708984375,"lon":27.163360000000000837871994008310139179229736328125,"poi_name":"Comuna Oniceni","parent_id":"672460","long":27.163360000000000837871994008310139179229736328125},"45":{"id":"670978","label":"Comuna Petricani","value":"670978","lat":47.15303999999999717829268774949014186859130859375,"lon":26.441140000000000753743734094314277172088623046875,"poi_name":"Comuna Petricani","parent_id":"672460","long":26.441140000000000753743734094314277172088623046875},"46":{"id":"670883","label":"Comuna Piatra \u015eoimului","value":"670883","lat":46.82442999999999955207385937683284282684326171875,"lon":26.418479999999998852899807388894259929656982421875,"poi_name":"Comuna Piatra \u015eoimului","parent_id":"672460","long":26.418479999999998852899807388894259929656982421875},"47":{"id":"670776","label":"Comuna Pipirig","value":"670776","lat":47.22800000000000153477230924181640148162841796875,"lon":26.084830000000000183035808731801807880401611328125,"poi_name":"Comuna Pipirig","parent_id":"672460","long":26.084830000000000183035808731801807880401611328125},"48":{"id":"670318","label":"Comuna Podoleni","value":"670318","lat":46.81772000000000133468347485177218914031982421875,"lon":26.632799999999999585043042316101491451263427734375,"poi_name":"Comuna Podoleni","parent_id":"672460","long":26.632799999999999585043042316101491451263427734375},"49":{"id":"670020","label":"Comuna Poiana Teiului","value":"670020","lat":47.1140299999999996316546457819640636444091796875,"lon":25.92517000000000138015820994041860103607177734375,"poi_name":"Comuna Poiana Teiului","parent_id":"672460","long":25.92517000000000138015820994041860103607177734375},"50":{"id":"670233","label":"Comuna Poienari","value":"670233","lat":46.88624999999999687361196265555918216705322265625,"lon":27.119659999999999655528881703503429889678955078125,"poi_name":"Comuna Poienari","parent_id":"672460","long":27.119659999999999655528881703503429889678955078125},"51":{"id":"670796","label":"Comuna P\u00e2nce\u015fti","value":"670796","lat":46.90169999999999816964191268198192119598388671875,"lon":27.16879000000000132786226458847522735595703125,"poi_name":"Comuna P\u00e2nce\u015fti","parent_id":"672460","long":27.16879000000000132786226458847522735595703125},"52":{"id":"670790","label":"Comuna P\u00e2ng\u0103ra\u0163i","value":"670790","lat":46.9333299999999979945641825906932353973388671875,"lon":26.14999999999999857891452847979962825775146484375,"poi_name":"Comuna P\u00e2ng\u0103ra\u0163i","parent_id":"672460","long":26.14999999999999857891452847979962825775146484375},"53":{"id":"671280","label":"Comuna P\u0103str\u0103veni","value":"671280","lat":47.15939999999999798774297232739627361297607421875,"lon":26.5761499999999983856469043530523777008056640625,"poi_name":"Comuna P\u0103str\u0103veni","parent_id":"672460","long":26.5761499999999983856469043530523777008056640625},"54":{"id":"669005","label":"Comuna Rediu","value":"669005","lat":46.75,"lon":26.566669999999998452722138608805835247039794921875,"poi_name":"Comuna Rediu","parent_id":"672460","long":26.566669999999998452722138608805835247039794921875},"55":{"id":"668697","label":"Comuna Rom\u00e2ni","value":"668697","lat":46.8024199999999979127096594311296939849853515625,"lon":26.6994499999999987949195201508700847625732421875,"poi_name":"Comuna Rom\u00e2ni","parent_id":"672460","long":26.6994499999999987949195201508700847625732421875},"56":{"id":"8334838","label":"Comuna Ruginoasa","value":"8334838","lat":46.9744699999999966166797094047069549560546875,"lon":26.706739999999999923829818726517260074615478515625,"poi_name":"Comuna Ruginoasa","parent_id":"672460","long":26.706739999999999923829818726517260074615478515625},"57":{"id":"669086","label":"Comuna R\u00e3zboieni","value":"669086","lat":47.074240000000003192326403222978115081787109375,"lon":26.561499999999998777866494492627680301666259765625,"poi_name":"Comuna R\u00e3zboieni","parent_id":"672460","long":26.561499999999998777866494492627680301666259765625},"58":{"id":"669101","label":"Comuna R\u0103uce\u015fti","value":"669101","lat":47.2615100000000012414602679200470447540283203125,"lon":26.411699999999999732835931354202330112457275390625,"poi_name":"Comuna R\u0103uce\u015fti","parent_id":"672460","long":26.411699999999999732835931354202330112457275390625},"59":{"id":"668262","label":"Comuna Sagna","value":"668262","lat":46.96806000000000125282895169220864772796630859375,"lon":27.0167000000000001591615728102624416351318359375,"poi_name":"Comuna Sagna","parent_id":"672460","long":27.0167000000000001591615728102624416351318359375},"60":{"id":"667469","label":"Comuna Secuieni","value":"667469","lat":46.86852999999999980218490236438810825347900390625,"lon":26.810620000000000118234311230480670928955078125,"poi_name":"Comuna Secuieni","parent_id":"672460","long":26.810620000000000118234311230480670928955078125},"61":{"id":"666275","label":"Comuna St\u0103ni\u0163a","value":"666275","lat":47.01216000000000150293999467976391315460205078125,"lon":27.1370399999999989404386724345386028289794921875,"poi_name":"Comuna St\u0103ni\u0163a","parent_id":"672460","long":27.1370399999999989404386724345386028289794921875},"62":{"id":"668364","label":"Comuna S\u0103b\u0103oani","value":"668364","lat":47.00186999999999670762917958199977874755859375,"lon":26.8852499999999992041921359486877918243408203125,"poi_name":"Comuna S\u0103b\u0103oani","parent_id":"672460","long":26.8852499999999992041921359486877918243408203125},"63":{"id":"667749","label":"Comuna S\u0103vine\u015fti","value":"667749","lat":46.86469000000000306727088172920048236846923828125,"lon":26.48400000000000176214598468504846096038818359375,"poi_name":"Comuna S\u0103vine\u015fti","parent_id":"672460","long":26.48400000000000176214598468504846096038818359375},"64":{"id":"665519","label":"Comuna Tarc\u0103u","value":"665519","lat":46.82269000000000147565515362657606601715087890625,"lon":26.162639999999999673718775738961994647979736328125,"poi_name":"Comuna Tarc\u0103u","parent_id":"672460","long":26.162639999999999673718775738961994647979736328125},"65":{"id":"665375","label":"Comuna Tazl\u0103u","value":"665375","lat":46.72097999999999728970578871667385101318359375,"lon":26.47003000000000128011379274539649486541748046875,"poi_name":"Comuna Tazl\u0103u","parent_id":"672460","long":26.47003000000000128011379274539649486541748046875},"66":{"id":"665470","label":"Comuna Ta\u015fca","value":"665470","lat":46.8899100000000004229150363244116306304931640625,"lon":26.010690000000000310365066980011761188507080078125,"poi_name":"Comuna Ta\u015fca","parent_id":"672460","long":26.010690000000000310365066980011761188507080078125},"67":{"id":"665088","label":"Comuna Timi\u015fe\u015fti","value":"665088","lat":47.22939000000000220325091504491865634918212890625,"lon":26.519819999999999282636053976602852344512939453125,"poi_name":"Comuna Timi\u015fe\u015fti","parent_id":"672460","long":26.519819999999999282636053976602852344512939453125},"68":{"id":"664608","label":"Comuna Trife\u015fti","value":"664608","lat":46.9090599999999966485120239667594432830810546875,"lon":26.833110000000001349462763755582273006439208984375,"poi_name":"Comuna Trife\u015fti","parent_id":"672460","long":26.833110000000001349462763755582273006439208984375},"69":{"id":"664486","label":"Comuna Tupila\u0163i","value":"664486","lat":47.08147000000000303998604067601263523101806640625,"lon":26.641580000000001149373929365538060665130615234375,"poi_name":"Comuna Tupila\u0163i","parent_id":"672460","long":26.641580000000001149373929365538060665130615234375},"70":{"id":"665566","label":"Comuna T\u0103m\u0103\u015feni","value":"665566","lat":47.0032700000000005502442945726215839385986328125,"lon":26.950869999999998327666617115028202533721923828125,"poi_name":"Comuna T\u0103m\u0103\u015feni","parent_id":"672460","long":26.950869999999998327666617115028202533721923828125},"71":{"id":"664174","label":"Comuna Urecheni","value":"664174","lat":47.1776399999999966894392855465412139892578125,"lon":26.534240000000000492264007334597408771514892578125,"poi_name":"Comuna Urecheni","parent_id":"672460","long":26.534240000000000492264007334597408771514892578125},"72":{"id":"663327","label":"Comuna Valea Ursului","value":"663327","lat":46.79451999999999856072463444434106349945068359375,"lon":27.08165999999999939973349682986736297607421875,"poi_name":"Comuna Valea Ursului","parent_id":"672460","long":27.08165999999999939973349682986736297607421875},"73":{"id":"662821","label":"Comuna V\u00e2n\u0103tori Neam\u0163","value":"662821","lat":47.23534000000000077079675975255668163299560546875,"lon":26.2770000000000010231815394945442676544189453125,"poi_name":"Comuna V\u00e2n\u0103tori Neam\u0163","parent_id":"672460","long":26.2770000000000010231815394945442676544189453125},"74":{"id":"663263","label":"Comuna V\u0103leni","value":"663263","lat":47.029640000000000554791768081486225128173828125,"lon":26.71531999999999840156306163407862186431884765625,"poi_name":"Comuna V\u0103leni","parent_id":"672460","long":26.71531999999999840156306163407862186431884765625},"75":{"id":"662314","label":"Comuna Z\u0103ne\u015fti","value":"662314","lat":46.82573000000000007503331289626657962799072265625,"lon":26.562129999999999796500560478307306766510009765625,"poi_name":"Comuna Z\u0103ne\u015fti","parent_id":"672460","long":26.562129999999999796500560478307306766510009765625},"76":{"id":"666243","label":"Comuna \u015etefan cel Mare","value":"666243","lat":46.9859900000000010322764865122735500335693359375,"lon":26.512930000000000774207364884205162525177001953125,"poi_name":"Comuna \u015etefan cel Mare","parent_id":"672460","long":26.512930000000000774207364884205162525177001953125},"77":{"id":"665181","label":"Comuna \u0162ibucani","value":"665181","lat":47.1185600000000022191670723259449005126953125,"lon":26.573499999999999232613845379091799259185791015625,"poi_name":"Comuna \u0162ibucani","parent_id":"672460","long":26.573499999999999232613845379091799259185791015625},"78":{"id":"8334714","label":"Municipiul Piatra-Neam\u0163","value":"8334714","lat":46.923360000000002401066012680530548095703125,"lon":26.373799999999999243982529151253402233123779296875,"poi_name":"Municipiul Piatra-Neam\u0163","parent_id":"672460","long":26.373799999999999243982529151253402233123779296875},"79":{"id":"8334755","label":"Municipiul Roman","value":"8334755","lat":46.92972999999999927922544884495437145233154296875,"lon":26.93677999999999883584678173065185546875,"poi_name":"Municipiul Roman","parent_id":"672460","long":26.93677999999999883584678173065185546875},"80":{"id":"684921","label":"Ora\u015f Bicaz","value":"684921","lat":46.94890000000000185309545486234128475189208984375,"lon":26.079820000000001556372808408923447132110595703125,"poi_name":"Ora\u015f Bicaz","parent_id":"672460","long":26.079820000000001556372808408923447132110595703125},"81":{"id":"668545","label":"Ora\u015f Roznov","value":"668545","lat":46.83850000000000335376171278767287731170654296875,"lon":26.512769999999999726014721090905368328094482421875,"poi_name":"Ora\u015f Roznov","parent_id":"672460","long":26.512769999999999726014721090905368328094482421875},"82":{"id":"8334756","label":"Ora\u015f T\u00e2rgu Neam\u0163","value":"8334756","lat":47.19698000000000348563844454474747180938720703125,"lon":26.36413999999999902001945883966982364654541015625,"poi_name":"Ora\u015f T\u00e2rgu Neam\u0163","parent_id":"672460","long":26.36413999999999902001945883966982364654541015625}}