{"success":true,"remaining_lookups":7966,"0":{"id":"686704","label":"Comuna Ac\u0103\u0163ari","value":"686704","lat":46.45418000000000091631591203622519969940185546875,"lon":24.64811999999999869714883971028029918670654296875,"poi_name":"Comuna Ac\u0103\u0163ari","parent_id":"672628","long":24.64811999999999869714883971028029918670654296875},"1":{"id":"686683","label":"Comuna Ad\u0103mu\u015f","value":"686683","lat":46.315910000000002355591277591884136199951171875,"lon":24.2032200000000017325874068774282932281494140625,"poi_name":"Comuna Ad\u0103mu\u015f","parent_id":"672628","long":24.2032200000000017325874068774282932281494140625},"2":{"id":"686548","label":"Comuna Albe\u015fti","value":"686548","lat":46.2437800000000009958966984413564205169677734375,"lon":24.85649000000000086174622992984950542449951171875,"poi_name":"Comuna Albe\u015fti","parent_id":"672628","long":24.85649000000000086174622992984950542449951171875},"3":{"id":"686416","label":"Comuna Aluni\u015f","value":"686416","lat":46.88924999999999698729880037717521190643310546875,"lon":24.830290000000001526814230601303279399871826171875,"poi_name":"Comuna Aluni\u015f","parent_id":"672628","long":24.830290000000001526814230601303279399871826171875},"4":{"id":"686271","label":"Comuna Apold","value":"686271","lat":46.14430999999999727378963143564760684967041015625,"lon":24.836059999999999803321770741604268550872802734375,"poi_name":"Comuna Apold","parent_id":"672628","long":24.836059999999999803321770741604268550872802734375},"5":{"id":"8334799","label":"Comuna A\u0163inti\u015f","value":"8334799","lat":46.40626999999999924284566077403724193572998046875,"lon":24.07491999999999876536094234324991703033447265625,"poi_name":"Comuna A\u0163inti\u015f","parent_id":"672628","long":24.07491999999999876536094234324991703033447265625},"6":{"id":"685849","label":"Comuna Bahnea","value":"685849","lat":46.31954999999999955662133288569748401641845703125,"lon":24.48084000000000060026650317013263702392578125,"poi_name":"Comuna Bahnea","parent_id":"672628","long":24.48084000000000060026650317013263702392578125},"7":{"id":"685480","label":"Comuna Band","value":"685480","lat":46.6003299999999995861799106933176517486572265625,"lon":24.3402999999999991587174008600413799285888671875,"poi_name":"Comuna Band","parent_id":"672628","long":24.3402999999999991587174008600413799285888671875},"8":{"id":"685258","label":"Comuna Bato\u015f","value":"685258","lat":46.8748700000000013687895261682569980621337890625,"lon":24.646670000000000300133251585066318511962890625,"poi_name":"Comuna Bato\u015f","parent_id":"672628","long":24.646670000000000300133251585066318511962890625},"9":{"id":"8334999","label":"Comuna Beica De Jos","value":"8334999","lat":46.72402000000000299451130558736622333526611328125,"lon":24.838660000000000849240677780471742153167724609375,"poi_name":"Comuna Beica De Jos","parent_id":"672628","long":24.838660000000000849240677780471742153167724609375},"10":{"id":"685043","label":"Comuna Bereni","value":"685043","lat":46.56992000000000331283445120789110660552978515625,"lon":24.8672600000000016962076188065111637115478515625,"poi_name":"Comuna Bereni","parent_id":"672628","long":24.8672600000000016962076188065111637115478515625},"11":{"id":"684902","label":"Comuna Bichi\u015f","value":"684902","lat":46.36674000000000006593836587853729724884033203125,"lon":24.088539999999998286739355535246431827545166015625,"poi_name":"Comuna Bichi\u015f","parent_id":"672628","long":24.088539999999998286739355535246431827545166015625},"12":{"id":"684432","label":"Comuna Bogata","value":"684432","lat":46.4706699999999983674570103175938129425048828125,"lon":24.12556000000000011596057447604835033416748046875,"poi_name":"Comuna Bogata","parent_id":"672628","long":24.12556000000000011596057447604835033416748046875},"13":{"id":"683753","label":"Comuna Breaza","value":"683753","lat":46.766840000000001964508555829524993896484375,"lon":24.60967000000000126647137221880257129669189453125,"poi_name":"Comuna Breaza","parent_id":"672628","long":24.60967000000000126647137221880257129669189453125},"14":{"id":"683680","label":"Comuna Br\u00e2ncovene\u015fti","value":"683680","lat":46.86363999999999663259586668573319911956787109375,"lon":24.87886999999999915189619059674441814422607421875,"poi_name":"Comuna Br\u00e2ncovene\u015fti","parent_id":"672628","long":24.87886999999999915189619059674441814422607421875},"15":{"id":"8334976","label":"Comuna B\u00e3gaciu","value":"8334976","lat":46.2670600000000007412381819449365139007568359375,"lon":24.356739999999998502744347206316888332366943359375,"poi_name":"Comuna B\u00e3gaciu","parent_id":"672628","long":24.356739999999998502744347206316888332366943359375},"16":{"id":"685742","label":"Comuna B\u0103la","value":"685742","lat":46.72194999999999964757080306299030780792236328125,"lon":24.505379999999998830162439844571053981781005859375,"poi_name":"Comuna B\u0103la","parent_id":"672628","long":24.505379999999998830162439844571053981781005859375},"17":{"id":"685666","label":"Comuna B\u0103l\u0103u\u015feri","value":"685666","lat":46.3825199999999995270627550780773162841796875,"lon":24.697230000000001126636561821214854717254638671875,"poi_name":"Comuna B\u0103l\u0103u\u015feri","parent_id":"672628","long":24.697230000000001126636561821214854717254638671875},"18":{"id":"682458","label":"Comuna Ceua\u015fu De C\u00e2mpie","value":"682458","lat":46.6458999999999974761522025801241397857666015625,"lon":24.486540000000001526814230601303279399871826171875,"poi_name":"Comuna Ceua\u015fu De C\u00e2mpie","parent_id":"672628","long":24.486540000000001526814230601303279399871826171875},"19":{"id":"682170","label":"Comuna Che\u0163ani","value":"682170","lat":46.49848999999999676902007195167243480682373046875,"lon":23.997910000000000962927515502087771892547607421875,"poi_name":"Comuna Che\u0163ani","parent_id":"672628","long":23.997910000000000962927515502087771892547607421875},"20":{"id":"682155","label":"Comuna Chibed","value":"682155","lat":46.53327999999999775582182337529957294464111328125,"lon":24.96215000000000117097442853264510631561279296875,"poi_name":"Comuna Chibed","parent_id":"672628","long":24.96215000000000117097442853264510631561279296875},"21":{"id":"8334745","label":"Comuna Chiheru De Jos","value":"8334745","lat":46.6964600000000018553691916167736053466796875,"lon":24.89808000000000021145751816220581531524658203125,"poi_name":"Comuna Chiheru De Jos","parent_id":"672628","long":24.89808000000000021145751816220581531524658203125},"22":{"id":"680689","label":"Comuna Corois\u00e2nmartin","value":"680689","lat":46.40375999999999834244590601883828639984130859375,"lon":24.597660000000001190301190945319831371307373046875,"poi_name":"Comuna Corois\u00e2nmartin","parent_id":"672628","long":24.597660000000001190301190945319831371307373046875},"23":{"id":"680675","label":"Comuna Corunca","value":"680675","lat":46.52718999999999738292899564839899539947509765625,"lon":24.645939999999999514557202928699553012847900390625,"poi_name":"Comuna Corunca","parent_id":"672628","long":24.645939999999999514557202928699553012847900390625},"24":{"id":"680397","label":"Comuna Cozma","value":"680397","lat":46.80384000000000099817043519578874111175537109375,"lon":24.49828000000000116642695502378046512603759765625,"poi_name":"Comuna Cozma","parent_id":"672628","long":24.49828000000000116642695502378046512603759765625},"25":{"id":"680174","label":"Comuna Criste\u015fti","value":"680174","lat":46.5010300000000000864019966684281826019287109375,"lon":24.489399999999999835154085303656756877899169921875,"poi_name":"Comuna Criste\u015fti","parent_id":"672628","long":24.489399999999999835154085303656756877899169921875},"26":{"id":"680347","label":"Comuna Cr\u00e3ie\u015fti","value":"680347","lat":46.744180000000000063664629124104976654052734375,"lon":24.447880000000001388116288580931723117828369140625,"poi_name":"Comuna Cr\u00e3ie\u015fti","parent_id":"672628","long":24.447880000000001388116288580931723117828369140625},"27":{"id":"680363","label":"Comuna Cr\u0103ciune\u015fti","value":"680363","lat":46.47426999999999708279574406333267688751220703125,"lon":24.57115999999999900182956480421125888824462890625,"poi_name":"Comuna Cr\u0103ciune\u015fti","parent_id":"672628","long":24.57115999999999900182956480421125888824462890625},"28":{"id":"8334848","label":"Comuna Cucerdea","value":"8334848","lat":46.40402000000000271029421128332614898681640625,"lon":24.2467299999999994497557054273784160614013671875,"poi_name":"Comuna Cucerdea","parent_id":"672628","long":24.2467299999999994497557054273784160614013671875},"29":{"id":"680043","label":"Comuna Cuci","value":"680043","lat":46.4590699999999969804775901138782501220703125,"lon":24.16320999999999941110218060202896595001220703125,"poi_name":"Comuna Cuci","parent_id":"672628","long":24.16320999999999941110218060202896595001220703125},"30":{"id":"679762","label":"Comuna Dane\u015f","value":"679762","lat":46.19077999999999661895344615913927555084228515625,"lon":24.702329999999999898818714427761733531951904296875,"poi_name":"Comuna Dane\u015f","parent_id":"672628","long":24.702329999999999898818714427761733531951904296875},"31":{"id":"679563","label":"Comuna Deda","value":"679563","lat":46.9464100000000001955413608811795711517333984375,"lon":24.87743999999999999772626324556767940521240234375,"poi_name":"Comuna Deda","parent_id":"672628","long":24.87743999999999999772626324556767940521240234375},"32":{"id":"678545","label":"Comuna Eremitu","value":"678545","lat":46.64835000000000064801497501321136951446533203125,"lon":24.916270000000000806039679446257650852203369140625,"poi_name":"Comuna Eremitu","parent_id":"672628","long":24.916270000000000806039679446257650852203369140625},"33":{"id":"678534","label":"Comuna Ernei","value":"678534","lat":46.6176099999999991041477187536656856536865234375,"lon":24.678960000000000007958078640513122081756591796875,"poi_name":"Comuna Ernei","parent_id":"672628","long":24.678960000000000007958078640513122081756591796875},"34":{"id":"678143","label":"Comuna F\u00e2nt\u00e2nele","value":"678143","lat":46.40402999999999877900336286984384059906005859375,"lon":24.788450000000000983391146291978657245635986328125,"poi_name":"Comuna F\u00e2nt\u00e2nele","parent_id":"672628","long":24.788450000000000983391146291978657245635986328125},"35":{"id":"678454","label":"Comuna F\u0103r\u0103g\u0103u","value":"678454","lat":46.75798999999999949750417727045714855194091796875,"lon":24.527809999999998780140231247060000896453857421875,"poi_name":"Comuna F\u0103r\u0103g\u0103u","parent_id":"672628","long":24.527809999999998780140231247060000896453857421875},"36":{"id":"677506","label":"Comuna Gheorghe Doja","value":"677506","lat":46.46065999999999718284016125835478305816650390625,"lon":24.506879999999998887005858705379068851470947265625,"poi_name":"Comuna Gheorghe Doja","parent_id":"672628","long":24.506879999999998887005858705379068851470947265625},"37":{"id":"677356","label":"Comuna Ghindari","value":"677356","lat":46.4891199999999997771737980656325817108154296875,"lon":24.944120000000001624584911041893064975738525390625,"poi_name":"Comuna Ghindari","parent_id":"672628","long":24.944120000000001624584911041893064975738525390625},"38":{"id":"677038","label":"Comuna Glodeni","value":"677038","lat":46.6757199999999983219822752289474010467529296875,"lon":24.56099999999999994315658113919198513031005859375,"poi_name":"Comuna Glodeni","parent_id":"672628","long":24.56099999999999994315658113919198513031005859375},"39":{"id":"676891","label":"Comuna Gorne\u015fti","value":"676891","lat":46.66534999999999655528881703503429889678955078125,"lon":24.73380999999999829697117093019187450408935546875,"poi_name":"Comuna Gorne\u015fti","parent_id":"672628","long":24.73380999999999829697117093019187450408935546875},"40":{"id":"676768","label":"Comuna Grebeni\u015fu de C\u00e2mpie","value":"676768","lat":46.61321000000000225327312364242970943450927734375,"lon":24.276039999999998286739355535246431827545166015625,"poi_name":"Comuna Grebeni\u015fu de C\u00e2mpie","parent_id":"672628","long":24.276039999999998286739355535246431827545166015625},"41":{"id":"676436","label":"Comuna Gurghiu","value":"676436","lat":46.785179999999996880433172918856143951416015625,"lon":24.897149999999999891997504164464771747589111328125,"poi_name":"Comuna Gurghiu","parent_id":"672628","long":24.897149999999999891997504164464771747589111328125},"42":{"id":"677653","label":"Comuna G\u0103le\u015fti","value":"677653","lat":46.49649000000000143018041853792965412139892578125,"lon":24.765910000000001645048541831783950328826904296875,"poi_name":"Comuna G\u0103le\u015fti","parent_id":"672628","long":24.765910000000001645048541831783950328826904296875},"43":{"id":"677616","label":"Comuna G\u0103ne\u015fti","value":"677616","lat":46.34653999999999740566636319272220134735107421875,"lon":24.341770000000000351292328559793531894683837890625,"poi_name":"Comuna G\u0103ne\u015fti","parent_id":"672628","long":24.341770000000000351292328559793531894683837890625},"44":{"id":"676123","label":"Comuna Hodac","value":"676123","lat":46.79090999999999667124939151108264923095703125,"lon":24.9605999999999994543031789362430572509765625,"poi_name":"Comuna Hodac","parent_id":"672628","long":24.9605999999999994543031789362430572509765625},"45":{"id":"676092","label":"Comuna Hodo\u015fa","value":"676092","lat":46.63962000000000074351191869936883449554443359375,"lon":24.809709999999999041619958006776869297027587890625,"poi_name":"Comuna Hodo\u015fa","parent_id":"672628","long":24.809709999999999041619958006776869297027587890625},"46":{"id":"675778","label":"Comuna Ib\u0103ne\u015fti P\u0103dure","value":"675778","lat":46.7630199999999973670128383673727512359619140625,"lon":25.03117999999999909732650849036872386932373046875,"poi_name":"Comuna Ib\u0103ne\u015fti P\u0103dure","parent_id":"672628","long":25.03117999999999909732650849036872386932373046875},"47":{"id":"675765","label":"Comuna Icl\u0103nzel","value":"675765","lat":46.53663000000000238287611864507198333740234375,"lon":24.2715299999999984947862685658037662506103515625,"poi_name":"Comuna Icl\u0103nzel","parent_id":"672628","long":24.2715299999999984947862685658037662506103515625},"48":{"id":"675749","label":"Comuna Ideciu de Jos","value":"675749","lat":46.8320599999999984675014275126159191131591796875,"lon":24.780860000000000553654899704270064830780029296875,"poi_name":"Comuna Ideciu de Jos","parent_id":"672628","long":24.780860000000000553654899704270064830780029296875},"49":{"id":"8334884","label":"Comuna Livezeni","value":"8334884","lat":46.5484900000000010322764865122735500335693359375,"lon":24.6701699999999988222043612040579319000244140625,"poi_name":"Comuna Livezeni","parent_id":"672628","long":24.6701699999999988222043612040579319000244140625},"50":{"id":"674444","label":"Comuna Lunca","value":"674444","lat":46.83599000000000245336195803247392177581787109375,"lon":24.57079999999999841975295566953718662261962890625,"poi_name":"Comuna Lunca","parent_id":"672628","long":24.57079999999999841975295566953718662261962890625},"51":{"id":"674429","label":"Comuna Lunca Bradului","value":"674429","lat":46.959890000000001464286469854414463043212890625,"lon":25.11207999999999884721546550281345844268798828125,"poi_name":"Comuna Lunca Bradului","parent_id":"672628","long":25.11207999999999884721546550281345844268798828125},"52":{"id":"673488","label":"Comuna Mica","value":"673488","lat":46.35584999999999666897565475665032863616943359375,"lon":24.4108599999999995588950696401298046112060546875,"poi_name":"Comuna Mica","parent_id":"672628","long":24.4108599999999995588950696401298046112060546875},"53":{"id":"673349","label":"Comuna Mihe\u015fu de C\u00e2mpie","value":"673349","lat":46.670220000000000482032191939651966094970703125,"lon":24.19312000000000040245140553452074527740478515625,"poi_name":"Comuna Mihe\u015fu de C\u00e2mpie","parent_id":"672628","long":24.19312000000000040245140553452074527740478515625},"54":{"id":"674211","label":"Comuna M\u0103d\u0103ra\u015f","value":"674211","lat":46.60488000000000141653799801133573055267333984375,"lon":24.43446000000000140062184073030948638916015625,"poi_name":"Comuna M\u0103d\u0103ra\u015f","parent_id":"672628","long":24.43446000000000140062184073030948638916015625},"55":{"id":"674183","label":"Comuna M\u0103gherani","value":"674183","lat":46.5700599999999980127540766261518001556396484375,"lon":24.906099999999998573230186593718826770782470703125,"poi_name":"Comuna M\u0103gherani","parent_id":"672628","long":24.906099999999998573230186593718826770782470703125},"56":{"id":"672550","label":"Comuna Nade\u015f","value":"672550","lat":46.3308899999999965757524478249251842498779296875,"lon":24.72852999999999923375071375630795955657958984375,"poi_name":"Comuna Nade\u015f","parent_id":"672628","long":24.72852999999999923375071375630795955657958984375},"57":{"id":"672455","label":"Comuna Neaua","value":"672455","lat":46.48673999999999750798451714217662811279296875,"lon":24.837849999999999539568307227455079555511474609375,"poi_name":"Comuna Neaua","parent_id":"672628","long":24.837849999999999539568307227455079555511474609375},"58":{"id":"671947","label":"Comuna Ogra","value":"671947","lat":46.4414000000000015688783605583012104034423828125,"lon":24.32309000000000054342308430932462215423583984375,"poi_name":"Comuna Ogra","parent_id":"672628","long":24.32309000000000054342308430932462215423583984375},"59":{"id":"671362","label":"Comuna Papiu Ilarian","value":"671362","lat":46.55957000000000078898665378801524639129638671875,"lon":24.21800999999999959300112095661461353302001953125,"poi_name":"Comuna Papiu Ilarian","parent_id":"672628","long":24.21800999999999959300112095661461353302001953125},"60":{"id":"671033","label":"Comuna Petelea","value":"671033","lat":46.7196100000000029695002012886106967926025390625,"lon":24.75150000000000005684341886080801486968994140625,"poi_name":"Comuna Petelea","parent_id":"672628","long":24.75150000000000005684341886080801486968994140625},"61":{"id":"670179","label":"Comuna Pog\u0103ceaua","value":"670179","lat":46.67260999999999881993062444962561130523681640625,"lon":24.2866700000000008685674401931464672088623046875,"poi_name":"Comuna Pog\u0103ceaua","parent_id":"672628","long":24.2866700000000008685674401931464672088623046875},"62":{"id":"671389","label":"Comuna P\u0103net","value":"671389","lat":46.5578900000000004411049303598701953887939453125,"lon":24.463380000000000791260390542447566986083984375,"poi_name":"Comuna P\u0103net","parent_id":"672628","long":24.463380000000000791260390542447566986083984375},"63":{"id":"671299","label":"Comuna P\u0103s\u0103reni","value":"671299","lat":46.485759999999999081410351209342479705810546875,"lon":24.70497999999999905185177340172231197357177734375,"poi_name":"Comuna P\u0103s\u0103reni","parent_id":"672628","long":24.70497999999999905185177340172231197357177734375},"64":{"id":"668381","label":"Comuna Ru\u015fii Mun\u0163i","value":"668381","lat":46.91987999999999914280124357901513576507568359375,"lon":24.835210000000000007958078640513122081756591796875,"poi_name":"Comuna Ru\u015fii Mun\u0163i","parent_id":"672628","long":24.835210000000000007958078640513122081756591796875},"65":{"id":"668914","label":"Comuna R\u00e2ciu","value":"668914","lat":46.72361000000000075260686571709811687469482421875,"lon":24.387440000000001560920281917788088321685791015625,"poi_name":"Comuna R\u00e2ciu","parent_id":"672628","long":24.387440000000001560920281917788088321685791015625},"66":{"id":"669132","label":"Comuna R\u0103stoli\u0163a","value":"669132","lat":46.97088000000000107547748484648764133453369140625,"lon":24.969319999999999737383404863066971302032470703125,"poi_name":"Comuna R\u0103stoli\u0163a","parent_id":"672628","long":24.969319999999999737383404863066971302032470703125},"67":{"id":"667922","label":"Comuna Saschiz","value":"667922","lat":46.16570999999999713736542616970837116241455078125,"lon":24.996320000000000760564944357611238956451416015625,"poi_name":"Comuna Saschiz","parent_id":"672628","long":24.996320000000000760564944357611238956451416015625},"68":{"id":"8334954","label":"Comuna Solov\u00e3stru","value":"8334954","lat":46.781080000000002883098204620182514190673828125,"lon":24.785250000000001335820343228988349437713623046875,"poi_name":"Comuna Solov\u00e3stru","parent_id":"672628","long":24.785250000000001335820343228988349437713623046875},"69":{"id":"666125","label":"Comuna St\u00e2nceni","value":"666125","lat":46.9596700000000026875568437390029430389404296875,"lon":25.233609999999998763087205588817596435546875,"poi_name":"Comuna St\u00e2nceni","parent_id":"672628","long":25.233609999999998763087205588817596435546875},"70":{"id":"8334660","label":"Comuna Suplac","value":"8334660","lat":46.391109999999997626218828372657299041748046875,"lon":24.52217999999999875626599532552063465118408203125,"poi_name":"Comuna Suplac","parent_id":"672628","long":24.52217999999999875626599532552063465118408203125},"71":{"id":"665683","label":"Comuna Suseni","value":"665683","lat":46.82957999999999998408384271897375583648681640625,"lon":24.728049999999999641886461176909506320953369140625,"poi_name":"Comuna Suseni","parent_id":"672628","long":24.728049999999999641886461176909506320953369140625},"72":{"id":"667058","label":"Comuna S\u00e2ncraiu de Mure\u015f","value":"667058","lat":46.54733999999999838337316759862005710601806640625,"lon":24.524660000000000792397258919663727283477783203125,"poi_name":"Comuna S\u00e2ncraiu de Mure\u015f","parent_id":"672628","long":24.524660000000000792397258919663727283477783203125},"73":{"id":"667033","label":"Comuna S\u00e2ngeorgiu de Mure\u015f","value":"667033","lat":46.579869999999999663486960344016551971435546875,"lon":24.64587999999999823330654180608689785003662109375,"poi_name":"Comuna S\u00e2ngeorgiu de Mure\u015f","parent_id":"672628","long":24.64587999999999823330654180608689785003662109375},"74":{"id":"667025","label":"Comuna S\u00e2nger","value":"667025","lat":46.54408000000000100726538221351802349090576171875,"lon":24.15093999999999851979737286455929279327392578125,"poi_name":"Comuna S\u00e2nger","parent_id":"672628","long":24.15093999999999851979737286455929279327392578125},"75":{"id":"666961","label":"Comuna S\u00e2npaul","value":"666961","lat":46.4630700000000018690116121433675289154052734375,"lon":24.362880000000000535465005668811500072479248046875,"poi_name":"Comuna S\u00e2npaul","parent_id":"672628","long":24.362880000000000535465005668811500072479248046875},"76":{"id":"666953","label":"Comuna S\u00e2npetru de C\u00e2mpie","value":"666953","lat":46.71667000000000058435034588910639286041259765625,"lon":24.266670000000001294893081649206578731536865234375,"poi_name":"Comuna S\u00e2npetru de C\u00e2mpie","parent_id":"672628","long":24.266670000000001294893081649206578731536865234375},"77":{"id":"666932","label":"Comuna S\u00e2ntana de Mure\u015f","value":"666932","lat":46.592770000000001573425834067165851593017578125,"lon":24.55881000000000113914211397059261798858642578125,"poi_name":"Comuna S\u00e2ntana de Mure\u015f","parent_id":"672628","long":24.55881000000000113914211397059261798858642578125},"78":{"id":"668023","label":"Comuna S\u0103r\u0103\u0163eni","value":"668023","lat":46.56246999999999758301783003844320774078369140625,"lon":25.013310000000000599129634792916476726531982421875,"poi_name":"Comuna S\u0103r\u0103\u0163eni","parent_id":"672628","long":25.013310000000000599129634792916476726531982421875},"79":{"id":"665510","label":"Comuna T\u00e3ureni","value":"665510","lat":46.57065999999999661440597265027463436126708984375,"lon":24.08173000000000030240698833949863910675048828125,"poi_name":"Comuna T\u00e3ureni","parent_id":"672628","long":24.08173000000000030240698833949863910675048828125},"80":{"id":"663714","label":"Comuna Valea Larg\u0103","value":"663714","lat":46.63092000000000325599103234708309173583984375,"lon":24.075269999999999726014721090905368328094482421875,"poi_name":"Comuna Valea Larg\u0103","parent_id":"672628","long":24.075269999999999726014721090905368328094482421875},"81":{"id":"663019","label":"Comuna Ve\u0163ca","value":"663019","lat":46.3519000000000005456968210637569427490234375,"lon":24.800070000000001613216227269731462001800537109375,"poi_name":"Comuna Ve\u0163ca","parent_id":"672628","long":24.800070000000001613216227269731462001800537109375},"82":{"id":"8334757","label":"Comuna Vii\u015foara","value":"8334757","lat":46.3027799999999984947862685658037662506103515625,"lon":24.565149999999999153033058973960578441619873046875,"poi_name":"Comuna Vii\u015foara","parent_id":"672628","long":24.565149999999999153033058973960578441619873046875},"83":{"id":"662495","label":"Comuna Voivodeni","value":"662495","lat":46.70548999999999750798451714217662811279296875,"lon":24.60434000000000054342308430932462215423583984375,"poi_name":"Comuna Voivodeni","parent_id":"672628","long":24.60434000000000054342308430932462215423583984375},"84":{"id":"662830","label":"Comuna V\u00e2n\u0103tori","value":"662830","lat":46.23152999999999934743755147792398929595947265625,"lon":24.989020000000000010231815394945442676544189453125,"poi_name":"Comuna V\u00e2n\u0103tori","parent_id":"672628","long":24.989020000000000010231815394945442676544189453125},"85":{"id":"663172","label":"Comuna V\u0103rgata","value":"663172","lat":46.58693000000000239424480241723358631134033203125,"lon":24.80257999999999896090230322442948818206787109375,"poi_name":"Comuna V\u0103rgata","parent_id":"672628","long":24.80257999999999896090230322442948818206787109375},"86":{"id":"663104","label":"Comuna V\u0103tava","value":"663104","lat":46.9474500000000034560798667371273040771484375,"lon":24.779509999999998370867615449242293834686279296875,"poi_name":"Comuna V\u0103tava","parent_id":"672628","long":24.779509999999998370867615449242293834686279296875},"87":{"id":"662355","label":"Comuna Zag\u0103r","value":"662355","lat":46.35669999999999646433934685774147510528564453125,"lon":24.60340000000000060254023992456495761871337890625,"poi_name":"Comuna Zag\u0103r","parent_id":"672628","long":24.60340000000000060254023992456495761871337890625},"88":{"id":"8334938","label":"Comuna Zau De C\u00e2mpie","value":"8334938","lat":46.6082999999999998408384271897375583648681640625,"lon":24.15220000000000055706550483591854572296142578125,"poi_name":"Comuna Zau De C\u00e2mpie","parent_id":"672628","long":24.15220000000000055706550483591854572296142578125},"89":{"id":"667081","label":"Comuna \u015eincai","value":"667081","lat":46.6634099999999989449861459434032440185546875,"lon":24.376400000000000289901436190120875835418701171875,"poi_name":"Comuna \u015eincai","parent_id":"672628","long":24.376400000000000289901436190120875835418701171875},"90":{"id":"667769","label":"Comuna \u015e\u0103ulia","value":"667769","lat":46.63331000000000159388946485705673694610595703125,"lon":24.2094799999999992223820299841463565826416015625,"poi_name":"Comuna \u015e\u0103ulia","parent_id":"672628","long":24.2094799999999992223820299841463565826416015625},"91":{"id":"8334828","label":"Municipiul Reghin","value":"8334828","lat":46.765320000000002664819476194679737091064453125,"lon":24.705200000000001381295078317634761333465576171875,"poi_name":"Municipiul Reghin","parent_id":"672628","long":24.705200000000001381295078317634761333465576171875},"92":{"id":"8334977","label":"Municipiul Sighi\u015foara","value":"8334977","lat":46.2281600000000025829649530351161956787109375,"lon":24.779270000000000351292328559793531894683837890625,"poi_name":"Municipiul Sighi\u015foara","parent_id":"672628","long":24.779270000000000351292328559793531894683837890625},"93":{"id":"8334747","label":"Municipiul T\u00e2rgu Mure\u015f","value":"8334747","lat":46.53878999999999876990841585211455821990966796875,"lon":24.5554699999999996862243278883397579193115234375,"poi_name":"Municipiul T\u00e2rgu Mure\u015f","parent_id":"672628","long":24.5554699999999996862243278883397579193115234375},"94":{"id":"8334746","label":"Municipiul T\u00e2rn\u00e3veni","value":"8334746","lat":46.326279999999997016857378184795379638671875,"lon":24.285399999999999209876477834768593311309814453125,"poi_name":"Municipiul T\u00e2rn\u00e3veni","parent_id":"672628","long":24.285399999999999209876477834768593311309814453125},"95":{"id":"667031","label":"Ora\u015f   S\u00e2ngeorgiu De P\u00e3dure","value":"667031","lat":46.41478000000000037061909097246825695037841796875,"lon":24.893170000000001351736500510014593601226806640625,"poi_name":"Ora\u015f   S\u00e2ngeorgiu De P\u00e3dure","parent_id":"672628","long":24.893170000000001351736500510014593601226806640625},"96":{"id":"675726","label":"Ora\u015f Iernut","value":"675726","lat":46.45351000000000141199052450247108936309814453125,"lon":24.241209999999998814246282563544809818267822265625,"poi_name":"Ora\u015f Iernut","parent_id":"672628","long":24.241209999999998814246282563544809818267822265625},"97":{"id":"674539","label":"Ora\u015f Ludu\u015f","value":"674539","lat":46.50280000000000057980287238024175167083740234375,"lon":24.082339999999998525481714750640094280242919921875,"poi_name":"Ora\u015f Ludu\u015f","parent_id":"672628","long":24.082339999999998525481714750640094280242919921875},"98":{"id":"673439","label":"Ora\u015f Miercurea Nirajului","value":"673439","lat":46.5475899999999995770849636755883693695068359375,"lon":24.75489999999999923829818726517260074615478515625,"poi_name":"Ora\u015f Miercurea Nirajului","parent_id":"672628","long":24.75489999999999923829818726517260074615478515625},"99":{"id":"667965","label":"Ora\u015f Sarma\u015fu","value":"667965","lat":46.745710000000002537490217946469783782958984375,"lon":24.1702599999999989677235134877264499664306640625,"poi_name":"Ora\u015f Sarma\u015fu","parent_id":"672628","long":24.1702599999999989677235134877264499664306640625}}