{"success":true,"remaining_lookups":7968,"0":{"id":"686202","label":"Comuna Ardusat","value":"686202","lat":47.63241000000000013869794202037155628204345703125,"lon":23.391559999999998353814589790999889373779296875,"poi_name":"Comuna Ardusat","parent_id":"673887","long":23.391559999999998353814589790999889373779296875},"1":{"id":"686156","label":"Comuna Arini\u015f","value":"686156","lat":47.5075700000000011868905858136713504791259765625,"lon":23.2243500000000011596057447604835033416748046875,"poi_name":"Comuna Arini\u015f","parent_id":"673887","long":23.2243500000000011596057447604835033416748046875},"2":{"id":"686073","label":"Comuna Asuaju de Sus","value":"686073","lat":47.5499999999999971578290569595992565155029296875,"lon":23.199999999999999289457264239899814128875732421875,"poi_name":"Comuna Asuaju de Sus","parent_id":"673887","long":23.199999999999999289457264239899814128875732421875},"3":{"id":"684920","label":"Comuna Bicaz","value":"684920","lat":47.46240999999999843339537619613111019134521484375,"lon":23.014739999999999753299562144093215465545654296875,"poi_name":"Comuna Bicaz","parent_id":"673887","long":23.014739999999999753299562144093215465545654296875},"4":{"id":"684672","label":"Comuna Bistra","value":"684672","lat":47.8686000000000007048583938740193843841552734375,"lon":24.192910000000001247144609806127846240997314453125,"poi_name":"Comuna Bistra","parent_id":"673887","long":24.192910000000001247144609806127846240997314453125},"5":{"id":"684495","label":"Comuna Bocicoiu Mare","value":"684495","lat":47.9467300000000022919266484677791595458984375,"lon":24.01120999999999838792064110748469829559326171875,"poi_name":"Comuna Bocicoiu Mare","parent_id":"673887","long":24.01120999999999838792064110748469829559326171875},"6":{"id":"679992","label":"Comuna Bogdan Vod\u0103","value":"679992","lat":47.6948000000000007503331289626657962799072265625,"lon":24.295480000000001297166818403638899326324462890625,"poi_name":"Comuna Bogdan Vod\u0103","parent_id":"673887","long":24.295480000000001297166818403638899326324462890625},"7":{"id":"684307","label":"Comuna Boiu Mare","value":"684307","lat":47.40202000000000026602720026858150959014892578125,"lon":23.599650000000000460431692772544920444488525390625,"poi_name":"Comuna Boiu Mare","parent_id":"673887","long":23.599650000000000460431692772544920444488525390625},"8":{"id":"684053","label":"Comuna Botiza","value":"684053","lat":47.66817999999999955207385937683284282684326171875,"lon":24.150349999999999539568307227455079555511474609375,"poi_name":"Comuna Botiza","parent_id":"673887","long":24.150349999999999539568307227455079555511474609375},"9":{"id":"683428","label":"Comuna Bude\u015fti","value":"683428","lat":47.74615000000000009094947017729282379150390625,"lon":23.9456899999999990313881426118314266204833984375,"poi_name":"Comuna Bude\u015fti","parent_id":"673887","long":23.9456899999999990313881426118314266204833984375},"10":{"id":"684768","label":"Comuna B\u00e2rsana","value":"684768","lat":47.81499999999999772626324556767940521240234375,"lon":24.057310000000001082298695109784603118896484375,"poi_name":"Comuna B\u00e2rsana","parent_id":"673887","long":24.057310000000001082298695109784603118896484375},"11":{"id":"685758","label":"Comuna B\u0103iu\u0163","value":"685758","lat":47.60190999999999661440597265027463436126708984375,"lon":24.001799999999999357669366872869431972503662109375,"poi_name":"Comuna B\u0103iu\u0163","parent_id":"673887","long":24.001799999999999357669366872869431972503662109375},"12":{"id":"685763","label":"Comuna B\u0103i\u0163a de sub Codru","value":"685763","lat":47.53332999999999941564965411089360713958740234375,"lon":23.14999999999999857891452847979962825775146484375,"poi_name":"Comuna B\u0103i\u0163a de sub Codru","parent_id":"673887","long":23.14999999999999857891452847979962825775146484375},"13":{"id":"685295","label":"Comuna B\u0103se\u015fti","value":"685295","lat":47.49607999999999918827597866766154766082763671875,"lon":23.107859999999998734665496158413589000701904296875,"poi_name":"Comuna B\u0103se\u015fti","parent_id":"673887","long":23.107859999999998734665496158413589000701904296875},"14":{"id":"682310","label":"Comuna Cerne\u015fti","value":"682310","lat":47.53576000000000334466676576994359493255615234375,"lon":23.783660000000001133457772084511816501617431640625,"poi_name":"Comuna Cerne\u015fti","parent_id":"673887","long":23.783660000000001133457772084511816501617431640625},"15":{"id":"681941","label":"Comuna Cic\u00e2rl\u0103u","value":"681941","lat":47.7058200000000027785063139162957668304443359375,"lon":23.38141999999999853798726690001785755157470703125,"poi_name":"Comuna Cic\u00e2rl\u0103u","parent_id":"673887","long":23.38141999999999853798726690001785755157470703125},"16":{"id":"681277","label":"Comuna Coa\u015f","value":"681277","lat":47.51281999999999783312887302599847316741943359375,"lon":23.600460000000001770104063325561583042144775390625,"poi_name":"Comuna Coa\u015f","parent_id":"673887","long":23.600460000000001770104063325561583042144775390625},"17":{"id":"8334813","label":"Comuna Colt\u00e3u","value":"8334813","lat":47.6011799999999993815436027944087982177734375,"lon":23.53450000000000130739863379858434200286865234375,"poi_name":"Comuna Colt\u00e3u","parent_id":"673887","long":23.53450000000000130739863379858434200286865234375},"18":{"id":"680906","label":"Comuna Copalnic M\u0103n\u0103\u015ftur","value":"680906","lat":47.52250000000000085265128291212022304534912109375,"lon":23.687819999999998543671608786098659038543701171875,"poi_name":"Comuna Copalnic M\u0103n\u0103\u015ftur","parent_id":"673887","long":23.687819999999998543671608786098659038543701171875},"19":{"id":"680700","label":"Comuna Coroieni","value":"680700","lat":47.3663499999999970668795867823064327239990234375,"lon":23.777640000000001663238435867242515087127685546875,"poi_name":"Comuna Coroieni","parent_id":"673887","long":23.777640000000001663238435867242515087127685546875},"20":{"id":"679950","label":"Comuna Cup\u015feni","value":"679950","lat":47.5325500000000005229594535194337368011474609375,"lon":23.94243000000000165528035722672939300537109375,"poi_name":"Comuna Cup\u015feni","parent_id":"673887","long":23.94243000000000165528035722672939300537109375},"21":{"id":"681846","label":"Comuna C\u00e2mpulung la Tisa","value":"681846","lat":47.98651000000000266254573944024741649627685546875,"lon":23.77262999999999948386175674386322498321533203125,"poi_name":"Comuna C\u00e2mpulung la Tisa","parent_id":"673887","long":23.77262999999999948386175674386322498321533203125},"22":{"id":"682942","label":"Comuna C\u0103line\u015fti","value":"682942","lat":47.785020000000002937667886726558208465576171875,"lon":23.97010999999999825149643584154546260833740234375,"poi_name":"Comuna C\u0103line\u015fti","parent_id":"673887","long":23.97010999999999825149643584154546260833740234375},"23":{"id":"679460","label":"Comuna Dese\u015fti","value":"679460","lat":47.77004000000000161207935889251530170440673828125,"lon":23.85900000000000176214598468504846096038818359375,"poi_name":"Comuna Dese\u015fti","parent_id":"673887","long":23.85900000000000176214598468504846096038818359375},"24":{"id":"678675","label":"Comuna Dumbr\u0103vi\u0163a","value":"678675","lat":47.6011799999999993815436027944087982177734375,"lon":23.65726000000000084355633589439094066619873046875,"poi_name":"Comuna Dumbr\u0103vi\u0163a","parent_id":"673887","long":23.65726000000000084355633589439094066619873046875},"25":{"id":"678435","label":"Comuna F\u0103rca\u015fa","value":"678435","lat":47.594819999999998572093318216502666473388671875,"lon":23.348259999999999791953086969442665576934814453125,"poi_name":"Comuna F\u0103rca\u015fa","parent_id":"673887","long":23.348259999999999791953086969442665576934814453125},"26":{"id":"677140","label":"Comuna Giule\u015fti","value":"677140","lat":47.82215000000000060254023992456495761871337890625,"lon":23.929939999999998434532244573347270488739013671875,"poi_name":"Comuna Giule\u015fti","parent_id":"673887","long":23.929939999999998434532244573347270488739013671875},"27":{"id":"676649","label":"Comuna Gro\u015fi","value":"676649","lat":47.611930000000000973159330897033214569091796875,"lon":23.58661000000000029785951483063399791717529296875,"poi_name":"Comuna Gro\u015fi","parent_id":"673887","long":23.58661000000000029785951483063399791717529296875},"28":{"id":"676650","label":"Comuna Gro\u015fii \u0162ible\u015fului","value":"676650","lat":47.4898299999999977671905071474611759185791015625,"lon":24.063680000000001513171810074709355831146240234375,"poi_name":"Comuna Gro\u015fii \u0162ible\u015fului","parent_id":"673887","long":24.063680000000001513171810074709355831146240234375},"29":{"id":"8334809","label":"Comuna G\u00e2rdani","value":"8334809","lat":47.5513499999999993406163412146270275115966796875,"lon":23.308800000000001517719283583573997020721435546875,"poi_name":"Comuna G\u00e2rdani","parent_id":"673887","long":23.308800000000001517719283583573997020721435546875},"30":{"id":"675720","label":"Comuna Ieud","value":"675720","lat":47.67739000000000260115484707057476043701171875,"lon":24.233779999999999432702679769136011600494384765625,"poi_name":"Comuna Ieud","parent_id":"673887","long":24.233779999999999432702679769136011600494384765625},"31":{"id":"674879","label":"Comuna Leordina","value":"674879","lat":47.78305999999999897909219725988805294036865234375,"lon":24.2640099999999989677235134877264499664306640625,"poi_name":"Comuna Leordina","parent_id":"673887","long":24.2640099999999989677235134877264499664306640625},"32":{"id":"675044","label":"Comuna L\u0103pu\u015f","value":"675044","lat":47.49363000000000312184056383557617664337158203125,"lon":24.006460000000000576392267248593270778656005859375,"poi_name":"Comuna L\u0103pu\u015f","parent_id":"673887","long":24.006460000000000576392267248593270778656005859375},"33":{"id":"673122","label":"Comuna Mire\u015fu Mare","value":"673122","lat":47.50010999999999938836481305770576000213623046875,"lon":23.364200000000000301270119962282478809356689453125,"poi_name":"Comuna Mire\u015fu Mare","parent_id":"673887","long":23.364200000000000301270119962282478809356689453125},"34":{"id":"672921","label":"Comuna Moisei","value":"672921","lat":47.6561200000000013687895261682569980621337890625,"lon":24.539880000000000137561073643155395984649658203125,"poi_name":"Comuna Moisei","parent_id":"673887","long":24.539880000000000137561073643155395984649658203125},"35":{"id":"672106","label":"Comuna Oar\u0163a De Jos","value":"672106","lat":47.4500000000000028421709430404007434844970703125,"lon":23.10000000000000142108547152020037174224853515625,"poi_name":"Comuna Oar\u0163a De Jos","parent_id":"673887","long":23.10000000000000142108547152020037174224853515625},"36":{"id":"672020","label":"Comuna Ocna \u015eugatag","value":"672020","lat":47.7749299999999976762410369701683521270751953125,"lon":23.91268000000000171212377608753740787506103515625,"poi_name":"Comuna Ocna \u015eugatag","parent_id":"673887","long":23.91268000000000171212377608753740787506103515625},"37":{"id":"671809","label":"Comuna Once\u015fti","value":"671809","lat":47.84814000000000078216544352471828460693359375,"lon":23.981829999999998648263499489985406398773193359375,"poi_name":"Comuna Once\u015fti","parent_id":"673887","long":23.981829999999998648263499489985406398773193359375},"38":{"id":"670933","label":"Comuna Petrova","value":"670933","lat":47.83003000000000071167960413731634616851806640625,"lon":24.216029999999999944293449516408145427703857421875,"poi_name":"Comuna Petrova","parent_id":"673887","long":24.216029999999999944293449516408145427703857421875},"39":{"id":"8334998","label":"Comuna Poienile Izei","value":"8334998","lat":47.703090000000003101376933045685291290283203125,"lon":24.11276000000000152567736222408711910247802734375,"poi_name":"Comuna Poienile Izei","parent_id":"673887","long":24.11276000000000152567736222408711910247802734375},"40":{"id":"669994","label":"Comuna Poienile de sub Munte","value":"669994","lat":47.82370999999999838792064110748469829559326171875,"lon":24.4367400000000003501554601825773715972900390625,"poi_name":"Comuna Poienile de sub Munte","parent_id":"673887","long":24.4367400000000003501554601825773715972900390625},"41":{"id":"669039","label":"Comuna Recea","value":"669039","lat":47.6310799999999971987563185393810272216796875,"lon":23.48610000000000042064129956997931003570556640625,"poi_name":"Comuna Recea","parent_id":"673887","long":23.48610000000000042064129956997931003570556640625},"42":{"id":"668982","label":"Comuna Remetea Chioarului","value":"668982","lat":47.52129000000000047521098167635500431060791015625,"lon":23.528909999999999769215719425119459629058837890625,"poi_name":"Comuna Remetea Chioarului","parent_id":"673887","long":23.528909999999999769215719425119459629058837890625},"43":{"id":"668970","label":"Comuna Reme\u0163i","value":"668970","lat":47.99629999999999796500560478307306766510009765625,"lon":23.58740999999999843339537619613111019134521484375,"poi_name":"Comuna Reme\u0163i","parent_id":"673887","long":23.58740999999999843339537619613111019134521484375},"44":{"id":"668961","label":"Comuna Repedea","value":"668961","lat":47.832120000000003301465767435729503631591796875,"lon":24.401420000000001664375304244458675384521484375,"poi_name":"Comuna Repedea","parent_id":"673887","long":24.401420000000001664375304244458675384521484375},"45":{"id":"668682","label":"Comuna Rona de Jos","value":"668682","lat":47.91667000000000342652128892950713634490966796875,"lon":24.016670000000001294893081649206578731536865234375,"poi_name":"Comuna Rona de Jos","parent_id":"673887","long":24.016670000000001294893081649206578731536865234375},"46":{"id":"668680","label":"Comuna Rona de Sus","value":"668680","lat":47.90183999999999997498889570124447345733642578125,"lon":24.0387699999999995270627550780773162841796875,"poi_name":"Comuna Rona de Sus","parent_id":"673887","long":24.0387699999999995270627550780773162841796875},"47":{"id":"668547","label":"Comuna Rozavlea","value":"668547","lat":47.73790999999999939973349682986736297607421875,"lon":24.2011600000000015597834135405719280242919921875,"poi_name":"Comuna Rozavlea","parent_id":"673887","long":24.2011600000000015597834135405719280242919921875},"48":{"id":"668409","label":"Comuna Ru\u015fcova","value":"668409","lat":47.79288999999999987267074175179004669189453125,"lon":24.28546000000000049112713895738124847412109375,"poi_name":"Comuna Ru\u015fcova","parent_id":"673887","long":24.28546000000000049112713895738124847412109375},"49":{"id":"667880","label":"Comuna Satulung","value":"667880","lat":47.57189000000000334011929226107895374298095703125,"lon":23.419779999999999375859260908327996730804443359375,"poi_name":"Comuna Satulung","parent_id":"673887","long":23.419779999999999375859260908327996730804443359375},"50":{"id":"665944","label":"Comuna Str\u00e2mtura","value":"665944","lat":47.7515599999999977853804011829197406768798828125,"lon":24.102669999999999816964191268198192119598388671875,"poi_name":"Comuna Str\u00e2mtura","parent_id":"673887","long":24.102669999999999816964191268198192119598388671875},"51":{"id":"665841","label":"Comuna Suciu de Sus","value":"665841","lat":47.4430899999999979854692355729639530181884765625,"lon":24.0430300000000016780177247710525989532470703125,"poi_name":"Comuna Suciu de Sus","parent_id":"673887","long":24.0430300000000016780177247710525989532470703125},"52":{"id":"668074","label":"Comuna S\u00e3p\u00e2n\u0163a","value":"668074","lat":47.9693299999999993588062352500855922698974609375,"lon":23.69818000000000068894223659299314022064208984375,"poi_name":"Comuna S\u00e3p\u00e2n\u0163a","parent_id":"673887","long":23.69818000000000068894223659299314022064208984375},"53":{"id":"668317","label":"Comuna S\u0103cel","value":"668317","lat":47.636899999999997135091689415276050567626953125,"lon":24.435079999999999245119397528469562530517578125,"poi_name":"Comuna S\u0103cel","parent_id":"673887","long":24.435079999999999245119397528469562530517578125},"54":{"id":"668343","label":"Comuna S\u0103c\u0103l\u0103\u015feni","value":"668343","lat":47.57041000000000252612153417430818080902099609375,"lon":23.572070000000000078443918027915060520172119140625,"poi_name":"Comuna S\u0103c\u0103l\u0103\u015feni","parent_id":"673887","long":23.572070000000000078443918027915060520172119140625},"55":{"id":"668127","label":"Comuna S\u0103lsig","value":"668127","lat":47.51933999999999969077180139720439910888671875,"lon":23.3027000000000015234036254696547985076904296875,"poi_name":"Comuna S\u0103lsig","parent_id":"673887","long":23.3027000000000015234036254696547985076904296875},"56":{"id":"668055","label":"Comuna S\u0103r\u0103s\u0103u","value":"668055","lat":47.9500000000000028421709430404007434844970703125,"lon":23.816669999999998452722138608805835247039794921875,"poi_name":"Comuna S\u0103r\u0103s\u0103u","parent_id":"673887","long":23.816669999999998452722138608805835247039794921875},"57":{"id":"664026","label":"Comuna Vadu Izei","value":"664026","lat":47.8813099999999991496224538423120975494384765625,"lon":23.960809999999998609609974664635956287384033203125,"poi_name":"Comuna Vadu Izei","parent_id":"673887","long":23.960809999999998609609974664635956287384033203125},"58":{"id":"663839","label":"Comuna Valea Chioarului","value":"663839","lat":47.40706000000000130967237055301666259765625,"lon":23.4610100000000016962076188065111637115478515625,"poi_name":"Comuna Valea Chioarului","parent_id":"673887","long":23.4610100000000016962076188065111637115478515625},"59":{"id":"8334737","label":"Comuna Vima Mic\u00e3","value":"8334737","lat":47.4176599999999979218046064488589763641357421875,"lon":23.688410000000001076614353223703801631927490234375,"poi_name":"Comuna Vima Mic\u00e3","parent_id":"673887","long":23.688410000000001076614353223703801631927490234375},"60":{"id":"662701","label":"Comuna Vi\u015feu de Jos","value":"662701","lat":47.72760000000000246700437855906784534454345703125,"lon":24.363060000000000826503310236148536205291748046875,"poi_name":"Comuna Vi\u015feu de Jos","parent_id":"673887","long":24.363060000000000826503310236148536205291748046875},"61":{"id":"8334661","label":"Comuna \u015eieu","value":"8334661","lat":47.7246200000000015961632016114890575408935546875,"lon":24.223890000000000810587152955122292041778564453125,"poi_name":"Comuna \u015eieu","parent_id":"673887","long":24.223890000000000810587152955122292041778564453125},"62":{"id":"666798","label":"Comuna \u015ei\u015fe\u015fti","value":"666798","lat":47.61328999999999922465576673857867717742919921875,"lon":23.741040000000001697344487183727324008941650390625,"poi_name":"Comuna \u015ei\u015fe\u015fti","parent_id":"673887","long":23.741040000000001697344487183727324008941650390625},"63":{"id":"8334980","label":"Municipiul Baia Mare","value":"8334980","lat":47.74047999999999802867023390717804431915283203125,"lon":23.603370000000001738271748763509094715118408203125,"poi_name":"Municipiul Baia Mare","parent_id":"673887","long":23.603370000000001738271748763509094715118408203125},"64":{"id":"8334962","label":"Municipiul Sighetu Marma\u0163iei","value":"8334962","lat":47.919139999999998735802364535629749298095703125,"lon":23.886790000000001299440555158071219921112060546875,"poi_name":"Municipiul Sighetu Marma\u0163iei","parent_id":"673887","long":23.886790000000001299440555158071219921112060546875},"65":{"id":"8334748","label":"Ora\u015f Baia Sprie","value":"8334748","lat":47.66445999999999827423380338586866855621337890625,"lon":23.66969999999999885176293901167809963226318359375,"poi_name":"Ora\u015f Baia Sprie","parent_id":"673887","long":23.66969999999999885176293901167809963226318359375},"66":{"id":"684152","label":"Ora\u015f Bor\u015fa","value":"684152","lat":47.66964999999999719193510827608406543731689453125,"lon":24.68845999999999918372850515879690647125244140625,"poi_name":"Ora\u015f Bor\u015fa","parent_id":"673887","long":24.68845999999999918372850515879690647125244140625},"67":{"id":"664307","label":"Ora\u015f Ulmeni","value":"664307","lat":47.4620900000000034424374462105333805084228515625,"lon":23.279250000000001108446667785756289958953857421875,"poi_name":"Ora\u015f Ulmeni","parent_id":"673887","long":23.279250000000001108446667785756289958953857421875},"68":{"id":"8334765","label":"Ora\u015f Vi\u015feu De Sus","value":"8334765","lat":47.71493000000000250793164013884961605072021484375,"lon":24.417069999999998941575540811754763126373291015625,"poi_name":"Ora\u015f Vi\u015feu De Sus","parent_id":"673887","long":24.417069999999998941575540811754763126373291015625},"69":{"id":"682507","label":"Ora\u0219 Cavnic","value":"682507","lat":47.649889999999999190549715422093868255615234375,"lon":23.825469999999999259898686432279646396636962890625,"poi_name":"Ora\u0219 Cavnic","parent_id":"673887","long":23.825469999999999259898686432279646396636962890625},"70":{"id":"678917","label":"Ora\u0219 Dragomire\u015fti","value":"678917","lat":47.668599999999997862687450833618640899658203125,"lon":24.29542000000000001591615728102624416351318359375,"poi_name":"Ora\u0219 Dragomire\u015fti","parent_id":"673887","long":24.29542000000000001591615728102624416351318359375},"71":{"id":"667436","label":"Ora\u0219 Seini","value":"667436","lat":47.75,"lon":23.28332999999999941564965411089360713958740234375,"poi_name":"Ora\u0219 Seini","parent_id":"673887","long":23.28332999999999941564965411089360713958740234375},"72":{"id":"668141","label":"Ora\u0219 S\u0103li\u015ftea de Sus","value":"668141","lat":47.66019000000000005456968210637569427490234375,"lon":24.353359999999998564135239575989544391632080078125,"poi_name":"Ora\u0219 S\u0103li\u015ftea de Sus","parent_id":"673887","long":24.353359999999998564135239575989544391632080078125},"73":{"id":"665008","label":"Ora\u0219 T\u00e2rgu L\u0103pu\u015f","value":"665008","lat":47.46123999999999654164639650844037532806396484375,"lon":23.85352999999999923375071375630795955657958984375,"poi_name":"Ora\u0219 T\u00e2rgu L\u0103pu\u015f","parent_id":"673887","long":23.85352999999999923375071375630795955657958984375},"74":{"id":"665381","label":"Ora\u0219 T\u0103u\u0163ii-M\u0103gher\u0103u\u015f","value":"665381","lat":47.72129000000000331738192471675574779510498046875,"lon":23.48601000000000027512214728631079196929931640625,"poi_name":"Ora\u0219 T\u0103u\u0163ii-M\u0103gher\u0103u\u015f","parent_id":"673887","long":23.48601000000000027512214728631079196929931640625},"75":{"id":"666474","label":"Ora\u0219 \u015eomcuta Mare","value":"666474","lat":47.51666999999999774217940284870564937591552734375,"lon":23.46667000000000058435034588910639286041259765625,"poi_name":"Ora\u0219 \u015eomcuta Mare","parent_id":"673887","long":23.46667000000000058435034588910639286041259765625}}