{"success":true,"remaining_lookups":7969,"0":{"id":"8334753","label":"Comuna Alexandru I. Cuza","value":"8334753","lat":47.14424000000000347654349752701818943023681640625,"lon":26.85448999999999841747921891510486602783203125,"poi_name":"Comuna Alexandru I. Cuza","parent_id":"675809","long":26.85448999999999841747921891510486602783203125},"1":{"id":"686340","label":"Comuna Andrie\u015feni","value":"686340","lat":47.51111999999999824240148882381618022918701171875,"lon":27.29502000000000094814822659827768802642822265625,"poi_name":"Comuna Andrie\u015feni","parent_id":"675809","long":27.29502000000000094814822659827768802642822265625},"2":{"id":"686130","label":"Comuna Aroneanu","value":"686130","lat":47.2158400000000000318323145620524883270263671875,"lon":27.606320000000000192130755749531090259552001953125,"poi_name":"Comuna Aroneanu","parent_id":"675809","long":27.606320000000000192130755749531090259552001953125},"3":{"id":"685584","label":"Comuna Bal\u015f","value":"685584","lat":47.29218999999999795136318425647914409637451171875,"lon":26.960280000000000910631570150144398212432861328125,"poi_name":"Comuna Bal\u015f","parent_id":"675809","long":26.960280000000000910631570150144398212432861328125},"4":{"id":"685162","label":"Comuna Belce\u015fti","value":"685162","lat":47.30581000000000102545527624897658824920654296875,"lon":27.087469999999999714646037318743765354156494140625,"poi_name":"Comuna Belce\u015fti","parent_id":"675809","long":27.087469999999999714646037318743765354156494140625},"5":{"id":"684633","label":"Comuna Bivolari","value":"684633","lat":47.52987999999999857436705497093498706817626953125,"lon":27.427260000000000417230694438330829143524169921875,"poi_name":"Comuna Bivolari","parent_id":"675809","long":27.427260000000000417230694438330829143524169921875},"6":{"id":"683917","label":"Comuna Br\u0103e\u015fti","value":"683917","lat":47.1631799999999969941200106404721736907958984375,"lon":27.090309999999998780140231247060000896453857421875,"poi_name":"Comuna Br\u0103e\u015fti","parent_id":"675809","long":27.090309999999998780140231247060000896453857421875},"7":{"id":"683165","label":"Comuna Butea","value":"683165","lat":47.0838600000000013778844731859862804412841796875,"lon":26.935520000000000351292328559793531894683837890625,"poi_name":"Comuna Butea","parent_id":"675809","long":26.935520000000000351292328559793531894683837890625},"8":{"id":"684776","label":"Comuna B\u00e2rnova","value":"684776","lat":47.08668999999999726924215792678296566009521484375,"lon":27.626349999999998630073605454526841640472412109375,"poi_name":"Comuna B\u00e2rnova","parent_id":"675809","long":27.626349999999998630073605454526841640472412109375},"9":{"id":"685543","label":"Comuna B\u0103l\u0163a\u0163i","value":"685543","lat":47.2336600000000004229150363244116306304931640625,"lon":27.11865999999999843339537619613111019134521484375,"poi_name":"Comuna B\u0103l\u0163a\u0163i","parent_id":"675809","long":27.11865999999999843339537619613111019134521484375},"10":{"id":"682406","label":"Comuna Cepleni\u0163a","value":"682406","lat":47.37581000000000130967237055301666259765625,"lon":26.92596999999999951569407130591571331024169921875,"poi_name":"Comuna Cepleni\u0163a","parent_id":"675809","long":26.92596999999999951569407130591571331024169921875},"11":{"id":"8334904","label":"Comuna Ciohor\u00e3ni","value":"8334904","lat":47.13519999999999754436430521309375762939453125,"lon":26.689550000000000551381162949837744235992431640625,"poi_name":"Comuna Ciohor\u00e3ni","parent_id":"675809","long":26.689550000000000551381162949837744235992431640625},"12":{"id":"681633","label":"Comuna Ciorte\u015fti","value":"681633","lat":46.9176599999999979218046064488589763641357421875,"lon":27.84749000000000052068571676500141620635986328125,"poi_name":"Comuna Ciorte\u015fti","parent_id":"675809","long":27.84749000000000052068571676500141620635986328125},"13":{"id":"681383","label":"Comuna Ciurea","value":"681383","lat":47.06150000000000233058017329312860965728759765625,"lon":27.575720000000000453610482509247958660125732421875,"poi_name":"Comuna Ciurea","parent_id":"675809","long":27.575720000000000453610482509247958660125732421875},"14":{"id":"681279","label":"Comuna Coarnele Caprei","value":"681279","lat":47.40194999999999936335370875895023345947265625,"lon":27.096990000000001685975803411565721035003662109375,"poi_name":"Comuna Coarnele Caprei","parent_id":"675809","long":27.096990000000001685975803411565721035003662109375},"15":{"id":"8334919","label":"Comuna Comarna","value":"8334919","lat":47.07003999999999876990841585211455821990966796875,"lon":27.786680000000000489990270580165088176727294921875,"poi_name":"Comuna Comarna","parent_id":"675809","long":27.786680000000000489990270580165088176727294921875},"16":{"id":"680563","label":"Comuna Coste\u015fti","value":"680563","lat":47.24224000000000245336195803247392177581787109375,"lon":26.91751000000000004774847184307873249053955078125,"poi_name":"Comuna Coste\u015fti","parent_id":"675809","long":26.91751000000000004774847184307873249053955078125},"17":{"id":"680530","label":"Comuna Costuleni","value":"680530","lat":47.01055000000000205773176276125013828277587890625,"lon":27.858290000000000219415596802718937397003173828125,"poi_name":"Comuna Costuleni","parent_id":"675809","long":27.858290000000000219415596802718937397003173828125},"18":{"id":"680490","label":"Comuna Cotnari","value":"680490","lat":47.3581300000000027239366318099200725555419921875,"lon":26.916869999999999407691575470380485057830810546875,"poi_name":"Comuna Cotnari","parent_id":"675809","long":26.916869999999999407691575470380485057830810546875},"19":{"id":"680387","label":"Comuna Cozme\u015fti","value":"680387","lat":46.860320000000001527951098978519439697265625,"lon":28.012969999999999259898686432279646396636962890625,"poi_name":"Comuna Cozme\u015fti","parent_id":"675809","long":28.012969999999999259898686432279646396636962890625},"20":{"id":"680173","label":"Comuna Criste\u015fti","value":"680173","lat":47.27821000000000140062184073030948638916015625,"lon":26.585249999999998493649400188587605953216552734375,"poi_name":"Comuna Criste\u015fti","parent_id":"675809","long":26.585249999999998493649400188587605953216552734375},"21":{"id":"8334730","label":"Comuna Cucuteni","value":"8334730","lat":47.27586999999999761712388135492801666259765625,"lon":26.928070000000001726903064991347491741180419921875,"poi_name":"Comuna Cucuteni","parent_id":"675809","long":26.928070000000001726903064991347491741180419921875},"22":{"id":"679823","label":"Comuna Dag\u00e2\u0163a","value":"679823","lat":46.94469000000000136196831590496003627777099609375,"lon":27.191469999999998918838173267431557178497314453125,"poi_name":"Comuna Dag\u00e2\u0163a","parent_id":"675809","long":27.191469999999998918838173267431557178497314453125},"23":{"id":"679511","label":"Comuna Deleni","value":"679511","lat":47.47458000000000311047188006341457366943359375,"lon":26.894510000000000360387275577522814273834228515625,"poi_name":"Comuna Deleni","parent_id":"675809","long":26.894510000000000360387275577522814273834228515625},"24":{"id":"679196","label":"Comuna Dobrov\u0103\u0163","value":"679196","lat":46.96334999999999837427822058089077472686767578125,"lon":27.722449999999998482280716416426002979278564453125,"poi_name":"Comuna Dobrov\u0103\u0163","parent_id":"675809","long":27.722449999999998482280716416426002979278564453125},"25":{"id":"679140","label":"Comuna Dolhe\u015fti","value":"679140","lat":46.8695799999999991314325598068535327911376953125,"lon":27.90652000000000043655745685100555419921875,"poi_name":"Comuna Dolhe\u015fti","parent_id":"675809","long":27.90652000000000043655745685100555419921875},"26":{"id":"678878","label":"Comuna Dr\u0103gu\u015feni","value":"678878","lat":46.89432000000000044792614062316715717315673828125,"lon":27.494910000000000849240677780471742153167724609375,"poi_name":"Comuna Dr\u0103gu\u015feni","parent_id":"675809","long":27.494910000000000849240677780471742153167724609375},"27":{"id":"678663","label":"Comuna Dume\u015fti","value":"678663","lat":47.17667999999999750571078038774430751800537109375,"lon":27.334700000000001551825334900058805942535400390625,"poi_name":"Comuna Dume\u015fti","parent_id":"675809","long":27.334700000000001551825334900058805942535400390625},"28":{"id":"678551","label":"Comuna Erbiceni","value":"678551","lat":47.2521899999999988040144671685993671417236328125,"lon":27.24756000000000000227373675443232059478759765625,"poi_name":"Comuna Erbiceni","parent_id":"675809","long":27.24756000000000000227373675443232059478759765625},"29":{"id":"678012","label":"Comuna Focuri","value":"678012","lat":47.3511299999999977217157720588147640228271484375,"lon":27.202000000000001733724275254644453525543212890625,"poi_name":"Comuna Focuri","parent_id":"675809","long":27.202000000000001733724275254644453525543212890625},"30":{"id":"678142","label":"Comuna F\u00e2nt\u00e2nele","value":"678142","lat":47.4149799999999999045030563138425350189208984375,"lon":27.180659999999999598685462842695415019989013671875,"poi_name":"Comuna F\u00e2nt\u00e2nele","parent_id":"675809","long":27.180659999999999598685462842695415019989013671875},"31":{"id":"676959","label":"Comuna Gol\u00e3ie\u015fti","value":"676959","lat":47.26355000000000217141860048286616802215576171875,"lon":27.695150000000001710986907710321247577667236328125,"poi_name":"Comuna Gol\u00e3ie\u015fti","parent_id":"675809","long":27.695150000000001710986907710321247577667236328125},"32":{"id":"676919","label":"Comuna Gorban","value":"676919","lat":46.90059000000000111185727291740477085113525390625,"lon":28.070170000000000953832568484358489513397216796875,"poi_name":"Comuna Gorban","parent_id":"675809","long":28.070170000000000953832568484358489513397216796875},"33":{"id":"676797","label":"Comuna Grajduri","value":"676797","lat":46.97068999999999761030267109163105487823486328125,"lon":27.555689999999998462953954003751277923583984375,"poi_name":"Comuna Grajduri","parent_id":"675809","long":27.555689999999998462953954003751277923583984375},"34":{"id":"676672","label":"Comuna Gropni\u0163a","value":"676672","lat":47.3687400000000025102053768932819366455078125,"lon":27.263760000000001326725396211259067058563232421875,"poi_name":"Comuna Gropni\u0163a","parent_id":"675809","long":27.263760000000001326725396211259067058563232421875},"35":{"id":"676631","label":"Comuna Groze\u015fti","value":"676631","lat":47.01001000000000118461684905923902988433837890625,"lon":28.025069999999999481588019989430904388427734375,"poi_name":"Comuna Groze\u015fti","parent_id":"675809","long":28.025069999999999481588019989430904388427734375},"36":{"id":"676255","label":"Comuna Hele\u015fteni","value":"676255","lat":47.19295000000000328554961015470325946807861328125,"lon":26.8806000000000011596057447604835033416748046875,"poi_name":"Comuna Hele\u015fteni","parent_id":"675809","long":26.8806000000000011596057447604835033416748046875},"37":{"id":"676077","label":"Comuna Holboca","value":"676077","lat":47.17511999999999972033037920482456684112548828125,"lon":27.6823499999999995679900166578590869903564453125,"poi_name":"Comuna Holboca","parent_id":"675809","long":27.6823499999999995679900166578590869903564453125},"38":{"id":"675996","label":"Comuna Horle\u015fti","value":"675996","lat":47.11717999999999761939761810936033725738525390625,"lon":27.40856000000000136651578941382467746734619140625,"poi_name":"Comuna Horle\u015fti","parent_id":"675809","long":27.40856000000000136651578941382467746734619140625},"39":{"id":"676370","label":"Comuna H\u0103l\u0103uce\u015fti","value":"676370","lat":47.10593000000000074578565545380115509033203125,"lon":26.809670000000000555928636458702385425567626953125,"poi_name":"Comuna H\u0103l\u0103uce\u015fti","parent_id":"675809","long":26.809670000000000555928636458702385425567626953125},"40":{"id":"676301","label":"Comuna H\u0103rm\u0103ne\u015fti","value":"676301","lat":47.27087000000000216459739021956920623779296875,"lon":26.81322000000000116415321826934814453125,"poi_name":"Comuna H\u0103rm\u0103ne\u015fti","parent_id":"675809","long":26.81322000000000116415321826934814453125},"41":{"id":"8334893","label":"Comuna Ion Neculce","value":"8334893","lat":47.20159000000000304453351418487727642059326171875,"lon":27.03220999999999918372850515879690647125244140625,"poi_name":"Comuna Ion Neculce","parent_id":"675809","long":27.03220999999999918372850515879690647125244140625},"42":{"id":"675511","label":"Comuna Ipatele","value":"675511","lat":46.90390000000000014779288903810083866119384765625,"lon":27.437619999999999009787643444724380970001220703125,"poi_name":"Comuna Ipatele","parent_id":"675809","long":27.437619999999999009787643444724380970001220703125},"43":{"id":"674843","label":"Comuna Lespezi","value":"674843","lat":47.349569999999999936335370875895023345947265625,"lon":26.688069999999999737383404863066971302032470703125,"poi_name":"Comuna Lespezi","parent_id":"675809","long":26.688069999999999737383404863066971302032470703125},"44":{"id":"674833","label":"Comuna Le\u0163cani","value":"674833","lat":47.1801200000000022782842279411852359771728515625,"lon":27.412960000000001770104063325561583042144775390625,"poi_name":"Comuna Le\u0163cani","parent_id":"675809","long":27.412960000000001770104063325561583042144775390625},"45":{"id":"674322","label":"Comuna Lungani","value":"674322","lat":47.1756400000000013505996321327984333038330078125,"lon":27.157489999999999241708792396821081638336181640625,"poi_name":"Comuna Lungani","parent_id":"675809","long":27.157489999999999241708792396821081638336181640625},"46":{"id":"673137","label":"Comuna Mirce\u015fti","value":"673137","lat":47.05485999999999791043592267669737339019775390625,"lon":26.83944999999999936335370875895023345947265625,"poi_name":"Comuna Mirce\u015fti","parent_id":"675809","long":26.83944999999999936335370875895023345947265625},"47":{"id":"673105","label":"Comuna Mironeasa","value":"673105","lat":46.99869000000000340833139489404857158660888671875,"lon":27.4251900000000006230038707144558429718017578125,"poi_name":"Comuna Mironeasa","parent_id":"675809","long":27.4251900000000006230038707144558429718017578125},"48":{"id":"8334963","label":"Comuna Miroslava","value":"8334963","lat":47.13047000000000252839527092874050140380859375,"lon":27.510390000000001009539118967950344085693359375,"poi_name":"Comuna Miroslava","parent_id":"675809","long":27.510390000000001009539118967950344085693359375},"49":{"id":"673095","label":"Comuna Miroslove\u015fti","value":"673095","lat":47.13965999999999922920324024744331836700439453125,"lon":26.646480000000000387672116630710661411285400390625,"poi_name":"Comuna Miroslove\u015fti","parent_id":"675809","long":26.646480000000000387672116630710661411285400390625},"50":{"id":"672940","label":"Comuna Mogo\u015fe\u015fti","value":"672940","lat":47.042000000000001591615728102624416351318359375,"lon":27.484919999999998907469489495269954204559326171875,"poi_name":"Comuna Mogo\u015fe\u015fti","parent_id":"675809","long":27.484919999999998907469489495269954204559326171875},"51":{"id":"8334710","label":"Comuna Mogo\u015fe\u015fti-Siret","value":"8334710","lat":47.131900000000001682565198279917240142822265625,"lon":26.771010000000000417230694438330829143524169921875,"poi_name":"Comuna Mogo\u015fe\u015fti-Siret","parent_id":"675809","long":26.771010000000000417230694438330829143524169921875},"52":{"id":"672725","label":"Comuna Movileni","value":"672725","lat":47.32032000000000238060238189063966274261474609375,"lon":27.380160000000000053432813729159533977508544921875,"poi_name":"Comuna Movileni","parent_id":"675809","long":27.380160000000000053432813729159533977508544921875},"53":{"id":"672821","label":"Comuna Mo\u015fna","value":"672821","lat":46.92188999999999765577740618027746677398681640625,"lon":27.959559999999999746478351880796253681182861328125,"poi_name":"Comuna Mo\u015fna","parent_id":"675809","long":27.959559999999999746478351880796253681182861328125},"54":{"id":"672780","label":"Comuna Mo\u0163ca","value":"672780","lat":47.2240699999999975489117787219583988189697265625,"lon":26.616320000000001755324774421751499176025390625,"poi_name":"Comuna Mo\u0163ca","parent_id":"675809","long":26.616320000000001755324774421751499176025390625},"55":{"id":"674204","label":"Comuna M\u0103d\u00e2rjac","value":"674204","lat":47.04093999999999908823156147263944149017333984375,"lon":27.277159999999998518660504487343132495880126953125,"poi_name":"Comuna M\u0103d\u00e2rjac","parent_id":"675809","long":27.277159999999998518660504487343132495880126953125},"56":{"id":"671606","label":"Comuna O\u0163eleni","value":"671606","lat":47.08565999999999718284016125835478305816650390625,"lon":27.027300000000000324007487506605684757232666015625,"poi_name":"Comuna O\u0163eleni","parent_id":"675809","long":27.027300000000000324007487506605684757232666015625},"57":{"id":"670389","label":"Comuna Plugari","value":"670389","lat":47.47731999999999885631041252054274082183837890625,"lon":27.115770000000001260787030332721769809722900390625,"poi_name":"Comuna Plugari","parent_id":"675809","long":27.115770000000001260787030332721769809722900390625},"58":{"id":"669876","label":"Comuna Pope\u015fti","value":"669876","lat":47.1370399999999989404386724345386028289794921875,"lon":27.2616900000000015324985724873840808868408203125,"poi_name":"Comuna Pope\u015fti","parent_id":"675809","long":27.2616900000000015324985724873840808868408203125},"59":{"id":"669846","label":"Comuna Popricani","value":"669846","lat":47.2674999999999982946974341757595539093017578125,"lon":27.52729000000000070258465711958706378936767578125,"poi_name":"Comuna Popricani","parent_id":"675809","long":27.52729000000000070258465711958706378936767578125},"60":{"id":"669616","label":"Comuna Pris\u0103cani","value":"669616","lat":47.0701499999999981582732289098203182220458984375,"lon":27.907949999999999590727384202182292938232421875,"poi_name":"Comuna Pris\u0103cani","parent_id":"675809","long":27.907949999999999590727384202182292938232421875},"61":{"id":"669585","label":"Comuna Probota","value":"669585","lat":47.38792000000000115278453449718654155731201171875,"lon":27.494460000000000121644916362129151821136474609375,"poi_name":"Comuna Probota","parent_id":"675809","long":27.494460000000000121644916362129151821136474609375},"62":{"id":"669001","label":"Comuna Rediu-T\u0103tar","value":"669001","lat":47.2316900000000003956301952712237834930419921875,"lon":27.487469999999998293560565798543393611907958984375,"poi_name":"Comuna Rediu-T\u0103tar","parent_id":"675809","long":27.487469999999998293560565798543393611907958984375},"63":{"id":"668700","label":"Comuna Rom\u00e2ne\u015fti","value":"668700","lat":47.2717099999999987858245731331408023834228515625,"lon":27.35819000000000045247361413203179836273193359375,"poi_name":"Comuna Rom\u00e2ne\u015fti","parent_id":"675809","long":27.35819000000000045247361413203179836273193359375},"64":{"id":"668668","label":"Comuna Ro\u015fcani","value":"668668","lat":47.44259000000000270347300102002918720245361328125,"lon":27.41778000000000048430592869408428668975830078125,"poi_name":"Comuna Ro\u015fcani","parent_id":"675809","long":27.41778000000000048430592869408428668975830078125},"65":{"id":"668486","label":"Comuna Ruginoasa","value":"668486","lat":47.25258999999999787178239785134792327880859375,"lon":26.855889999999998707380655105225741863250732421875,"poi_name":"Comuna Ruginoasa","parent_id":"675809","long":26.855889999999998707380655105225741863250732421875},"66":{"id":"669372","label":"Comuna R\u0103chi\u0163eni","value":"669372","lat":47.0516300000000029513103072531521320343017578125,"lon":26.9050399999999996225596987642347812652587890625,"poi_name":"Comuna R\u0103chi\u0163eni","parent_id":"675809","long":26.9050399999999996225596987642347812652587890625},"67":{"id":"669240","label":"Comuna R\u0103duc\u0103neni","value":"669240","lat":46.955410000000000536601874046027660369873046875,"lon":27.973440000000000082991391536779701709747314453125,"poi_name":"Comuna R\u0103duc\u0103neni","parent_id":"675809","long":27.973440000000000082991391536779701709747314453125},"68":{"id":"667704","label":"Comuna Scheia","value":"667704","lat":46.93950000000000244426701101474463939666748046875,"lon":27.49765000000000014779288903810083866119384765625,"poi_name":"Comuna Scheia","parent_id":"675809","long":27.49765000000000014779288903810083866119384765625},"69":{"id":"667652","label":"Comuna Schitu-Duca","value":"667652","lat":47.0025499999999993860910763032734394073486328125,"lon":27.76702999999999832425601198337972164154052734375,"poi_name":"Comuna Schitu-Duca","parent_id":"675809","long":27.76702999999999832425601198337972164154052734375},"70":{"id":"667605","label":"Comuna Scobin\u0163i","value":"667605","lat":47.40529000000000081627149484120309352874755859375,"lon":26.8984999999999985220711096189916133880615234375,"poi_name":"Comuna Scobin\u0163i","parent_id":"675809","long":26.8984999999999985220711096189916133880615234375},"71":{"id":"667618","label":"Comuna Sc\u00e2nteia","value":"667618","lat":46.92407999999999645979187334887683391571044921875,"lon":27.588550000000001460875864722765982151031494140625,"poi_name":"Comuna Sc\u00e2nteia","parent_id":"675809","long":27.588550000000001460875864722765982151031494140625},"72":{"id":"667041","label":"Comuna Sine\u015fti","value":"667041","lat":47.12116999999999933379513095133006572723388671875,"lon":27.1874499999999983401721692644059658050537109375,"poi_name":"Comuna Sine\u015fti","parent_id":"675809","long":27.1874499999999983401721692644059658050537109375},"73":{"id":"666827","label":"Comuna Sire\u0163el","value":"666827","lat":47.41839999999999832880348549224436283111572265625,"lon":26.73380999999999829697117093019187450408935546875,"poi_name":"Comuna Sire\u0163el","parent_id":"675809","long":26.73380999999999829697117093019187450408935546875},"74":{"id":"666036","label":"Comuna Stolniceni-Pr\u0103jescu","value":"666036","lat":47.18563000000000329237082041800022125244140625,"lon":26.73525000000000062527760746888816356658935546875,"poi_name":"Comuna Stolniceni-Pr\u0103jescu","parent_id":"675809","long":26.73525000000000062527760746888816356658935546875},"75":{"id":"665913","label":"Comuna Strunga","value":"665913","lat":47.16020999999999929741534288041293621063232421875,"lon":26.943999999999999062083588796667754650115966796875,"poi_name":"Comuna Strunga","parent_id":"675809","long":26.943999999999999062083588796667754650115966796875},"76":{"id":"665534","label":"Comuna Tansa","value":"665534","lat":46.90811999999999670762917958199977874755859375,"lon":27.2480800000000016325429896824061870574951171875,"poi_name":"Comuna Tansa","parent_id":"675809","long":27.2480800000000016325429896824061870574951171875},"77":{"id":"8334945","label":"Comuna Todire\u015fti","value":"8334945","lat":47.3213700000000017098500393331050872802734375,"lon":26.877430000000000376303432858549058437347412109375,"poi_name":"Comuna Todire\u015fti","parent_id":"675809","long":26.877430000000000376303432858549058437347412109375},"78":{"id":"664815","label":"Comuna Tome\u015fti","value":"664815","lat":47.117040000000002919477992691099643707275390625,"lon":27.70476000000000027512214728631079196929931640625,"poi_name":"Comuna Tome\u015fti","parent_id":"675809","long":27.70476000000000027512214728631079196929931640625},"79":{"id":"664607","label":"Comuna Trife\u015fti","value":"664607","lat":47.44991999999999876536094234324991703033447265625,"lon":27.531749999999998834709913353435695171356201171875,"poi_name":"Comuna Trife\u015fti","parent_id":"675809","long":27.531749999999998834709913353435695171356201171875},"80":{"id":"665424","label":"Comuna T\u0103t\u0103ru\u015fi","value":"665424","lat":47.3425399999999996225596987642347812652587890625,"lon":26.585899999999998755129126948304474353790283203125,"poi_name":"Comuna T\u0103t\u0103ru\u015fi","parent_id":"675809","long":26.585899999999998755129126948304474353790283203125},"81":{"id":"8334798","label":"Comuna Ungheni","value":"8334798","lat":47.20176000000000016143530956469476222991943359375,"lon":27.7466399999999993042365531437098979949951171875,"poi_name":"Comuna Ungheni","parent_id":"675809","long":27.7466399999999993042365531437098979949951171875},"82":{"id":"8334762","label":"Comuna Valea Lupului","value":"8334762","lat":47.17920000000000158024704433046281337738037109375,"lon":27.499649999999999039346221252344548702239990234375,"poi_name":"Comuna Valea Lupului","parent_id":"675809","long":27.499649999999999039346221252344548702239990234375},"83":{"id":"663410","label":"Comuna Valea Seac\u0103","value":"663410","lat":47.28840000000000287627699435688555240631103515625,"lon":26.66454999999999841975295566953718662261962890625,"poi_name":"Comuna Valea Seac\u0103","parent_id":"675809","long":26.66454999999999841975295566953718662261962890625},"84":{"id":"8334907","label":"Comuna Victoria","value":"8334907","lat":47.307490000000001373336999677121639251708984375,"lon":27.60170000000000101181285572238266468048095703125,"poi_name":"Comuna Victoria","parent_id":"675809","long":27.60170000000000101181285572238266468048095703125},"85":{"id":"662628","label":"Comuna Vl\u0103deni","value":"662628","lat":47.43755999999999772853698232211172580718994140625,"lon":27.3355999999999994543031789362430572509765625,"poi_name":"Comuna Vl\u0103deni","parent_id":"675809","long":27.3355999999999994543031789362430572509765625},"86":{"id":"662514","label":"Comuna Voine\u015fti","value":"662514","lat":47.0750900000000029876900953240692615509033203125,"lon":27.421510000000001383568815072067081928253173828125,"poi_name":"Comuna Voine\u015fti","parent_id":"675809","long":27.421510000000001383568815072067081928253173828125},"87":{"id":"662828","label":"Comuna V\u00e2n\u00e3tori","value":"662828","lat":47.33379000000000047521098167635500431060791015625,"lon":26.76404000000000138470568344928324222564697265625,"poi_name":"Comuna V\u00e2n\u00e3tori","parent_id":"675809","long":26.76404000000000138470568344928324222564697265625},"88":{"id":"666875","label":"Comuna \u015eipote","value":"666875","lat":47.4603800000000006775735528208315372467041015625,"lon":27.225919999999998566408976330421864986419677734375,"poi_name":"Comuna \u015eipote","parent_id":"675809","long":27.225919999999998566408976330421864986419677734375},"89":{"id":"665195","label":"Comuna \u0162ibana","value":"665195","lat":46.98684999999999689634933019988238811492919921875,"lon":27.3260700000000014142642612569034099578857421875,"poi_name":"Comuna \u0162ibana","parent_id":"675809","long":27.3260700000000014142642612569034099578857421875},"90":{"id":"665191","label":"Comuna \u0162ib\u0103ne\u015fti","value":"665191","lat":46.9175699999999977762854541651904582977294921875,"lon":27.3354700000000008230927051045000553131103515625,"poi_name":"Comuna \u0162ib\u0103ne\u015fti","parent_id":"675809","long":27.3354700000000008230927051045000553131103515625},"91":{"id":"665144","label":"Comuna \u0162ig\u0103na\u015fi","value":"665144","lat":47.348669999999998481143848039209842681884765625,"lon":27.45588000000000050704329623840749263763427734375,"poi_name":"Comuna \u0162ig\u0103na\u015fi","parent_id":"675809","long":27.45588000000000050704329623840749263763427734375},"92":{"id":"664405","label":"Comuna \u0162u\u0163ora","value":"664405","lat":47.12577999999999889269020059145987033843994140625,"lon":27.798660000000001701891960692591965198516845703125,"poi_name":"Comuna \u0162u\u0163ora","parent_id":"675809","long":27.798660000000001701891960692591965198516845703125},"93":{"id":"8334835","label":"Municipiul Ia\u015fi","value":"8334835","lat":47.1618399999999979854692355729639530181884765625,"lon":27.58451000000000163936419994570314884185791015625,"poi_name":"Municipiul Ia\u015fi","parent_id":"675809","long":27.58451000000000163936419994570314884185791015625},"94":{"id":"8335000","label":"Municipiul Pa\u015fcani","value":"8335000","lat":47.2473600000000004683897714130580425262451171875,"lon":26.7123500000000007048583938740193843841552734375,"poi_name":"Municipiul Pa\u015fcani","parent_id":"675809","long":26.7123500000000007048583938740193843841552734375},"95":{"id":"676175","label":"Ora\u015f H\u00e2rl\u00e3u","value":"676175","lat":47.43153000000000218960849451832473278045654296875,"lon":26.877739999999999298552211257629096508026123046875,"poi_name":"Ora\u015f H\u00e2rl\u00e3u","parent_id":"675809","long":26.877739999999999298552211257629096508026123046875},"96":{"id":"670296","label":"Ora\u015f Podu Iloaiei","value":"670296","lat":47.20806999999999931105776340700685977935791015625,"lon":27.265480000000000160298441187478601932525634765625,"poi_name":"Ora\u015f Podu Iloaiei","parent_id":"675809","long":27.265480000000000160298441187478601932525634765625},"97":{"id":"665012","label":"Ora\u015f T\u00e2rgu Frumos","value":"665012","lat":47.2078800000000029513103072531521320343017578125,"lon":27.011959999999998416342350537888705730438232421875,"poi_name":"Ora\u015f T\u00e2rgu Frumos","parent_id":"675809","long":27.011959999999998416342350537888705730438232421875}}