{"success":true,"remaining_lookups":7985,"0":{"id":"685831","label":"Comuna Baia de Cri\u015f","value":"685831","lat":46.1822700000000025966073735617101192474365234375,"lon":22.700269999999999726014721090905368328094482421875,"poi_name":"Comuna Baia de Cri\u015f","parent_id":"675917","long":22.700269999999999726014721090905368328094482421875},"1":{"id":"685581","label":"Comuna Bal\u015fa","value":"685581","lat":46.04737999999999686906448914669454097747802734375,"lon":23.068860000000000809450284577906131744384765625,"poi_name":"Comuna Bal\u015fa","parent_id":"675917","long":23.068860000000000809450284577906131744384765625},"2":{"id":"685321","label":"Comuna Baru","value":"685321","lat":45.47912000000000176669345819391310214996337890625,"lon":23.15131999999999834471964277327060699462890625,"poi_name":"Comuna Baru","parent_id":"675917","long":23.15131999999999834471964277327060699462890625},"3":{"id":"684994","label":"Comuna Beriu","value":"684994","lat":45.7634699999999980946085997857153415679931640625,"lon":23.23125999999999891088009462691843509674072265625,"poi_name":"Comuna Beriu","parent_id":"675917","long":23.23125999999999891088009462691843509674072265625},"4":{"id":"684605","label":"Comuna Bl\u0103jeni","value":"684605","lat":46.25491000000000241243469645269215106964111328125,"lon":22.903349999999999653255144949071109294891357421875,"poi_name":"Comuna Bl\u0103jeni","parent_id":"675917","long":22.903349999999999653255144949071109294891357421875},"5":{"id":"684102","label":"Comuna Bo\u015forod","value":"684102","lat":45.63804999999999978399500832892954349517822265625,"lon":23.12989999999999923829818726517260074615478515625,"poi_name":"Comuna Bo\u015forod","parent_id":"675917","long":23.12989999999999923829818726517260074615478515625},"6":{"id":"683709","label":"Comuna Bretea Rom\u00e2n\u0103","value":"683709","lat":45.66020999999999929741534288041293621063232421875,"lon":23.016649999999998499333742074668407440185546875,"poi_name":"Comuna Bretea Rom\u00e2n\u0103","parent_id":"675917","long":23.016649999999998499333742074668407440185546875},"7":{"id":"683872","label":"Comuna Br\u0103ni\u015fca","value":"683872","lat":45.9718500000000034333424991928040981292724609375,"lon":22.767230000000001410853656125254929065704345703125,"poi_name":"Comuna Br\u0103ni\u015fca","parent_id":"675917","long":22.767230000000001410853656125254929065704345703125},"8":{"id":"683593","label":"Comuna Buce\u015f","value":"683593","lat":46.1912999999999982492226990871131420135498046875,"lon":22.977180000000000603677108301781117916107177734375,"poi_name":"Comuna Buce\u015f","parent_id":"675917","long":22.977180000000000603677108301781117916107177734375},"9":{"id":"683507","label":"Comuna Bucure\u015fci","value":"683507","lat":46.123919999999998253770172595977783203125,"lon":22.9304699999999996862243278883397579193115234375,"poi_name":"Comuna Bucure\u015fci","parent_id":"675917","long":22.9304699999999996862243278883397579193115234375},"10":{"id":"8334801","label":"Comuna Bulze\u015ftii De Sus","value":"8334801","lat":46.2938299999999998135535861365497112274169921875,"lon":22.777660000000000906084096641279757022857666015625,"poi_name":"Comuna Bulze\u015ftii De Sus","parent_id":"675917","long":22.777660000000000906084096641279757022857666015625},"11":{"id":"683258","label":"Comuna Bunila","value":"683258","lat":45.6945400000000034879121812991797924041748046875,"lon":22.657630000000001047055775416083633899688720703125,"poi_name":"Comuna Bunila","parent_id":"675917","long":22.657630000000001047055775416083633899688720703125},"12":{"id":"683222","label":"Comuna Burjuc","value":"683222","lat":45.97099999999999653255144949071109294891357421875,"lon":22.501639999999998309476723079569637775421142578125,"poi_name":"Comuna Burjuc","parent_id":"675917","long":22.501639999999998309476723079569637775421142578125},"13":{"id":"685931","label":"Comuna B\u0103cia","value":"685931","lat":45.80832000000000192585503100417554378509521484375,"lon":23.0253000000000014324541552923619747161865234375,"poi_name":"Comuna B\u0103cia","parent_id":"675917","long":23.0253000000000014324541552923619747161865234375},"14":{"id":"685764","label":"Comuna B\u0103i\u0163a","value":"685764","lat":46.02423999999999892906998866237699985504150390625,"lon":22.89086999999999960664354148320853710174560546875,"poi_name":"Comuna B\u0103i\u0163a","parent_id":"675917","long":22.89086999999999960664354148320853710174560546875},"15":{"id":"685448","label":"Comuna B\u0103ni\u0163a","value":"685448","lat":45.45635999999999654619387001730501651763916015625,"lon":23.2321400000000011232259566895663738250732421875,"poi_name":"Comuna B\u0103ni\u0163a","parent_id":"675917","long":23.2321400000000011232259566895663738250732421875},"16":{"id":"685253","label":"Comuna B\u0103tr\u00e2na","value":"685253","lat":45.80901000000000067302607931196689605712890625,"lon":22.588589999999999946567186270840466022491455078125,"poi_name":"Comuna B\u0103tr\u00e2na","parent_id":"675917","long":22.588589999999999946567186270840466022491455078125},"17":{"id":"682390","label":"Comuna Cerb\u0103l","value":"682390","lat":45.7860299999999966757968650199472904205322265625,"lon":22.680589999999998696011971333064138889312744140625,"poi_name":"Comuna Cerb\u0103l","parent_id":"675917","long":22.680589999999998696011971333064138889312744140625},"18":{"id":"682286","label":"Comuna Certeju de Sus","value":"682286","lat":45.97437000000000040245140553452074527740478515625,"lon":22.98863000000000056388671509921550750732421875,"poi_name":"Comuna Certeju de Sus","parent_id":"675917","long":22.98863000000000056388671509921550750732421875},"19":{"id":"680197","label":"Comuna Cri\u015fcior","value":"680197","lat":46.1232600000000019235812942497432231903076171875,"lon":22.865899999999999891997504164464771747589111328125,"poi_name":"Comuna Cri\u015fcior","parent_id":"675917","long":22.865899999999999891997504164464771747589111328125},"20":{"id":"681577","label":"Comuna C\u00e2rji\u0163i","value":"681577","lat":45.84678000000000253066900768317282199859619140625,"lon":22.834669999999999134843164938502013683319091796875,"poi_name":"Comuna C\u00e2rji\u0163i","parent_id":"675917","long":22.834669999999999134843164938502013683319091796875},"21":{"id":"679480","label":"Comuna Densu\u015f","value":"679480","lat":45.56403000000000247382558882236480712890625,"lon":22.77805000000000035242919693700969219207763671875,"poi_name":"Comuna Densu\u015f","parent_id":"675917","long":22.77805000000000035242919693700969219207763671875},"22":{"id":"679262","label":"Comuna Dobra","value":"679262","lat":45.886539999999996553015080280601978302001953125,"lon":22.588170000000001635953594814054667949676513671875,"poi_name":"Comuna Dobra","parent_id":"675917","long":22.588170000000001635953594814054667949676513671875},"23":{"id":"664196","label":"Comuna General Berthelot","value":"664196","lat":45.61164000000000129375621327199041843414306640625,"lon":22.887950000000000017053025658242404460906982421875,"poi_name":"Comuna General Berthelot","parent_id":"675917","long":22.887950000000000017053025658242404460906982421875},"24":{"id":"677480","label":"Comuna Ghelari","value":"677480","lat":45.71809999999999973852027324028313159942626953125,"lon":22.774139999999999162128005991689860820770263671875,"poi_name":"Comuna Ghelari","parent_id":"675917","long":22.774139999999999162128005991689860820770263671875},"25":{"id":"676491","label":"Comuna Gurasada","value":"676491","lat":45.98514999999999730562194599770009517669677734375,"lon":22.588539999999998286739355535246431827545166015625,"poi_name":"Comuna Gurasada","parent_id":"675917","long":22.588539999999998286739355535246431827545166015625},"26":{"id":"676313","label":"Comuna H\u0103r\u0103u","value":"676313","lat":45.90554999999999807869244250468909740447998046875,"lon":22.981359999999998677822077297605574131011962890625,"poi_name":"Comuna H\u0103r\u0103u","parent_id":"675917","long":22.981359999999998677822077297605574131011962890625},"27":{"id":"675669","label":"Comuna Ilia","value":"675669","lat":45.9405900000000002592059900052845478057861328125,"lon":22.67860999999999904730429989285767078399658203125,"poi_name":"Comuna Ilia","parent_id":"675917","long":22.67860999999999904730429989285767078399658203125},"28":{"id":"674905","label":"Comuna Lelese","value":"674905","lat":45.73754000000000274894773610867559909820556640625,"lon":22.689229999999998454995875363238155841827392578125,"poi_name":"Comuna Lelese","parent_id":"675917","long":22.689229999999998454995875363238155841827392578125},"29":{"id":"8334853","label":"Comuna Lunca Cernii De Jos","value":"8334853","lat":45.64301999999999992496668710373342037200927734375,"lon":22.584379999999999455440047313459217548370361328125,"poi_name":"Comuna Lunca Cernii De Jos","parent_id":"675917","long":22.584379999999999455440047313459217548370361328125},"30":{"id":"8334871","label":"Comuna Luncoiu De Jos","value":"8334871","lat":46.06806999999999874262357479892671108245849609375,"lon":22.79111999999999937926986603997647762298583984375,"poi_name":"Comuna Luncoiu De Jos","parent_id":"675917","long":22.79111999999999937926986603997647762298583984375},"31":{"id":"8334652","label":"Comuna L\u00e3pugiu De Jos","value":"8334652","lat":45.89222000000000178943082573823630809783935546875,"lon":22.45747000000000070940586738288402557373046875,"poi_name":"Comuna L\u00e3pugiu De Jos","parent_id":"675917","long":22.45747000000000070940586738288402557373046875},"32":{"id":"673733","label":"Comuna M\u0103rtine\u015fti","value":"673733","lat":45.79278000000000048430592869408428668975830078125,"lon":23.119980000000001751914169290103018283843994140625,"poi_name":"Comuna M\u0103rtine\u015fti","parent_id":"675917","long":23.119980000000001751914169290103018283843994140625},"33":{"id":"671752","label":"Comuna Or\u0103\u015ftioara de Sus","value":"671752","lat":45.70150000000000289901436190120875835418701171875,"lon":23.1820799999999991314325598068535327911376953125,"poi_name":"Comuna Or\u0103\u015ftioara de Sus","parent_id":"675917","long":23.1820799999999991314325598068535327911376953125},"34":{"id":"8334716","label":"Comuna Pesti\u015fu Mic","value":"8334716","lat":45.80178000000000082536644185893237590789794921875,"lon":22.8355099999999993087840266525745391845703125,"poi_name":"Comuna Pesti\u015fu Mic","parent_id":"675917","long":22.8355099999999993087840266525745391845703125},"35":{"id":"669500","label":"Comuna Pui","value":"669500","lat":45.51086000000000097998054116033017635345458984375,"lon":23.084630000000000649151843390427529811859130859375,"poi_name":"Comuna Pui","parent_id":"675917","long":23.084630000000000649151843390427529811859130859375},"36":{"id":"669182","label":"Comuna Rapoltu Mare","value":"669182","lat":45.879040000000003374225343577563762664794921875,"lon":23.115429999999999921556081972084939479827880859375,"poi_name":"Comuna Rapoltu Mare","parent_id":"675917","long":23.115429999999999921556081972084939479827880859375},"37":{"id":"668927","label":"Comuna Ribi\u0163a","value":"668927","lat":46.205950000000001409716787748038768768310546875,"lon":22.796379999999999199644662439823150634765625,"poi_name":"Comuna Ribi\u0163a","parent_id":"675917","long":22.796379999999999199644662439823150634765625},"38":{"id":"668692","label":"Comuna Romos","value":"668692","lat":45.82921999999999940200723358429968357086181640625,"lon":23.309020000000000294448909698985517024993896484375,"poi_name":"Comuna Romos","parent_id":"675917","long":23.309020000000000294448909698985517024993896484375},"39":{"id":"668814","label":"Comuna R\u00e2u de Mori","value":"668814","lat":45.507170000000002119122655130922794342041015625,"lon":22.86462999999999823330654180608689785003662109375,"poi_name":"Comuna R\u00e2u de Mori","parent_id":"675917","long":22.86462999999999823330654180608689785003662109375},"40":{"id":"669357","label":"Comuna R\u0103chitova","value":"669357","lat":45.6098199999999991405275068245828151702880859375,"lon":22.76738999999999890633262111805379390716552734375,"poi_name":"Comuna R\u0103chitova","parent_id":"675917","long":22.76738999999999890633262111805379390716552734375},"41":{"id":"667963","label":"Comuna Sarmizegetusa","value":"667963","lat":45.50995999999999952478901832364499568939208984375,"lon":22.769549999999998846078597125597298145294189453125,"poi_name":"Comuna Sarmizegetusa","parent_id":"675917","long":22.769549999999998846078597125597298145294189453125},"42":{"id":"666938","label":"Comuna S\u00e2nt\u0103m\u0103ria-Orlea","value":"666938","lat":45.58332999999999657347871107049286365509033203125,"lon":22.96667000000000058435034588910639286041259765625,"poi_name":"Comuna S\u00e2nt\u0103m\u0103ria-Orlea","parent_id":"675917","long":22.96667000000000058435034588910639286041259765625},"43":{"id":"8334894","label":"Comuna S\u00e3la\u015fu De Sus","value":"8334894","lat":45.5042499999999989768184605054557323455810546875,"lon":22.974219999999998975681592128239572048187255859375,"poi_name":"Comuna S\u00e3la\u015fu De Sus","parent_id":"675917","long":22.974219999999998975681592128239572048187255859375},"44":{"id":"8334969","label":"Comuna Teliucu Inferior","value":"8334969","lat":45.69865999999999672809281037189066410064697265625,"lon":22.8792499999999989768184605054557323455810546875,"poi_name":"Comuna Teliucu Inferior","parent_id":"675917","long":22.8792499999999989768184605054557323455810546875},"45":{"id":"664817","label":"Comuna Tome\u015fti","value":"664817","lat":46.22453999999999751935320091433823108673095703125,"lon":22.6701699999999988222043612040579319000244140625,"poi_name":"Comuna Tome\u015fti","parent_id":"675917","long":22.6701699999999988222043612040579319000244140625},"46":{"id":"664746","label":"Comuna Topli\u0163a","value":"664746","lat":45.66897000000000161890056915581226348876953125,"lon":22.773990000000001288071871385909616947174072265625,"poi_name":"Comuna Topli\u0163a","parent_id":"675917","long":22.773990000000001288071871385909616947174072265625},"47":{"id":"664695","label":"Comuna Tote\u015fti","value":"664695","lat":45.5713700000000017098500393331050872802734375,"lon":22.890229999999998966586645110510289669036865234375,"poi_name":"Comuna Tote\u015fti","parent_id":"675917","long":22.890229999999998966586645110510289669036865234375},"48":{"id":"664457","label":"Comuna Turda\u015f","value":"664457","lat":45.84765999999999763758751214481890201568603515625,"lon":23.1318899999999985084286890923976898193359375,"poi_name":"Comuna Turda\u015f","parent_id":"675917","long":23.1318899999999985084286890923976898193359375},"49":{"id":"8334779","label":"Comuna Va\u0163a De Jos","value":"8334779","lat":46.1843199999999995952748577110469341278076171875,"lon":22.580020000000001090256773750297725200653076171875,"poi_name":"Comuna Va\u0163a De Jos","parent_id":"675917","long":22.580020000000001090256773750297725200653076171875},"50":{"id":"663017","label":"Comuna Ve\u0163el","value":"663017","lat":45.8742400000000003501554601825773715972900390625,"lon":22.767379999999999284909790731035172939300537109375,"poi_name":"Comuna Ve\u0163el","parent_id":"675917","long":22.767379999999999284909790731035172939300537109375},"51":{"id":"662456","label":"Comuna Vor\u0163a","value":"662456","lat":46.03672000000000252839527092874050140380859375,"lon":22.67226000000000141199052450247108936309814453125,"poi_name":"Comuna Vor\u0163a","parent_id":"675917","long":22.67226000000000141199052450247108936309814453125},"52":{"id":"663239","label":"Comuna V\u0103li\u015foara","value":"663239","lat":46.02284999999999826059138285927474498748779296875,"lon":22.825269999999999726014721090905368328094482421875,"poi_name":"Comuna V\u0103li\u015foara","parent_id":"675917","long":22.825269999999999726014721090905368328094482421875},"53":{"id":"662325","label":"Comuna Zam","value":"662325","lat":46.0457999999999998408384271897375583648681640625,"lon":22.487860000000001292619344894774258136749267578125,"poi_name":"Comuna Zam","parent_id":"675917","long":22.487860000000001292619344894774258136749267578125},"54":{"id":"666517","label":"Comuna \u015eoimu\u015f","value":"666517","lat":45.94588999999999856527210795320570468902587890625,"lon":22.86298000000000030240698833949863910675048828125,"poi_name":"Comuna \u015eoimu\u015f","parent_id":"675917","long":22.86298000000000030240698833949863910675048828125},"55":{"id":"8334642","label":"Municipiul  Lupeni","value":"8334642","lat":45.35654000000000252157406066544353961944580078125,"lon":23.221620000000001482476363889873027801513671875,"poi_name":"Municipiul  Lupeni","parent_id":"675917","long":23.221620000000001482476363889873027801513671875},"56":{"id":"8334839","label":"Municipiul  Vulcan","value":"8334839","lat":45.37984999999999757847035652957856655120849609375,"lon":23.274799999999999045030563138425350189208984375,"poi_name":"Municipiul  Vulcan","parent_id":"675917","long":23.274799999999999045030563138425350189208984375},"57":{"id":"8334713","label":"Municipiul Brad","value":"8334713","lat":46.14072999999999780129655846394598484039306640625,"lon":22.81284000000000133923094836063683032989501953125,"poi_name":"Municipiul Brad","parent_id":"675917","long":22.81284000000000133923094836063683032989501953125},"58":{"id":"8334725","label":"Municipiul Deva","value":"8334725","lat":45.846440000000001191438059322535991668701171875,"lon":22.931229999999999336068867705762386322021484375,"poi_name":"Municipiul Deva","parent_id":"675917","long":22.931229999999999336068867705762386322021484375},"59":{"id":"8334953","label":"Municipiul Hunedoara","value":"8334953","lat":45.76512000000000313093551085330545902252197265625,"lon":22.87537999999999982492226990871131420135498046875,"poi_name":"Municipiul Hunedoara","parent_id":"675917","long":22.87537999999999982492226990871131420135498046875},"60":{"id":"8334718","label":"Municipiul Or\u00e3\u015ftie","value":"8334718","lat":45.83841000000000320824256050400435924530029296875,"lon":23.19885000000000019326762412674725055694580078125,"poi_name":"Municipiul Or\u00e3\u015ftie","parent_id":"675917","long":23.19885000000000019326762412674725055694580078125},"61":{"id":"8334898","label":"Municipiul Petro\u015fani","value":"8334898","lat":45.4196299999999979490894475020468235015869140625,"lon":23.356919999999998793782651773653924465179443359375,"poi_name":"Municipiul Petro\u015fani","parent_id":"675917","long":23.356919999999998793782651773653924465179443359375},"62":{"id":"686306","label":"Ora\u015f Aninoasa","value":"686306","lat":45.39316000000000173031367012299597263336181640625,"lon":23.330200000000001381295078317634761333465576171875,"poi_name":"Ora\u015f Aninoasa","parent_id":"675917","long":23.330200000000001381295078317634761333465576171875},"63":{"id":"683029","label":"Ora\u015f C\u00e3lan","value":"683029","lat":45.7394000000000033878677641041576862335205078125,"lon":23.010349999999998971134118619374930858612060546875,"poi_name":"Ora\u015f C\u00e3lan","parent_id":"675917","long":23.010349999999998971134118619374930858612060546875},"64":{"id":"677518","label":"Ora\u015f Geoagiu","value":"677518","lat":45.94834999999999780584403197281062602996826171875,"lon":23.20022000000000161890056915581226348876953125,"poi_name":"Ora\u015f Geoagiu","parent_id":"675917","long":23.20022000000000161890056915581226348876953125},"65":{"id":"8334876","label":"Ora\u015f Ha\u0163eg","value":"8334876","lat":45.62512000000000256250132224522531032562255859375,"lon":22.92275000000000062527760746888816356658935546875,"poi_name":"Ora\u015f Ha\u0163eg","parent_id":"675917","long":22.92275000000000062527760746888816356658935546875},"66":{"id":"8334880","label":"Ora\u015f Petrila","value":"8334880","lat":45.453519999999997480699676088988780975341796875,"lon":23.436969999999998748307916685007512569427490234375,"poi_name":"Ora\u015f Petrila","parent_id":"675917","long":23.436969999999998748307916685007512569427490234375},"67":{"id":"8334717","label":"Ora\u015f Simeria","value":"8334717","lat":45.85296000000000304908098769374191761016845703125,"lon":23.0074800000000010413714335300028324127197265625,"poi_name":"Ora\u015f Simeria","parent_id":"675917","long":23.0074800000000010413714335300028324127197265625},"68":{"id":"664161","label":"Ora\u015f Uricani","value":"664161","lat":45.317329999999998335624695755541324615478515625,"lon":23.080049999999999954525264911353588104248046875,"poi_name":"Ora\u015f Uricani","parent_id":"675917","long":23.080049999999999954525264911353588104248046875}}