{"success":true,"remaining_lookups":7991,"0":{"id":"679030","label":"Comuna 23 August","value":"679030","lat":43.91937999999999675537765142507851123809814453125,"lon":28.55436999999999869714883971028029918670654296875,"poi_name":"Comuna 23 August","parent_id":"680962","long":28.55436999999999869714883971028029918670654296875},"1":{"id":"686687","label":"Comuna Adamclisi","value":"686687","lat":44.1144699999999971851138980127871036529541015625,"lon":27.9498999999999995225152815692126750946044921875,"poi_name":"Comuna Adamclisi","parent_id":"680962","long":27.9498999999999995225152815692126750946044921875},"2":{"id":"686625","label":"Comuna Agigea","value":"686625","lat":44.09653999999999740566636319272220134735107421875,"lon":28.6268400000000013960743672214448451995849609375,"poi_name":"Comuna Agigea","parent_id":"680962","long":28.6268400000000013960743672214448451995849609375},"3":{"id":"686554","label":"Comuna Albe\u015fti","value":"686554","lat":43.80863000000000084810380940325558185577392578125,"lon":28.4032499999999998863131622783839702606201171875,"poi_name":"Comuna Albe\u015fti","parent_id":"680962","long":28.4032499999999998863131622783839702606201171875},"4":{"id":"686475","label":"Comuna Aliman","value":"686475","lat":44.18430000000000035242919693700969219207763671875,"lon":27.83697000000000087993612396530807018280029296875,"poi_name":"Comuna Aliman","parent_id":"680962","long":27.83697000000000087993612396530807018280029296875},"5":{"id":"8334892","label":"Comuna Amzacea","value":"8334892","lat":43.9598299999999966303221299313008785247802734375,"lon":28.321220000000000283080225926823914051055908203125,"poi_name":"Comuna Amzacea","parent_id":"680962","long":28.321220000000000283080225926823914051055908203125},"6":{"id":"685432","label":"Comuna B\u0103r\u0103ganu","value":"685432","lat":44.07930999999999954752638586796820163726806640625,"lon":28.398869999999998725570549140684306621551513671875,"poi_name":"Comuna B\u0103r\u0103ganu","parent_id":"680962","long":28.398869999999998725570549140684306621551513671875},"7":{"id":"682588","label":"Comuna Castelu","value":"682588","lat":44.2584599999999994679455994628369808197021484375,"lon":28.369080000000000296722646453417837619781494140625,"poi_name":"Comuna Castelu","parent_id":"680962","long":28.369080000000000296722646453417837619781494140625},"8":{"id":"682368","label":"Comuna Cerchezu","value":"682368","lat":43.849840000000000372892827726900577545166015625,"lon":28.084440000000000736690708436071872711181640625,"poi_name":"Comuna Cerchezu","parent_id":"680962","long":28.084440000000000736690708436071872711181640625},"9":{"id":"682037","label":"Comuna Chirnogeni","value":"682037","lat":43.94216000000000121872290037572383880615234375,"lon":28.22194999999999964757080306299030780792236328125,"poi_name":"Comuna Chirnogeni","parent_id":"680962","long":28.22194999999999964757080306299030780792236328125},"10":{"id":"681774","label":"Comuna Ciobanu","value":"681774","lat":44.7177099999999967394614941440522670745849609375,"lon":27.989039999999999253077476168982684612274169921875,"poi_name":"Comuna Ciobanu","parent_id":"680962","long":27.989039999999999253077476168982684612274169921875},"11":{"id":"681717","label":"Comuna Cioc\u00e2rlia","value":"681717","lat":44.1109799999999978581399773247539997100830078125,"lon":28.311610000000001718944986350834369659423828125,"poi_name":"Comuna Cioc\u00e2rlia","parent_id":"680962","long":28.311610000000001718944986350834369659423828125},"12":{"id":"681256","label":"Comuna Cobadin","value":"681256","lat":44.0257399999999989859134075231850147247314453125,"lon":28.1669499999999999317878973670303821563720703125,"poi_name":"Comuna Cobadin","parent_id":"680962","long":28.1669499999999999317878973670303821563720703125},"13":{"id":"681159","label":"Comuna Cogealac","value":"681159","lat":44.5766100000000022873791749589145183563232421875,"lon":28.522439999999999571400621789507567882537841796875,"poi_name":"Comuna Cogealac","parent_id":"680962","long":28.522439999999999571400621789507567882537841796875},"14":{"id":"681034","label":"Comuna Comana","value":"681034","lat":43.8996300000000019281287677586078643798828125,"lon":28.354910000000000280806489172391593456268310546875,"poi_name":"Comuna Comana","parent_id":"680962","long":28.354910000000000280806489172391593456268310546875},"15":{"id":"680858","label":"Comuna Corbu","value":"680858","lat":44.40319000000000215777617995627224445343017578125,"lon":28.677969999999998407247403520159423351287841796875,"poi_name":"Comuna Corbu","parent_id":"680962","long":28.677969999999998407247403520159423351287841796875},"16":{"id":"8334814","label":"Comuna Costine\u015fti","value":"8334814","lat":43.947800000000000864019966684281826019287109375,"lon":28.6328400000000016234480426646769046783447265625,"poi_name":"Comuna Costine\u015fti","parent_id":"680962","long":28.6328400000000016234480426646769046783447265625},"17":{"id":"680088","label":"Comuna Crucea","value":"680088","lat":44.5504600000000010595613275654613971710205078125,"lon":28.20591999999999899273461778648197650909423828125,"poi_name":"Comuna Crucea","parent_id":"680962","long":28.20591999999999899273461778648197650909423828125},"18":{"id":"679965","label":"Comuna Cump\u0103na","value":"679965","lat":44.10746999999999928832039586268365383148193359375,"lon":28.512260000000001269881977350451052188873291015625,"poi_name":"Comuna Cump\u0103na","parent_id":"680962","long":28.512260000000001269881977350451052188873291015625},"19":{"id":"8334991","label":"Comuna Cuza Voda","value":"8334991","lat":44.28773000000000337195160682313144207000732421875,"lon":28.310050000000000380850906367413699626922607421875,"poi_name":"Comuna Cuza Voda","parent_id":"680962","long":28.310050000000000380850906367413699626922607421875},"20":{"id":"679515","label":"Comuna Deleni","value":"679515","lat":44.0617500000000035242919693700969219207763671875,"lon":28.02262999999999948386175674386322498321533203125,"poi_name":"Comuna Deleni","parent_id":"680962","long":28.02262999999999948386175674386322498321533203125},"21":{"id":"678698","label":"Comuna Dumbr\u0103veni","value":"678698","lat":43.9312699999999978217601892538368701934814453125,"lon":27.991119999999998668727130279876291751861572265625,"poi_name":"Comuna Dumbr\u0103veni","parent_id":"680962","long":27.991119999999998668727130279876291751861572265625},"22":{"id":"678146","label":"Comuna F\u00e2nt\u00e2nele","value":"678146","lat":44.6127800000000007685230229981243610382080078125,"lon":28.576550000000001006128513836301863193511962890625,"poi_name":"Comuna F\u00e2nt\u00e2nele","parent_id":"680962","long":28.576550000000001006128513836301863193511962890625},"23":{"id":"677359","label":"Comuna Ghind\u0103re\u015fti","value":"677359","lat":44.63519999999999754436430521309375762939453125,"lon":28.031929999999999125748217920772731304168701171875,"poi_name":"Comuna Ghind\u0103re\u015fti","parent_id":"680962","long":28.031929999999999125748217920772731304168701171875},"24":{"id":"676834","label":"Comuna Gr\u0103dina","value":"676834","lat":44.52297999999999689180185669101774692535400390625,"lon":28.448460000000000746922523831017315387725830078125,"poi_name":"Comuna Gr\u0103dina","parent_id":"680962","long":28.448460000000000746922523831017315387725830078125},"25":{"id":"677174","label":"Comuna G\u00e2rliciu","value":"677174","lat":44.7793300000000016325429896824061870574951171875,"lon":28.094609999999999416786522488109767436981201171875,"poi_name":"Comuna G\u00e2rliciu","parent_id":"680962","long":28.094609999999999416786522488109767436981201171875},"26":{"id":"676006","label":"Comuna Horia","value":"676006","lat":44.6355099999999964666130836121737957000732421875,"lon":28.12033999999999878127709962427616119384765625,"poi_name":"Comuna Horia","parent_id":"680962","long":28.12033999999999878127709962427616119384765625},"27":{"id":"675611","label":"Comuna Independen\u0163a","value":"675611","lat":43.9602000000000003865352482534945011138916015625,"lon":28.0628999999999990677679306827485561370849609375,"poi_name":"Comuna Independen\u0163a","parent_id":"680962","long":28.0628999999999990677679306827485561370849609375},"28":{"id":"675555","label":"Comuna Ion Corvin","value":"675555","lat":44.10717000000000354020812665112316608428955078125,"lon":27.802679999999998727844285895116627216339111328125,"poi_name":"Comuna Ion Corvin","parent_id":"680962","long":27.802679999999998727844285895116627216339111328125},"29":{"id":"675470","label":"Comuna Istria","value":"675470","lat":44.55487000000000108457243186421692371368408203125,"lon":28.6815500000000014324541552923619747161865234375,"poi_name":"Comuna Istria","parent_id":"680962","long":28.6815500000000014324541552923619747161865234375},"30":{"id":"674781","label":"Comuna Limanu","value":"674781","lat":43.78023999999999915644366410560905933380126953125,"lon":28.5393100000000004001776687800884246826171875,"poi_name":"Comuna Limanu","parent_id":"680962","long":28.5393100000000004001776687800884246826171875},"31":{"id":"674734","label":"Comuna Lipni\u0163a","value":"674734","lat":44.09073000000000064346750150434672832489013671875,"lon":27.566829999999999500914782402105629444122314453125,"poi_name":"Comuna Lipni\u0163a","parent_id":"680962","long":27.566829999999999500914782402105629444122314453125},"32":{"id":"8334751","label":"Comuna Lumina","value":"8334751","lat":44.32755999999999829697117093019187450408935546875,"lon":28.547090000000000742375050322152674198150634765625,"poi_name":"Comuna Lumina","parent_id":"680962","long":28.547090000000000742375050322152674198150634765625},"33":{"id":"673576","label":"Comuna Mereni","value":"673576","lat":44.0154500000000012960299500264227390289306640625,"lon":28.335589999999999832880348549224436283111572265625,"poi_name":"Comuna Mereni","parent_id":"680962","long":28.335589999999999832880348549224436283111572265625},"34":{"id":"673363","label":"Comuna Mihai Viteazu","value":"673363","lat":44.63727000000000089130480773746967315673828125,"lon":28.704599999999999226929503493010997772216796875,"poi_name":"Comuna Mihai Viteazu","parent_id":"680962","long":28.704599999999999226929503493010997772216796875},"35":{"id":"673373","label":"Comuna Mihail Kog\u0103lniceanu","value":"673373","lat":44.40478999999999842884790268726646900177001953125,"lon":28.519189999999998264001987990923225879669189453125,"poi_name":"Comuna Mihail Kog\u0103lniceanu","parent_id":"680962","long":28.519189999999998264001987990923225879669189453125},"36":{"id":"673149","label":"Comuna Mircea Vod\u0103","value":"673149","lat":44.30136999999999858346200198866426944732666015625,"lon":28.1864699999999999135980033315718173980712890625,"poi_name":"Comuna Mircea Vod\u0103","parent_id":"680962","long":28.1864699999999999135980033315718173980712890625},"37":{"id":"672270","label":"Comuna Nicolae B\u0103lcescu","value":"672270","lat":44.398290000000002919477992691099643707275390625,"lon":28.353229999999999932924765744246542453765869140625,"poi_name":"Comuna Nicolae B\u0103lcescu","parent_id":"680962","long":28.353229999999999932924765744246542453765869140625},"38":{"id":"671822","label":"Comuna Oltina","value":"671822","lat":44.138790000000000190993887372314929962158203125,"lon":27.648810000000000997033566818572580814361572265625,"poi_name":"Comuna Oltina","parent_id":"680962","long":27.648810000000000997033566818572580814361572265625},"39":{"id":"671631","label":"Comuna Ostrov","value":"671631","lat":44.0815199999999975943865138106048107147216796875,"lon":27.42045999999999850160747882910072803497314453125,"poi_name":"Comuna Ostrov","parent_id":"680962","long":27.42045999999999850160747882910072803497314453125},"40":{"id":"671379","label":"Comuna Pantelimon","value":"671379","lat":44.600470000000001391526893712580204010009765625,"lon":28.360140000000001236912794411182403564453125,"poi_name":"Comuna Pantelimon","parent_id":"680962","long":28.360140000000001236912794411182403564453125},"41":{"id":"671183","label":"Comuna Pecineaga","value":"671183","lat":43.88676000000000243517206399701535701751708984375,"lon":28.510120000000000572981662116944789886474609375,"poi_name":"Comuna Pecineaga","parent_id":"680962","long":28.510120000000000572981662116944789886474609375},"42":{"id":"671063","label":"Comuna Pe\u015ftera","value":"671063","lat":44.1895099999999985129761626012623310089111328125,"lon":28.107220000000001647322278586216270923614501953125,"poi_name":"Comuna Pe\u015ftera","parent_id":"680962","long":28.107220000000001647322278586216270923614501953125},"43":{"id":"670375","label":"Comuna Poarta Alb\u0103","value":"670375","lat":44.21621999999999985675458447076380252838134765625,"lon":28.419039999999998968860381864942610263824462890625,"poi_name":"Comuna Poarta Alb\u0103","parent_id":"680962","long":28.419039999999998968860381864942610263824462890625},"44":{"id":"669145","label":"Comuna Rasova","value":"669145","lat":44.2591800000000006320988177321851253509521484375,"lon":27.96961999999999903820935287512838840484619140625,"poi_name":"Comuna Rasova","parent_id":"680962","long":27.96961999999999903820935287512838840484619140625},"45":{"id":"668156","label":"Comuna Saligny","value":"668156","lat":44.2831800000000015415935195051133632659912109375,"lon":28.08928999999999831516106496565043926239013671875,"poi_name":"Comuna Saligny","parent_id":"680962","long":28.08928999999999831516106496565043926239013671875},"46":{"id":"668061","label":"Comuna Saraiu","value":"668061","lat":44.71746999999999871988620725460350513458251953125,"lon":28.14732000000000056161297834478318691253662109375,"poi_name":"Comuna Saraiu","parent_id":"680962","long":28.14732000000000056161297834478318691253662109375},"47":{"id":"667440","label":"Comuna Seimeni","value":"667440","lat":44.40183999999999997498889570124447345733642578125,"lon":28.087559999999999860165189602412283420562744140625,"poi_name":"Comuna Seimeni","parent_id":"680962","long":28.087559999999999860165189602412283420562744140625},"48":{"id":"667176","label":"Comuna Sili\u015ftea","value":"667176","lat":44.42358999999999724650479038245975971221923828125,"lon":28.209669999999999134843164938502013683319091796875,"poi_name":"Comuna Sili\u015ftea","parent_id":"680962","long":28.209669999999999134843164938502013683319091796875},"49":{"id":"668313","label":"Comuna S\u0103cele","value":"668313","lat":44.48866000000000298086888506077229976654052734375,"lon":28.6638200000000011868905858136713504791259765625,"poi_name":"Comuna S\u0103cele","parent_id":"680962","long":28.6638200000000011868905858136713504791259765625},"50":{"id":"664773","label":"Comuna Topalu","value":"664773","lat":44.52116000000000184400050784461200237274169921875,"lon":28.07081000000000159388946485705673694610595703125,"poi_name":"Comuna Topalu","parent_id":"680962","long":28.07081000000000159388946485705673694610595703125},"51":{"id":"664721","label":"Comuna Topraisar","value":"664721","lat":44.031260000000003174136509187519550323486328125,"lon":28.48845000000000027284841053187847137451171875,"poi_name":"Comuna Topraisar","parent_id":"680962","long":28.48845000000000027284841053187847137451171875},"52":{"id":"664707","label":"Comuna Tortoman","value":"664707","lat":44.34568999999999761030267109163105487823486328125,"lon":28.2656199999999984129317454062402248382568359375,"poi_name":"Comuna Tortoman","parent_id":"680962","long":28.2656199999999984129317454062402248382568359375},"53":{"id":"664395","label":"Comuna Tuzla","value":"664395","lat":44.00157999999999702822606195695698261260986328125,"lon":28.6387399999999985311660566367208957672119140625,"poi_name":"Comuna Tuzla","parent_id":"680962","long":28.6387399999999985311660566367208957672119140625},"54":{"id":"664994","label":"Comuna T\u00e2rgu\u015for","value":"664994","lat":44.4771300000000024965629563666880130767822265625,"lon":28.3882100000000008321876521222293376922607421875,"poi_name":"Comuna T\u00e2rgu\u015for","parent_id":"680962","long":28.3882100000000008321876521222293376922607421875},"55":{"id":"663233","label":"Comuna Valu lui Traian","value":"663233","lat":44.1638599999999996725819073617458343505859375,"lon":28.46526000000000067302607931196689605712890625,"poi_name":"Comuna Valu lui Traian","parent_id":"680962","long":28.46526000000000067302607931196689605712890625},"56":{"id":"662385","label":"Comuna Vulturu","value":"662385","lat":44.6480600000000009686118573881685733795166015625,"lon":28.27293999999999840611053514294326305389404296875,"poi_name":"Comuna Vulturu","parent_id":"680962","long":28.27293999999999840611053514294326305389404296875},"57":{"id":"679216","label":"Comun\u0103 Dobromir","value":"679216","lat":44.0181299999999993133315001614391803741455078125,"lon":27.838879999999999625970303895883262157440185546875,"poi_name":"Comun\u0103 Dobromir","parent_id":"680962","long":27.838879999999999625970303895883262157440185546875},"58":{"id":"8334667","label":"Municipiul Constan\u0163a","value":"8334667","lat":44.2141400000000004411049303598701953887939453125,"lon":28.61861999999999994770405464805662631988525390625,"poi_name":"Municipiul Constan\u0163a","parent_id":"680962","long":28.61861999999999994770405464805662631988525390625},"59":{"id":"8334941","label":"Municipiul Mangalia","value":"8334941","lat":43.85085000000000121644916362129151821136474609375,"lon":28.59779999999999944293449516408145427703857421875,"poi_name":"Municipiul Mangalia","parent_id":"680962","long":28.59779999999999944293449516408145427703857421875},"60":{"id":"8334740","label":"Municipiul Medgidia","value":"8334740","lat":44.22794999999999987494447850622236728668212890625,"lon":28.268010000000000303543856716714799404144287109375,"poi_name":"Municipiul Medgidia","parent_id":"680962","long":28.268010000000000303543856716714799404144287109375},"61":{"id":"685471","label":"Ora\u015f B\u00e3neasa","value":"685471","lat":44.05008000000000123463905765675008296966552734375,"lon":27.71430000000000148929757415316998958587646484375,"poi_name":"Ora\u015f B\u00e3neasa","parent_id":"680962","long":27.71430000000000148929757415316998958587646484375},"62":{"id":"8334733","label":"Ora\u015f Cernavod\u00e3","value":"8334733","lat":44.343310000000002446540747769176959991455078125,"lon":28.0369400000000013051248970441520214080810546875,"poi_name":"Ora\u015f Cernavod\u00e3","parent_id":"680962","long":28.0369400000000013051248970441520214080810546875},"63":{"id":"8334674","label":"Ora\u015f Eforie","value":"8334674","lat":44.04431000000000295813151751644909381866455078125,"lon":28.645289999999999253077476168982684612274169921875,"poi_name":"Ora\u015f Eforie","parent_id":"680962","long":28.645289999999999253077476168982684612274169921875},"64":{"id":"8334909","label":"Ora\u015f H\u00e2r\u015fova","value":"8334909","lat":44.68721000000000032059688237495720386505126953125,"lon":27.947849999999998971134118619374930858612060546875,"poi_name":"Ora\u015f H\u00e2r\u015fova","parent_id":"680962","long":27.947849999999998971134118619374930858612060546875},"65":{"id":"8334675","label":"Ora\u015f Murfatlar","value":"8334675","lat":44.1709000000000031604940886609256267547607421875,"lon":28.3818500000000000227373675443232059478759765625,"poi_name":"Ora\u015f Murfatlar","parent_id":"680962","long":28.3818500000000000227373675443232059478759765625},"66":{"id":"672342","label":"Ora\u015f Negru Vod\u00e3","value":"672342","lat":43.79534000000000304453351418487727642059326171875,"lon":28.280409999999999826059138285927474498748779296875,"poi_name":"Ora\u015f Negru Vod\u00e3","parent_id":"680962","long":28.280409999999999826059138285927474498748779296875},"67":{"id":"672485","label":"Ora\u015f N\u00e3vodari","value":"672485","lat":44.3051099999999991041477187536656856536865234375,"lon":28.614070000000001670059646130539476871490478515625,"poi_name":"Ora\u015f N\u00e3vodari","parent_id":"680962","long":28.614070000000001670059646130539476871490478515625},"68":{"id":"671583","label":"Ora\u015f Ovidiu","value":"671583","lat":44.238280000000003155946615152060985565185546875,"lon":28.5320999999999997953636921010911464691162109375,"poi_name":"Ora\u015f Ovidiu","parent_id":"680962","long":28.5320999999999997953636921010911464691162109375},"69":{"id":"8334676","label":"Ora\u015f Techirghiol","value":"8334676","lat":44.054969999999997298800735734403133392333984375,"lon":28.595389999999998309476723079569637775421142578125,"poi_name":"Ora\u015f Techirghiol","parent_id":"680962","long":28.595389999999998309476723079569637775421142578125}}