{"success":true,"remaining_lookups":7982,"0":{"id":"686550","label":"Comuna Albe\u0219tii de Arge\u0219","value":"686550","lat":45.21667000000000058435034588910639286041259765625,"lon":24.666669999999999873807610129006206989288330078125,"poi_name":"Comuna Albe\u0219tii de Arge\u0219","parent_id":"686192","long":24.666669999999999873807610129006206989288330078125},"1":{"id":"686549","label":"Comuna Albe\u0219tii de Muscel","value":"686549","lat":45.3166700000000020054358174093067646026611328125,"lon":25,"poi_name":"Comuna Albe\u0219tii de Muscel","parent_id":"686192","long":25},"2":{"id":"686526","label":"Comuna Albota","value":"686526","lat":44.7828700000000026193447411060333251953125,"lon":24.818380000000001217586031998507678508758544921875,"poi_name":"Comuna Albota","parent_id":"686192","long":24.818380000000001217586031998507678508758544921875},"3":{"id":"686307","label":"Comuna Aninoasa","value":"686307","lat":45.2022199999999969577402225695550441741943359375,"lon":24.912060000000000314912540488876402378082275390625,"poi_name":"Comuna Aninoasa","parent_id":"686192","long":24.912060000000000314912540488876402378082275390625},"4":{"id":"686199","label":"Comuna Arefu","value":"686199","lat":45.33142000000000138015820994041860103607177734375,"lon":24.629439999999998889279595459811389446258544921875,"poi_name":"Comuna Arefu","parent_id":"686192","long":24.629439999999998889279595459811389446258544921875},"5":{"id":"685304","label":"Comuna Ba\u015fcov","value":"685304","lat":44.8929499999999990222931955941021442413330078125,"lon":24.7853199999999986857801559381186962127685546875,"poi_name":"Comuna Ba\u015fcov","parent_id":"686192","long":24.7853199999999986857801559381186962127685546875},"6":{"id":"685141","label":"Comuna Bele\u0163i-Negre\u015fti","value":"685141","lat":44.9465100000000035151970223523676395416259765625,"lon":25.08603000000000093905327958054840564727783203125,"poi_name":"Comuna Bele\u0163i-Negre\u015fti","parent_id":"686192","long":25.08603000000000093905327958054840564727783203125},"7":{"id":"685020","label":"Comuna Berevoe\u015fti","value":"685020","lat":45.2532700000000005502442945726215839385986328125,"lon":24.9429200000000008685674401931464672088623046875,"poi_name":"Comuna Berevoe\u015fti","parent_id":"686192","long":24.9429200000000008685674401931464672088623046875},"8":{"id":"684422","label":"Comuna Boga\u0163i","value":"684422","lat":44.8734400000000022146195988170802593231201171875,"lon":25.15044999999999930651028989814221858978271484375,"poi_name":"Comuna Boga\u0163i","parent_id":"686192","long":25.15044999999999930651028989814221858978271484375},"9":{"id":"684079","label":"Comuna Boteni","value":"684079","lat":45.17936999999999869714883971028029918670654296875,"lon":25.130729999999999790816218592226505279541015625,"poi_name":"Comuna Boteni","parent_id":"686192","long":25.130729999999999790816218592226505279541015625},"10":{"id":"684065","label":"Comuna Bo\u0163e\u015fti","value":"684065","lat":45.0070400000000034879121812991797924041748046875,"lon":25.14723000000000041609382606111466884613037109375,"poi_name":"Comuna Bo\u0163e\u015fti","parent_id":"686192","long":25.14723000000000041609382606111466884613037109375},"11":{"id":"683929","label":"Comuna Bradu","value":"683929","lat":44.78332999999999941564965411089360713958740234375,"lon":24.89999999999999857891452847979962825775146484375,"poi_name":"Comuna Bradu","parent_id":"686192","long":24.89999999999999857891452847979962825775146484375},"12":{"id":"683925","label":"Comuna Br\u0103dule\u0163","value":"683925","lat":45.2750199999999978217601892538368701934814453125,"lon":24.773720000000000851514414534904062747955322265625,"poi_name":"Comuna Br\u0103dule\u0163","parent_id":"686192","long":24.773720000000000851514414534904062747955322265625},"13":{"id":"683458","label":"Comuna Budeasa","value":"683458","lat":44.95042000000000115278453449718654155731201171875,"lon":24.80254000000000047521098167635500431060791015625,"poi_name":"Comuna Budeasa","parent_id":"686192","long":24.80254000000000047521098167635500431060791015625},"14":{"id":"683385","label":"Comuna Bughea de Jos","value":"683385","lat":45.2740399999999993951860233210027217864990234375,"lon":25.003240000000001685975803411565721035003662109375,"poi_name":"Comuna Bughea de Jos","parent_id":"686192","long":25.003240000000001685975803411565721035003662109375},"15":{"id":"683382","label":"Comuna Bughea de Sus","value":"683382","lat":45.2981199999999972760633681900799274444580078125,"lon":25.03284000000000020236257114447653293609619140625,"poi_name":"Comuna Bughea de Sus","parent_id":"686192","long":25.03284000000000020236257114447653293609619140625},"16":{"id":"683099","label":"Comuna Buzoe\u015fti","value":"683099","lat":44.60204999999999841975295566953718662261962890625,"lon":24.9185599999999993769961292855441570281982421875,"poi_name":"Comuna Buzoe\u015fti","parent_id":"686192","long":24.9185599999999993769961292855441570281982421875},"17":{"id":"8299667","label":"Comuna B\u00e2rla","value":"8299667","lat":44.4263600000000025147528504021465778350830078125,"lon":24.779489999999999128021954675205051898956298828125,"poi_name":"Comuna B\u00e2rla","parent_id":"686192","long":24.779489999999999128021954675205051898956298828125},"18":{"id":"685990","label":"Comuna B\u0103bana","value":"685990","lat":44.87539000000000299905877909623086452484130859375,"lon":24.71918000000000148475010064430534839630126953125,"poi_name":"Comuna B\u0103bana","parent_id":"686192","long":24.71918000000000148475010064430534839630126953125},"19":{"id":"685809","label":"Comuna B\u0103icule\u015fti","value":"685809","lat":45.060169999999999390638549812138080596923828125,"lon":24.6733100000000007412381819449365139007568359375,"poi_name":"Comuna B\u0103icule\u015fti","parent_id":"686192","long":24.6733100000000007412381819449365139007568359375},"20":{"id":"685618","label":"Comuna B\u0103lile\u015fti","value":"685618","lat":45.07981000000000193494997802190482616424560546875,"lon":24.9394300000000015415935195051133632659912109375,"poi_name":"Comuna B\u0103lile\u015fti","parent_id":"686192","long":24.9394300000000015415935195051133632659912109375},"21":{"id":"682414","label":"Comuna Cepari","value":"682414","lat":45.2056400000000024874680093489587306976318359375,"lon":24.53063999999999822421159478835761547088623046875,"poi_name":"Comuna Cepari","parent_id":"686192","long":24.53063999999999822421159478835761547088623046875},"22":{"id":"682251","label":"Comuna Cet\u0103\u0163eni","value":"682251","lat":45.19234000000000150976120494306087493896484375,"lon":25.20788999999999902001945883966982364654541015625,"poi_name":"Comuna Cet\u0103\u0163eni","parent_id":"686192","long":25.20788999999999902001945883966982364654541015625},"23":{"id":"8299668","label":"Comuna Cic\u0103ne\u0219ti","value":"8299668","lat":45.24577000000000026602720026858150959014892578125,"lon":24.60629000000000132786226458847522735595703125,"poi_name":"Comuna Cic\u0103ne\u0219ti","parent_id":"686192","long":24.60629000000000132786226458847522735595703125},"24":{"id":"681700","label":"Comuna Ciofr\u00e2ngeni","value":"681700","lat":45.10276999999999958390617393888533115386962890625,"lon":24.537040000000001072066879714839160442352294921875,"poi_name":"Comuna Ciofr\u00e2ngeni","parent_id":"686192","long":24.537040000000001072066879714839160442352294921875},"25":{"id":"681685","label":"Comuna Ciom\u0103ge\u015fti","value":"681685","lat":44.85656000000000176441972143948078155517578125,"lon":24.4722900000000009868017514236271381378173828125,"poi_name":"Comuna Ciom\u0103ge\u015fti","parent_id":"686192","long":24.4722900000000009868017514236271381378173828125},"26":{"id":"681184","label":"Comuna Cocu","value":"681184","lat":44.874290000000002009983290918171405792236328125,"lon":24.65111999999999881083567743189632892608642578125,"poi_name":"Comuna Cocu","parent_id":"686192","long":24.65111999999999881083567743189632892608642578125},"27":{"id":"680885","label":"Comuna Corbeni","value":"680885","lat":45.2959699999999969577402225695550441741943359375,"lon":24.662069999999999936335370875895023345947265625,"poi_name":"Comuna Corbeni","parent_id":"686192","long":24.662069999999999936335370875895023345947265625},"28":{"id":"680878","label":"Comuna Corbi","value":"680878","lat":45.2557199999999966166797094047069549560546875,"lon":24.816109999999998336761564132757484912872314453125,"poi_name":"Comuna Corbi","parent_id":"686192","long":24.816109999999998336761564132757484912872314453125},"29":{"id":"680494","label":"Comuna Cotmeana","value":"680494","lat":45.00518000000000284899215330369770526885986328125,"lon":24.6202100000000001500666257925331592559814453125,"poi_name":"Comuna Cotmeana","parent_id":"686192","long":24.6202100000000001500666257925331592559814453125},"30":{"id":"680641","label":"Comuna Co\u015fe\u015fti","value":"680641","lat":45.06430999999999897909219725988805294036865234375,"lon":24.87201999999999912915882305242121219635009765625,"poi_name":"Comuna Co\u015fe\u015fti","parent_id":"686192","long":24.87201999999999912915882305242121219635009765625},"31":{"id":"680053","label":"Comuna Cuca","value":"680053","lat":44.95653999999999683723217458464205265045166015625,"lon":24.506360000000000809450284577906131744384765625,"poi_name":"Comuna Cuca","parent_id":"686192","long":24.506360000000000809450284577906131744384765625},"32":{"id":"682996","label":"Comuna C\u0103ld\u0103raru","value":"682996","lat":44.45394999999999896544977673329412937164306640625,"lon":24.94263000000000118916432256810367107391357421875,"poi_name":"Comuna C\u0103ld\u0103raru","parent_id":"686192","long":24.94263000000000118916432256810367107391357421875},"33":{"id":"682944","label":"Comuna C\u0103line\u015fti","value":"682944","lat":44.8564999999999969304553815163671970367431640625,"lon":25.01968000000000103000274975784122943878173828125,"poi_name":"Comuna C\u0103line\u015fti","parent_id":"686192","long":25.01968000000000103000274975784122943878173828125},"34":{"id":"682559","label":"Comuna C\u0103teasca","value":"682559","lat":44.7705600000000032423486118204891681671142578125,"lon":25.03632999999999952933649183250963687896728515625,"poi_name":"Comuna C\u0103teasca","parent_id":"686192","long":25.03632999999999952933649183250963687896728515625},"35":{"id":"679698","label":"Comuna Davide\u015fti","value":"679698","lat":45.0069400000000001682565198279917240142822265625,"lon":25.035990000000001742819222272373735904693603515625,"poi_name":"Comuna Davide\u015fti","parent_id":"686192","long":25.035990000000001742819222272373735904693603515625},"36":{"id":"679245","label":"Comuna Dobre\u015fti","value":"679245","lat":44.94991999999999876536094234324991703033447265625,"lon":25.11907000000000067529981606639921665191650390625,"poi_name":"Comuna Dobre\u015fti","parent_id":"686192","long":25.11907000000000067529981606639921665191650390625},"37":{"id":"679115","label":"Comuna Domne\u015fti","value":"679115","lat":45.20562000000000324462234857492148876190185546875,"lon":24.83944999999999936335370875895023345947265625,"poi_name":"Comuna Domne\u015fti","parent_id":"686192","long":24.83944999999999936335370875895023345947265625},"38":{"id":"678910","label":"Comuna Dragoslavele","value":"678910","lat":45.33451000000000163936419994570314884185791015625,"lon":25.170100000000001472244548494927585124969482421875,"poi_name":"Comuna Dragoslavele","parent_id":"686192","long":25.170100000000001472244548494927585124969482421875},"39":{"id":"678982","label":"Comuna Dr\u0103ganu","value":"678982","lat":44.93760999999999938836481305770576000213623046875,"lon":24.70300999999999902456693234853446483612060546875,"poi_name":"Comuna Dr\u0103ganu","parent_id":"686192","long":24.70300999999999902456693234853446483612060546875},"40":{"id":"679388","label":"Comuna D\u00e2mbovicioara","value":"679388","lat":45.43451999999999912915882305242121219635009765625,"lon":25.22737000000000051613824325613677501678466796875,"poi_name":"Comuna D\u00e2mbovicioara","parent_id":"686192","long":25.22737000000000051613824325613677501678466796875},"41":{"id":"679720","label":"Comuna D\u0103rm\u0103ne\u015fti","value":"679720","lat":45.00656000000000034333424991928040981292724609375,"lon":24.90223999999999904275682638399302959442138671875,"poi_name":"Comuna D\u0103rm\u0103ne\u015fti","parent_id":"686192","long":24.90223999999999904275682638399302959442138671875},"42":{"id":"677004","label":"Comuna Godeni","value":"677004","lat":45.22310999999999836518327356316149234771728515625,"lon":24.978419999999999845385900698602199554443359375,"poi_name":"Comuna Godeni","parent_id":"686192","long":24.978419999999999845385900698602199554443359375},"43":{"id":"676165","label":"Comuna H\u00e2rse\u015fti","value":"676165","lat":44.51091000000000263980837189592421054840087890625,"lon":24.782939999999999969304553815163671970367431640625,"poi_name":"Comuna H\u00e2rse\u015fti","parent_id":"686192","long":24.782939999999999969304553815163671970367431640625},"44":{"id":"676153","label":"Comuna H\u00e2rtie\u015fti","value":"676153","lat":45.1262899999999973488229443319141864776611328125,"lon":25.11343000000000103000274975784122943878173828125,"poi_name":"Comuna H\u00e2rtie\u015fti","parent_id":"686192","long":25.11343000000000103000274975784122943878173828125},"45":{"id":"675341","label":"Comuna Izvoru","value":"675341","lat":44.4941400000000015779733075760304927825927734375,"lon":25.064699999999998425437297555617988109588623046875,"poi_name":"Comuna Izvoru","parent_id":"686192","long":25.064699999999998425437297555617988109588623046875},"46":{"id":"674882","label":"Comuna Leordeni","value":"674882","lat":44.79117000000000103909769677557051181793212890625,"lon":25.16299000000000063437255448661744594573974609375,"poi_name":"Comuna Leordeni","parent_id":"686192","long":25.16299000000000063437255448661744594573974609375},"47":{"id":"674863","label":"Comuna Lere\u015fti","value":"674863","lat":45.327889999999996462065610103309154510498046875,"lon":25.06951000000000107093001133762300014495849609375,"poi_name":"Comuna Lere\u015fti","parent_id":"686192","long":25.06951000000000107093001133762300014495849609375},"48":{"id":"8299669","label":"Comuna Lunca Corbului","value":"8299669","lat":44.6836100000000016052581486292183399200439453125,"lon":24.760560000000001679154593148268759250640869140625,"poi_name":"Comuna Lunca Corbului","parent_id":"686192","long":24.760560000000001679154593148268759250640869140625},"49":{"id":"8299670","label":"Comuna Meri\u0219ani","value":"8299670","lat":44.9667400000000014870238373987376689910888671875,"lon":24.744820000000000703721525496803224086761474609375,"poi_name":"Comuna Meri\u0219ani","parent_id":"686192","long":24.744820000000000703721525496803224086761474609375},"50":{"id":"673479","label":"Comuna Mice\u015fti","value":"673479","lat":44.973669999999998481143848039209842681884765625,"lon":24.85576999999999969759301166050136089324951171875,"poi_name":"Comuna Mice\u015fti","parent_id":"686192","long":24.85576999999999969759301166050136089324951171875},"51":{"id":"673409","label":"Comuna Mih\u0103e\u015fti","value":"673409","lat":45.11563000000000300815372611396014690399169921875,"lon":25.019380000000001729176801745779812335968017578125,"poi_name":"Comuna Mih\u0103e\u015fti","parent_id":"686192","long":25.019380000000001729176801745779812335968017578125},"52":{"id":"673166","label":"Comuna Mioarele","value":"673166","lat":45.23396000000000327645466313697397708892822265625,"lon":25.100449999999998595967554138042032718658447265625,"poi_name":"Comuna Mioarele","parent_id":"686192","long":25.100449999999998595967554138042032718658447265625},"53":{"id":"673101","label":"Comuna Miro\u015fi","value":"673101","lat":44.4031599999999997407940099947154521942138671875,"lon":24.951699999999998880184648442082107067108154296875,"poi_name":"Comuna Miro\u015fi","parent_id":"686192","long":24.951699999999998880184648442082107067108154296875},"54":{"id":"8299673","label":"Comuna Mor\u0103re\u0219ti","value":"8299673","lat":45.007599999999996498445398174226284027099609375,"lon":24.560790000000000787849785410799086093902587890625,"poi_name":"Comuna Mor\u0103re\u0219ti","parent_id":"686192","long":24.560790000000000787849785410799086093902587890625},"55":{"id":"672712","label":"Comuna Moz\u0103ceni","value":"672712","lat":44.563659999999998717612470500171184539794921875,"lon":25.1749200000000001864464138634502887725830078125,"poi_name":"Comuna Moz\u0103ceni","parent_id":"686192","long":25.1749200000000001864464138634502887725830078125},"56":{"id":"672807","label":"Comuna Mo\u015foaia","value":"672807","lat":44.83012999999999692590790800750255584716796875,"lon":24.799569999999999225792635115794837474822998046875,"poi_name":"Comuna Mo\u015foaia","parent_id":"686192","long":24.799569999999999225792635115794837474822998046875},"57":{"id":"672579","label":"Comuna Mu\u0219\u0103te\u0219ti","value":"672579","lat":45.21667000000000058435034588910639286041259765625,"lon":24.78332999999999941564965411089360713958740234375,"poi_name":"Comuna Mu\u0219\u0103te\u0219ti","parent_id":"686192","long":24.78332999999999941564965411089360713958740234375},"58":{"id":"673975","label":"Comuna M\u0103lureni","value":"673975","lat":45.04780000000000228510543820448219776153564453125,"lon":24.778749999999998721023075631819665431976318359375,"poi_name":"Comuna M\u0103lureni","parent_id":"686192","long":24.778749999999998721023075631819665431976318359375},"59":{"id":"673892","label":"Comuna M\u0103r\u0103cineni","value":"673892","lat":44.90856999999999743522494100034236907958984375,"lon":24.87483999999999895180735620670020580291748046875,"poi_name":"Comuna M\u0103r\u0103cineni","parent_id":"686192","long":24.87483999999999895180735620670020580291748046875},"60":{"id":"672404","label":"Comuna Negra\u015fi","value":"672404","lat":44.61440999999999945657691569067537784576416015625,"lon":25.12404000000000081627149484120309352874755859375,"poi_name":"Comuna Negra\u015fi","parent_id":"686192","long":25.12404000000000081627149484120309352874755859375},"61":{"id":"672132","label":"Comuna Nuc\u015foara","value":"672132","lat":45.3379800000000017234924598596990108489990234375,"lon":24.789429999999999409965312224812805652618408203125,"poi_name":"Comuna Nuc\u015foara","parent_id":"686192","long":24.789429999999999409965312224812805652618408203125},"62":{"id":"672107","label":"Comuna Oarja","value":"672107","lat":44.7573000000000007503331289626657962799072265625,"lon":24.96934999999999860165189602412283420562744140625,"poi_name":"Comuna Oarja","parent_id":"686192","long":24.96934999999999860165189602412283420562744140625},"63":{"id":"670816","label":"Comuna Pietro\u015fani","value":"670816","lat":45.15375000000000227373675443232059478759765625,"lon":24.844390000000000640056896372698247432708740234375,"poi_name":"Comuna Pietro\u015fani","parent_id":"686192","long":24.844390000000000640056896372698247432708740234375},"64":{"id":"670074","label":"Comuna Poiana Lacului","value":"670074","lat":44.81199000000000154386725625954568386077880859375,"lon":24.712959999999998927933120285160839557647705078125,"poi_name":"Comuna Poiana Lacului","parent_id":"686192","long":24.712959999999998927933120285160839557647705078125},"65":{"id":"670235","label":"Comuna Poienarii de Arge\u015f","value":"670235","lat":45.0666700000000020054358174093067646026611328125,"lon":24.53332999999999941564965411089360713958740234375,"poi_name":"Comuna Poienarii de Arge\u015f","parent_id":"686192","long":24.53332999999999941564965411089360713958740234375},"66":{"id":"670234","label":"Comuna Poienarii de Muscel","value":"670234","lat":45.21667000000000058435034588910639286041259765625,"lon":25.050000000000000710542735760100185871124267578125,"poi_name":"Comuna Poienarii de Muscel","parent_id":"686192","long":25.050000000000000710542735760100185871124267578125},"67":{"id":"669867","label":"Comuna Pope\u015fti","value":"669867","lat":44.445210000000002992237568832933902740478515625,"lon":25.091139999999999332658262574113905429840087890625,"poi_name":"Comuna Pope\u015fti","parent_id":"686192","long":25.091139999999999332658262574113905429840087890625},"68":{"id":"669653","label":"Comuna Priboieni","value":"669653","lat":44.8772799999999989495336194522678852081298828125,"lon":25.086800000000000210320649784989655017852783203125,"poi_name":"Comuna Priboieni","parent_id":"686192","long":25.086800000000000210320649784989655017852783203125},"69":{"id":"669041","label":"Comuna Recea","value":"669041","lat":44.54263999999999867895894567482173442840576171875,"lon":25.02738000000000084810380940325558185577392578125,"poi_name":"Comuna Recea","parent_id":"686192","long":25.02738000000000084810380940325558185577392578125},"70":{"id":"668780","label":"Comuna Rociu","value":"668780","lat":44.6683799999999990859578247182071208953857421875,"lon":25.020140000000001379021341563202440738677978515625,"poi_name":"Comuna Rociu","parent_id":"686192","long":25.020140000000001379021341563202440738677978515625},"71":{"id":"668540","label":"Comuna Ruc\u0103r","value":"668540","lat":45.41606999999999771944203530438244342803955078125,"lon":25.17338000000000164391167345456779003143310546875,"poi_name":"Comuna Ruc\u0103r","parent_id":"686192","long":25.17338000000000164391167345456779003143310546875},"72":{"id":"668925","label":"Comuna R\u00e2ca","value":"668925","lat":44.44216000000000121872290037572383880615234375,"lon":25.036709999999999354258761741220951080322265625,"poi_name":"Comuna R\u00e2ca","parent_id":"686192","long":25.036709999999999354258761741220951080322265625},"73":{"id":"669113","label":"Comuna R\u0103te\u015fti","value":"669113","lat":44.71690000000000253521648119203746318817138671875,"lon":25.158580000000000609361450187861919403076171875,"poi_name":"Comuna R\u0103te\u015fti","parent_id":"686192","long":25.158580000000000609361450187861919403076171875},"74":{"id":"667645","label":"Comuna Schitu-Gole\u015fti","value":"667645","lat":45.1863000000000027966962079517543315887451171875,"lon":25.005759999999998655084709753282368183135986328125,"poi_name":"Comuna Schitu-Gole\u015fti","parent_id":"686192","long":25.005759999999998655084709753282368183135986328125},"75":{"id":"666683","label":"Comuna Slobozia","value":"666683","lat":44.52197000000000315367287839762866497039794921875,"lon":25.240919999999999134843164938502013683319091796875,"poi_name":"Comuna Slobozia","parent_id":"686192","long":25.240919999999999134843164938502013683319091796875},"76":{"id":"666062","label":"Comuna Stoene\u015fti","value":"666062","lat":45.264319999999997889972291886806488037109375,"lon":25.176739999999998786961441510356962680816650390625,"poi_name":"Comuna Stoene\u015fti","parent_id":"686192","long":25.176739999999998786961441510356962680816650390625},"77":{"id":"666034","label":"Comuna Stolnici","value":"666034","lat":44.58075000000000187583282240666449069976806640625,"lon":24.77335000000000064801497501321136951446533203125,"poi_name":"Comuna Stolnici","parent_id":"686192","long":24.77335000000000064801497501321136951446533203125},"78":{"id":"666148","label":"Comuna St\u00e2lpeni","value":"666148","lat":45.05664999999999764668245916254818439483642578125,"lon":24.993069999999999453166310559026896953582763671875,"poi_name":"Comuna St\u00e2lpeni","parent_id":"686192","long":24.993069999999999453166310559026896953582763671875},"79":{"id":"665686","label":"Comuna Suseni","value":"665686","lat":44.70861000000000018417267710901796817779541015625,"lon":24.964369999999998839257386862300336360931396484375,"poi_name":"Comuna Suseni","parent_id":"686192","long":24.964369999999998839257386862300336360931396484375},"80":{"id":"668225","label":"Comuna S\u0103l\u0103trucu","value":"668225","lat":45.29097999999999757392288302071392536163330078125,"lon":24.52523000000000052978066378273069858551025390625,"poi_name":"Comuna S\u0103l\u0103trucu","parent_id":"686192","long":24.52523000000000052978066378273069858551025390625},"81":{"id":"668079","label":"Comuna S\u0103pata","value":"668079","lat":44.7278900000000021464074961841106414794921875,"lon":24.75280000000000057980287238024175167083740234375,"poi_name":"Comuna S\u0103pata","parent_id":"686192","long":24.75280000000000057980287238024175167083740234375},"82":{"id":"665324","label":"Comuna Teiu","value":"665324","lat":44.64224999999999710098563809879124164581298828125,"lon":25.14110000000000155750967678613960742950439453125,"poi_name":"Comuna Teiu","parent_id":"686192","long":25.14110000000000155750967678613960742950439453125},"83":{"id":"665112","label":"Comuna Tigveni","value":"665112","lat":45.15588000000000334921423927880823612213134765625,"lon":24.550940000000000651425580144859850406646728515625,"poi_name":"Comuna Tigveni","parent_id":"686192","long":24.550940000000000651425580144859850406646728515625},"84":{"id":"664383","label":"Comuna Uda","value":"664383","lat":44.87590999999999752390067442320287227630615234375,"lon":24.5858199999999982310328050516545772552490234375,"poi_name":"Comuna Uda","parent_id":"686192","long":24.5858199999999982310328050516545772552490234375},"85":{"id":"664269","label":"Comuna Ungheni","value":"664269","lat":44.51165999999999911551640252582728862762451171875,"lon":24.951859999999999928377292235381901264190673828125,"poi_name":"Comuna Ungheni","parent_id":"686192","long":24.951859999999999928377292235381901264190673828125},"86":{"id":"663797","label":"Comuna Valea Danului","value":"663797","lat":45.18961999999999790134097565896809101104736328125,"lon":24.619589999999998752855390193872153759002685546875,"poi_name":"Comuna Valea Danului","parent_id":"686192","long":24.619589999999998752855390193872153759002685546875},"87":{"id":"663732","label":"Comuna Valea Ia\u015fului","value":"663732","lat":45.1967700000000007776179700158536434173583984375,"lon":24.700939999999999230340108624659478664398193359375,"poi_name":"Comuna Valea Ia\u015fului","parent_id":"686192","long":24.700939999999999230340108624659478664398193359375},"88":{"id":"663595","label":"Comuna Valea Mare-Prav\u0103\u0163","value":"663595","lat":45.2890000000000014779288903810083866119384765625,"lon":25.105669999999999930651028989814221858978271484375,"poi_name":"Comuna Valea Mare-Prav\u0103\u0163","parent_id":"686192","long":25.105669999999999930651028989814221858978271484375},"89":{"id":"663082","label":"Comuna Vedea","value":"663082","lat":44.7773499999999984311216394416987895965576171875,"lon":24.646770000000000067075234255753457546234130859375,"poi_name":"Comuna Vedea","parent_id":"686192","long":24.646770000000000067075234255753457546234130859375},"90":{"id":"662615","label":"Comuna Vl\u0103de\u015fti","value":"662615","lat":45.14343999999999823558027856051921844482421875,"lon":24.936340000000001282387529499828815460205078125,"poi_name":"Comuna Vl\u0103de\u015fti","parent_id":"686192","long":24.936340000000001282387529499828815460205078125},"91":{"id":"662392","label":"Comuna Vulture\u015fti","value":"662392","lat":45.059989999999999099600245244801044464111328125,"lon":25.073699999999998766497810720466077327728271484375,"poi_name":"Comuna Vulture\u015fti","parent_id":"686192","long":25.073699999999998766497810720466077327728271484375},"92":{"id":"666245","label":"Comuna \u015etefan cel Mare","value":"666245","lat":44.49197000000000201680450118146836757659912109375,"lon":25.247099999999999653255144949071109294891357421875,"poi_name":"Comuna \u015etefan cel Mare","parent_id":"686192","long":25.247099999999999653255144949071109294891357421875},"93":{"id":"665798","label":"Comuna \u015euici","value":"665798","lat":45.244540000000000645741238258779048919677734375,"lon":24.536210000000000519548848387785255908966064453125,"poi_name":"Comuna \u015euici","parent_id":"686192","long":24.536210000000000519548848387785255908966064453125},"94":{"id":"664900","label":"Comuna \u021ai\u021be\u0219ti","value":"664900","lat":45.01145999999999958163243718445301055908203125,"lon":24.97897999999999996134647517465054988861083984375,"poi_name":"Comuna \u021ai\u021be\u0219ti","parent_id":"686192","long":24.97897999999999996134647517465054988861083984375},"95":{"id":"8299652","label":"Municipiul Curtea de Arge\u0219","value":"8299652","lat":45.13839999999999719193510827608406543731689453125,"lon":24.67511999999999972033037920482456684112548828125,"poi_name":"Municipiul Curtea de Arge\u0219","parent_id":"686192","long":24.67511999999999972033037920482456684112548828125},"96":{"id":"8299651","label":"Municipiul C\u00e2mpulung","value":"8299651","lat":45.26691000000000286718204733915627002716064453125,"lon":25.0441900000000003956301952712237834930419921875,"poi_name":"Municipiul C\u00e2mpulung","parent_id":"686192","long":25.0441900000000003956301952712237834930419921875},"97":{"id":"8299650","label":"Municipiul Pite\u015fti","value":"8299650","lat":44.85781999999999669626049580983817577362060546875,"lon":24.87133000000000038198777474462985992431640625,"poi_name":"Municipiul Pite\u015fti","parent_id":"686192","long":24.87133000000000038198777474462985992431640625},"98":{"id":"680567","label":"Ora\u0219 Coste\u015fti","value":"680567","lat":44.66667000000000342652128892950713634490966796875,"lon":24.8833300000000008367351256310939788818359375,"poi_name":"Ora\u0219 Coste\u015fti","parent_id":"686192","long":24.8833300000000008367351256310939788818359375},"99":{"id":"673161","label":"Ora\u0219 Mioveni","value":"673161","lat":44.95897000000000076624928624369204044342041015625,"lon":24.9427400000000005775291356258094310760498046875,"poi_name":"Ora\u0219 Mioveni","parent_id":"686192","long":24.9427400000000005775291356258094310760498046875}}