{"success":true,"remaining_lookups":7984,"0":{"id":"8334711","label":"Comuna 1 Decembrie","value":"8334711","lat":44.288690000000002555680111981928348541259765625,"lon":26.06177999999999883584678173065185546875,"poi_name":"Comuna 1 Decembrie","parent_id":"865518","long":26.06177999999999883584678173065185546875},"1":{"id":"686643","label":"Comuna Afuma\u0163i","value":"686643","lat":44.52501000000000175305103766731917858123779296875,"lon":26.249430000000000262616595136933028697967529296875,"poi_name":"Comuna Afuma\u0163i","parent_id":"865518","long":26.249430000000000262616595136933028697967529296875},"2":{"id":"685587","label":"Comuna Balote\u015fti","value":"685587","lat":44.620260000000001809894456528127193450927734375,"lon":26.086639999999999162128005991689860820770263671875,"poi_name":"Comuna Balote\u015fti","parent_id":"865518","long":26.086639999999999162128005991689860820770263671875},"3":{"id":"685074","label":"Comuna Berceni","value":"685074","lat":44.3088699999999988676790962927043437957763671875,"lon":26.190509999999999735109668108634650707244873046875,"poi_name":"Comuna Berceni","parent_id":"865518","long":26.190509999999999735109668108634650707244873046875},"4":{"id":"683878","label":"Comuna Br\u0103ne\u015fti","value":"683878","lat":44.453620000000000800355337560176849365234375,"lon":26.34994999999999976125764078460633754730224609375,"poi_name":"Comuna Br\u0103ne\u015fti","parent_id":"865518","long":26.34994999999999976125764078460633754730224609375},"5":{"id":"682300","label":"Comuna Cernica","value":"682300","lat":44.39343000000000216687112697400152683258056640625,"lon":26.289919999999998623252395191229879856109619140625,"poi_name":"Comuna Cernica","parent_id":"865518","long":26.289919999999998623252395191229879856109619140625},"6":{"id":"682158","label":"Comuna Chiajna","value":"682158","lat":44.45499000000000222598828258924186229705810546875,"lon":25.993449999999999278088580467738211154937744140625,"poi_name":"Comuna Chiajna","parent_id":"865518","long":25.993449999999999278088580467738211154937744140625},"7":{"id":"681689","label":"Comuna Ciolpani","value":"681689","lat":44.72603000000000150748746818862855434417724609375,"lon":26.101929999999999409965312224812805652618408203125,"poi_name":"Comuna Ciolpani","parent_id":"865518","long":26.101929999999999409965312224812805652618408203125},"8":{"id":"681646","label":"Comuna Ciorog\u00e2rla","value":"681646","lat":44.432220000000000936779542826116085052490234375,"lon":25.878609999999998336761564132757484912872314453125,"poi_name":"Comuna Ciorog\u00e2rla","parent_id":"865518","long":25.878609999999998336761564132757484912872314453125},"9":{"id":"8334849","label":"Comuna Clinceni","value":"8334849","lat":44.3763900000000006684786058031022548675537109375,"lon":25.92445000000000021600499167107045650482177734375,"poi_name":"Comuna Clinceni","parent_id":"865518","long":25.92445000000000021600499167107045650482177734375},"10":{"id":"680924","label":"Comuna Cop\u0103ceni","value":"680924","lat":44.26297000000000281261236523278057575225830078125,"lon":26.093740000000000378577169612981379032135009765625,"poi_name":"Comuna Cop\u0103ceni","parent_id":"865518","long":26.093740000000000378577169612981379032135009765625},"11":{"id":"680889","label":"Comuna Corbeanca","value":"680889","lat":44.596710000000001627995516173541545867919921875,"lon":26.032409999999998717612470500171184539794921875,"poi_name":"Comuna Corbeanca","parent_id":"865518","long":26.032409999999998717612470500171184539794921875},"12":{"id":"680749","label":"Comuna Cornetu","value":"680749","lat":44.342860000000001718944986350834369659423828125,"lon":25.924890000000001322177922702394425868988037109375,"poi_name":"Comuna Cornetu","parent_id":"865518","long":25.924890000000001322177922702394425868988037109375},"13":{"id":"679707","label":"Comuna Dasc\u0103lu Crea\u0163a","value":"679707","lat":44.60007999999999839246811461634933948516845703125,"lon":26.24201000000000050249582272954285144805908203125,"poi_name":"Comuna Dasc\u0103lu Crea\u0163a","parent_id":"865518","long":26.24201000000000050249582272954285144805908203125},"14":{"id":"679116","label":"Comuna Domne\u015fti","value":"679116","lat":44.390579999999999927240423858165740966796875,"lon":25.8949199999999990495780366472899913787841796875,"poi_name":"Comuna Domne\u015fti","parent_id":"865518","long":25.8949199999999990495780366472899913787841796875},"15":{"id":"8334881","label":"Comuna Dragomire\u015fti-Vale","value":"8334881","lat":44.4755499999999983629095368087291717529296875,"lon":25.9316400000000015779733075760304927825927734375,"poi_name":"Comuna Dragomire\u015fti-Vale","parent_id":"865518","long":25.9316400000000015779733075760304927825927734375},"16":{"id":"679731","label":"Comuna D\u0103r\u0103\u015fti-Ilfov","value":"679731","lat":44.30912000000000006139089236967265605926513671875,"lon":26.021390000000000242152964347042143344879150390625,"poi_name":"Comuna D\u0103r\u0103\u015fti-Ilfov","parent_id":"865518","long":26.021390000000000242152964347042143344879150390625},"17":{"id":"677804","label":"Comuna Fundeni-Dobroe\u015fti","value":"677804","lat":44.4545499999999975671016727574169635772705078125,"lon":26.183679999999998955217961338348686695098876953125,"poi_name":"Comuna Fundeni-Dobroe\u015fti","parent_id":"865518","long":26.183679999999998955217961338348686695098876953125},"18":{"id":"8334589","label":"Comuna Glina","value":"8334589","lat":44.38546000000000191221261047758162021636962890625,"lon":26.245819999999998373141352203674614429473876953125,"poi_name":"Comuna Glina","parent_id":"865518","long":26.245819999999998373141352203674614429473876953125},"19":{"id":"676611","label":"Comuna Gruiu","value":"676611","lat":44.72648000000000223508322960697114467620849609375,"lon":26.221329999999998250359567464329302310943603515625,"poi_name":"Comuna Gruiu","parent_id":"865518","long":26.221329999999998250359567464329302310943603515625},"20":{"id":"676810","label":"Comuna Gr\u0103di\u015ftea","value":"676810","lat":44.6655700000000024374458007514476776123046875,"lon":26.314479999999999648707671440206468105316162109375,"poi_name":"Comuna Gr\u0103di\u015ftea","parent_id":"865518","long":26.314479999999999648707671440206468105316162109375},"21":{"id":"677626","label":"Comuna G\u0103neasa","value":"677626","lat":44.49446999999999974306774674914777278900146484375,"lon":26.29923000000000143927536555565893650054931640625,"poi_name":"Comuna G\u0103neasa","parent_id":"865518","long":26.29923000000000143927536555565893650054931640625},"22":{"id":"675229","label":"Comuna Jilava","value":"675229","lat":44.32862999999999686906448914669454097747802734375,"lon":26.077539999999999054125510156154632568359375,"poi_name":"Comuna Jilava","parent_id":"865518","long":26.077539999999999054125510156154632568359375},"23":{"id":"8334859","label":"Comuna Moara Vl\u00e3siei","value":"8334859","lat":44.63416000000000138925315695814788341522216796875,"lon":26.189350000000001017497197608463466167449951171875,"poi_name":"Comuna Moara Vl\u00e3siei","parent_id":"865518","long":26.189350000000001017497197608463466167449951171875},"24":{"id":"672936","label":"Comuna Mogo\u015foaia","value":"672936","lat":44.52902999999999877900336286984384059906005859375,"lon":26.001780000000000114823706098832190036773681640625,"poi_name":"Comuna Mogo\u015foaia","parent_id":"865518","long":26.001780000000000114823706098832190036773681640625},"25":{"id":"8334739","label":"Comuna Nuci","value":"8334739","lat":44.70909999999999939745976007543504238128662109375,"lon":26.317699999999998539124135277234017848968505859375,"poi_name":"Comuna Nuci","parent_id":"865518","long":26.317699999999998539124135277234017848968505859375},"26":{"id":"8334888","label":"Comuna Peri\u015f","value":"8334888","lat":44.7085900000000009413270163349807262420654296875,"lon":26.014720000000000510453901370055973529815673828125,"poi_name":"Comuna Peri\u015f","parent_id":"865518","long":26.014720000000000510453901370055973529815673828125},"27":{"id":"680295","label":"Comuna Petr\u0103chioaia","value":"680295","lat":44.57952999999999832425601198337972164154052734375,"lon":26.31114000000000174850356415845453739166259765625,"poi_name":"Comuna Petr\u0103chioaia","parent_id":"865518","long":26.31114000000000174850356415845453739166259765625},"28":{"id":"666610","label":"Comuna Snagov","value":"666610","lat":44.684809999999998808561940677464008331298828125,"lon":26.123840000000001282387529499828815460205078125,"poi_name":"Comuna Snagov","parent_id":"865518","long":26.123840000000001282387529499828815460205078125},"29":{"id":"664498","label":"Comuna Tunari","value":"664498","lat":44.56797000000000252839527092874050140380859375,"lon":26.13907999999999987039700499735772609710693359375,"poi_name":"Comuna Tunari","parent_id":"865518","long":26.13907999999999987039700499735772609710693359375},"30":{"id":"662967","label":"Comuna Vidra","value":"662967","lat":44.2810699999999997089616954326629638671875,"lon":26.143100000000000449063009000383317470550537109375,"poi_name":"Comuna Vidra","parent_id":"865518","long":26.143100000000000449063009000383317470550537109375},"31":{"id":"666228","label":"Comuna \u015etef\u00e3ne\u015ftii De Jos","value":"666228","lat":44.53332999999999941564965411089360713958740234375,"lon":26.183330000000001547277861391194164752960205078125,"poi_name":"Comuna \u015etef\u00e3ne\u015ftii De Jos","parent_id":"865518","long":26.183330000000001547277861391194164752960205078125},"32":{"id":"683911","label":"Ora\u015f Bragadiru","value":"683911","lat":44.36997999999999819920049048960208892822265625,"lon":25.97870999999999952478901832364499568939208984375,"poi_name":"Ora\u015f Bragadiru","parent_id":"865518","long":25.97870999999999952478901832364499568939208984375},"33":{"id":"683393","label":"Ora\u015f Buftea","value":"683393","lat":44.5547499999999985220711096189916133880615234375,"lon":25.95627999999999957481122692115604877471923828125,"poi_name":"Ora\u015f Buftea","parent_id":"865518","long":25.95627999999999957481122692115604877471923828125},"34":{"id":"681989","label":"Ora\u015f Chitila","value":"681989","lat":44.49052999999999968849806464277207851409912109375,"lon":25.9784700000000015052137314341962337493896484375,"poi_name":"Ora\u015f Chitila","parent_id":"865518","long":25.9784700000000015052137314341962337493896484375},"35":{"id":"674111","label":"Ora\u015f M\u00e3gurele","value":"674111","lat":44.33924999999999982946974341757595539093017578125,"lon":26.014030000000001763282853062264621257781982421875,"poi_name":"Ora\u015f M\u00e3gurele","parent_id":"865518","long":26.014030000000001763282853062264621257781982421875},"36":{"id":"671589","label":"Ora\u015f Otopeni","value":"671589","lat":44.54216999999999870851752348244190216064453125,"lon":26.065259999999998541397872031666338443756103515625,"poi_name":"Ora\u015f Otopeni","parent_id":"865518","long":26.065259999999998541397872031666338443756103515625},"37":{"id":"671380","label":"Ora\u015f Pantelimon","value":"671380","lat":44.45235000000000269437805400229990482330322265625,"lon":26.20683999999999969077180139720439910888671875,"poi_name":"Ora\u015f Pantelimon","parent_id":"865518","long":26.20683999999999969077180139720439910888671875},"38":{"id":"669869","label":"Ora\u015f Pope\u015fti Leordeni","value":"669869","lat":44.3800499999999971123543218709528446197509765625,"lon":26.1713400000000007139533408917486667633056640625,"poi_name":"Ora\u015f Pope\u015fti Leordeni","parent_id":"865518","long":26.1713400000000007139533408917486667633056640625},"39":{"id":"662475","label":"Voluntari City","value":"662475","lat":44.4902299999999968349584378302097320556640625,"lon":26.18439000000000049794834922067821025848388671875,"poi_name":"Voluntari City","parent_id":"865518","long":26.18439000000000049794834922067821025848388671875}}