{"success":true,"remaining_lookups":7134,"0":{"id":"1905666","label":"Huy\u1ec7n L\u1ee5c Y\u00ean","value":"1905666","lat":22.1023500000000012732925824820995330810546875,"lon":104.725380000000001246007741428911685943603515625,"poi_name":"Huy\u1ec7n L\u1ee5c Y\u00ean","parent_id":"1559978","long":104.725380000000001246007741428911685943603515625},"1":{"id":"1905668","label":"Huy\u1ec7n M\u00f9 Cang Ch\u1ea3i","value":"1905668","lat":21.788150000000001682565198279917240142822265625,"lon":104.11997999999999819920049048960208892822265625,"poi_name":"Huy\u1ec7n M\u00f9 Cang Ch\u1ea3i","parent_id":"1559978","long":104.11997999999999819920049048960208892822265625},"2":{"id":"1905667","label":"Huy\u1ec7n Tr\u1ea1m T\u1ea5u","value":"1905667","lat":21.485530000000000683257894706912338733673095703125,"lon":104.427559999999999718056642450392246246337890625,"poi_name":"Huy\u1ec7n Tr\u1ea1m T\u1ea5u","parent_id":"1559978","long":104.427559999999999718056642450392246246337890625},"3":{"id":"1905662","label":"Huy\u1ec7n Tr\u1ea5n Y\u00ean","value":"1905662","lat":21.665859999999998564135239575989544391632080078125,"lon":104.797020000000003392415237613022327423095703125,"poi_name":"Huy\u1ec7n Tr\u1ea5n Y\u00ean","parent_id":"1559978","long":104.797020000000003392415237613022327423095703125},"4":{"id":"1905663","label":"Huy\u1ec7n V\u0103n Ch\u1ea5n","value":"1905663","lat":21.557220000000000936779542826116085052490234375,"lon":104.64037999999999328792910091578960418701171875,"poi_name":"Huy\u1ec7n V\u0103n Ch\u1ea5n","parent_id":"1559978","long":104.64037999999999328792910091578960418701171875},"5":{"id":"1905665","label":"Huy\u1ec7n V\u0103n Y\u00ean","value":"1905665","lat":21.900220000000000908357833395712077617645263671875,"lon":104.5666899999999941428541205823421478271484375,"poi_name":"Huy\u1ec7n V\u0103n Y\u00ean","parent_id":"1559978","long":104.5666899999999941428541205823421478271484375},"6":{"id":"1905664","label":"Huy\u1ec7n Y\u00ean B\u00ecnh","value":"1905664","lat":21.854639999999999844249032321386039257049560546875,"lon":104.9540199999999998681232682429254055023193359375,"poi_name":"Huy\u1ec7n Y\u00ean B\u00ecnh","parent_id":"1559978","long":104.9540199999999998681232682429254055023193359375},"7":{"id":"1905660","label":"Th\u00e0nh Ph\u1ed1 Y\u00ean B\u00e1i","value":"1905660","lat":21.7323999999999983856469043530523777008056640625,"lon":104.9064000000000049794834922067821025848388671875,"poi_name":"Th\u00e0nh Ph\u1ed1 Y\u00ean B\u00e1i","parent_id":"1559978","long":104.9064000000000049794834922067821025848388671875},"8":{"id":"1905661","label":"Th\u1ecb X\u00e3 Ngh\u0129a L\u1ed9","value":"1905661","lat":21.598780000000001422222339897416532039642333984375,"lon":104.503950000000003228706191293895244598388671875,"poi_name":"Th\u1ecb X\u00e3 Ngh\u0129a L\u1ed9","parent_id":"1559978","long":104.503950000000003228706191293895244598388671875}}