{"success":true,"remaining_lookups":7137,"0":{"id":"1904865","label":"Huy\u1ec7n B\u1ebfn C\u1ea7u","value":"1904865","lat":11.1288900000000001710986907710321247577667236328125,"lon":106.1429600000000021964297047816216945648193359375,"poi_name":"Huy\u1ec7n B\u1ebfn C\u1ea7u","parent_id":"1566557","long":106.1429600000000021964297047816216945648193359375},"1":{"id":"1904864","label":"Huy\u1ec7n Ch\u00e2u Th\u00e0nh","value":"1904864","lat":11.315690000000000026147972675971686840057373046875,"lon":105.981300000000004501998773775994777679443359375,"poi_name":"Huy\u1ec7n Ch\u00e2u Th\u00e0nh","parent_id":"1566557","long":105.981300000000004501998773775994777679443359375},"2":{"id":"1904868","label":"Huy\u1ec7n D\u01b0\u01a1ng Minh Ch\u00e2u","value":"1904868","lat":11.318329999999999557758201262913644313812255859375,"lon":106.256969999999995479811332188546657562255859375,"poi_name":"Huy\u1ec7n D\u01b0\u01a1ng Minh Ch\u00e2u","parent_id":"1566557","long":106.256969999999995479811332188546657562255859375},"3":{"id":"1904866","label":"Huy\u1ec7n G\u00f2 D\u1ea7u","value":"1904866","lat":11.1573700000000002319211489520967006683349609375,"lon":106.2730700000000041427483665756881237030029296875,"poi_name":"Huy\u1ec7n G\u00f2 D\u1ea7u","parent_id":"1566557","long":106.2730700000000041427483665756881237030029296875},"4":{"id":"1904863","label":"Huy\u1ec7n H\u00f2a Th\u00e0nh","value":"1904863","lat":11.2670600000000007412381819449365139007568359375,"lon":106.1448599999999942156136967241764068603515625,"poi_name":"Huy\u1ec7n H\u00f2a Th\u00e0nh","parent_id":"1566557","long":106.1448599999999942156136967241764068603515625},"5":{"id":"1904867","label":"Huy\u1ec7n Tr\u1ea3ng B\u00e0ng","value":"1904867","lat":11.0571999999999999175770426518283784389495849609375,"lon":106.3753899999999958936314214952290058135986328125,"poi_name":"Huy\u1ec7n Tr\u1ea3ng B\u00e0ng","parent_id":"1566557","long":106.3753899999999958936314214952290058135986328125},"6":{"id":"1904870","label":"Huy\u1ec7n T\u00e2n Bi\u00ean","value":"1904870","lat":11.5579400000000003245759216952137649059295654296875,"lon":105.99846999999999752617441117763519287109375,"poi_name":"Huy\u1ec7n T\u00e2n Bi\u00ean","parent_id":"1566557","long":105.99846999999999752617441117763519287109375},"7":{"id":"1904869","label":"Huy\u1ec7n T\u00e2n Ch\u00e2u","value":"1904869","lat":11.587389999999999190549715422093868255615234375,"lon":106.282700000000005502442945726215839385986328125,"poi_name":"Huy\u1ec7n T\u00e2n Ch\u00e2u","parent_id":"1566557","long":106.282700000000005502442945726215839385986328125},"8":{"id":"1904862","label":"Th\u00e0nh Ph\u1ed1 T\u00e2y Ninh","value":"1904862","lat":11.3691499999999994230392985627986490726470947265625,"lon":106.1266200000000026193447411060333251953125,"poi_name":"Th\u00e0nh Ph\u1ed1 T\u00e2y Ninh","parent_id":"1566557","long":106.1266200000000026193447411060333251953125}}