{"success":true,"remaining_lookups":7145,"0":{"id":"8714967","label":"Huyen Sop Cop","value":"8714967","lat":20.88745000000000118234311230480670928955078125,"lon":103.4974299999999942656359053216874599456787109375,"poi_name":"Huyen Sop Cop","parent_id":"1567643","long":103.4974299999999942656359053216874599456787109375},"1":{"id":"1905082","label":"Huy\u1ec7n B\u1eafc Y\u00ean","value":"1905082","lat":21.25041999999999831061359145678579807281494140625,"lon":104.385009999999994079189491458237171173095703125,"poi_name":"Huy\u1ec7n B\u1eafc Y\u00ean","parent_id":"1567643","long":104.385009999999994079189491458237171173095703125},"2":{"id":"1905081","label":"Huy\u1ec7n Mai S\u01a1n","value":"1905081","lat":21.158840000000001424496076651848852634429931640625,"lon":104.0482099999999974215825204737484455108642578125,"poi_name":"Huy\u1ec7n Mai S\u01a1n","parent_id":"1567643","long":104.0482099999999974215825204737484455108642578125},"3":{"id":"1905077","label":"Huy\u1ec7n M\u01b0\u1eddng La","value":"1905077","lat":21.529599999999998516386767732910811901092529296875,"lon":104.111130000000002837623469531536102294921875,"poi_name":"Huy\u1ec7n M\u01b0\u1eddng La","parent_id":"1567643","long":104.111130000000002837623469531536102294921875},"4":{"id":"1905085","label":"Huy\u1ec7n M\u1ed9c Ch\u00e2u","value":"1905085","lat":21.833330000000000126192389870993793010711669921875,"lon":104.75,"poi_name":"Huy\u1ec7n M\u1ed9c Ch\u00e2u","parent_id":"1567643","long":104.75},"5":{"id":"1905084","label":"Huy\u1ec7n Ph\u00f9 Y\u00ean","value":"1905084","lat":21.21412000000000119825926958583295345306396484375,"lon":104.68993000000000392901711165904998779296875,"poi_name":"Huy\u1ec7n Ph\u00f9 Y\u00ean","parent_id":"1567643","long":104.68993000000000392901711165904998779296875},"6":{"id":"1905078","label":"Huy\u1ec7n Qu\u1ef3nh Nhai","value":"1905078","lat":21.772240000000000037516656448133289813995361328125,"lon":103.6491999999999933379513095133006572723388671875,"poi_name":"Huy\u1ec7n Qu\u1ef3nh Nhai","parent_id":"1567643","long":103.6491999999999933379513095133006572723388671875},"7":{"id":"1905080","label":"Huy\u1ec7n S\u00f4ng M\u00e3","value":"1905080","lat":21.0697100000000006048139766789972782135009765625,"lon":103.6872699999999980491338646970689296722412109375,"poi_name":"Huy\u1ec7n S\u00f4ng M\u00e3","parent_id":"1567643","long":103.6872699999999980491338646970689296722412109375},"8":{"id":"1905079","label":"Huy\u1ec7n Thu\u1eadn Ch\u00e2u","value":"1905079","lat":21.423190000000001731450538500212132930755615234375,"lon":103.644080000000002428350853733718395233154296875,"poi_name":"Huy\u1ec7n Thu\u1eadn Ch\u00e2u","parent_id":"1567643","long":103.644080000000002428350853733718395233154296875},"9":{"id":"11497487","label":"Huy\u1ec7n V\u00e2n H\u1ed3","value":"11497487","lat":21.225609999999999644160197931341826915740966796875,"lon":104.02285000000000536601874046027660369873046875,"poi_name":"Huy\u1ec7n V\u00e2n H\u1ed3","parent_id":"1567643","long":104.02285000000000536601874046027660369873046875},"10":{"id":"1905083","label":"Huy\u1ec7n Y\u00ean Ch\u00e2u","value":"1905083","lat":21.004999999999999005240169935859739780426025390625,"lon":104.332639999999997826307662762701511383056640625,"poi_name":"Huy\u1ec7n Y\u00ean Ch\u00e2u","parent_id":"1567643","long":104.332639999999997826307662762701511383056640625},"11":{"id":"1905076","label":"Th\u00e0nh Ph\u1ed1 S\u01a1n La","value":"1905076","lat":21.34613999999999833789843250997364521026611328125,"lon":103.9115000000000037516656448133289813995361328125,"poi_name":"Th\u00e0nh Ph\u1ed1 S\u01a1n La","parent_id":"1567643","long":103.9115000000000037516656448133289813995361328125}}