{"success":true,"remaining_lookups":7149,"0":{"id":"1905623","label":"Huy\u1ec7n Ba T\u01a1","value":"1905623","lat":14.7397299999999997766053638770245015621185302734375,"lon":108.6932599999999951023710309527814388275146484375,"poi_name":"Huy\u1ec7n Ba T\u01a1","parent_id":"1568769","long":108.6932599999999951023710309527814388275146484375},"1":{"id":"1905616","label":"Huy\u1ec7n B\u00ecnh S\u01a1n","value":"1905616","lat":15.3189899999999994406607584096491336822509765625,"lon":108.7638299999999986766852089203894138336181640625,"poi_name":"Huy\u1ec7n B\u00ecnh S\u01a1n","parent_id":"1568769","long":108.7638299999999986766852089203894138336181640625},"2":{"id":"1905625","label":"Huy\u1ec7n L\u00fd S\u01a1n","value":"1905625","lat":15.406079999999999330384525819681584835052490234375,"lon":109.097070000000002210072125308215618133544921875,"poi_name":"Huy\u1ec7n L\u00fd S\u01a1n","parent_id":"1568769","long":109.097070000000002210072125308215618133544921875},"3":{"id":"1905620","label":"Huy\u1ec7n Minh Long","value":"1905620","lat":14.9537499999999994315658113919198513031005859375,"lon":108.6772399999999976216713548637926578521728515625,"poi_name":"Huy\u1ec7n Minh Long","parent_id":"1568769","long":108.6772399999999976216713548637926578521728515625},"4":{"id":"1905622","label":"Huy\u1ec7n M\u1ed9 \u0110\u1ee9c","value":"1905622","lat":14.955149999999999721467247582040727138519287109375,"lon":108.888409999999993260644259862601757049560546875,"poi_name":"Huy\u1ec7n M\u1ed9 \u0110\u1ee9c","parent_id":"1568769","long":108.888409999999993260644259862601757049560546875},"5":{"id":"1905621","label":"Huy\u1ec7n Ngh\u0129a H\u00e0nh","value":"1905621","lat":14.987120000000000885620465851388871669769287109375,"lon":108.8003599999999977399056660942733287811279296875,"poi_name":"Huy\u1ec7n Ngh\u0129a H\u00e0nh","parent_id":"1568769","long":108.8003599999999977399056660942733287811279296875},"6":{"id":"1905619","label":"Huy\u1ec7n S\u01a1n H\u00e0","value":"1905619","lat":14.9842700000000004223466021358035504817962646484375,"lon":108.5364299999999957435647957026958465576171875,"poi_name":"Huy\u1ec7n S\u01a1n H\u00e0","parent_id":"1568769","long":108.5364299999999957435647957026958465576171875},"7":{"id":"1905618","label":"Huy\u1ec7n S\u01a1n T\u00e2y","value":"1905618","lat":14.9639199999999998880184648442082107067108154296875,"lon":108.3641899999999935744199319742619991302490234375,"poi_name":"Huy\u1ec7n S\u01a1n T\u00e2y","parent_id":"1568769","long":108.3641899999999935744199319742619991302490234375},"8":{"id":"1905615","label":"Huy\u1ec7n S\u01a1n T\u1ecbnh","value":"1905615","lat":15.19089999999999918145476840436458587646484375,"lon":108.7429499999999933379513095133006572723388671875,"poi_name":"Huy\u1ec7n S\u01a1n T\u1ecbnh","parent_id":"1568769","long":108.7429499999999933379513095133006572723388671875},"9":{"id":"1905617","label":"Huy\u1ec7n Tr\u00e0 B\u1ed3ng","value":"1905617","lat":15.237519999999999953388396534137427806854248046875,"lon":108.526330000000001518856151960790157318115234375,"poi_name":"Huy\u1ec7n Tr\u00e0 B\u1ed3ng","parent_id":"1568769","long":108.526330000000001518856151960790157318115234375},"10":{"id":"8673071","label":"Huy\u1ec7n T\u00e2y Tr\u00e0","value":"8673071","lat":15.1683099999999999596411726088263094425201416015625,"lon":108.3684099999999972396835801191627979278564453125,"poi_name":"Huy\u1ec7n T\u00e2y Tr\u00e0","parent_id":"1568769","long":108.3684099999999972396835801191627979278564453125},"11":{"id":"1905614","label":"Huy\u1ec7n T\u01b0 Ngh\u0129a","value":"1905614","lat":15.094989999999999241708792396821081638336181640625,"lon":108.7705299999999937199390842579305171966552734375,"poi_name":"Huy\u1ec7n T\u01b0 Ngh\u0129a","parent_id":"1568769","long":108.7705299999999937199390842579305171966552734375},"12":{"id":"1905624","label":"Huy\u1ec7n \u0110\u1ee9c Ph\u1ed5","value":"1905624","lat":14.7799999999999993605115378159098327159881591796875,"lon":108.9785700000000048248693929053843021392822265625,"poi_name":"Huy\u1ec7n \u0110\u1ee9c Ph\u1ed5","parent_id":"1568769","long":108.9785700000000048248693929053843021392822265625},"13":{"id":"1905613","label":"Th\u00e0nh Ph\u1ed1 Qu\u1ea3ng Ng\u00e3i","value":"1905613","lat":15.1157699999999994844301909324713051319122314453125,"lon":108.809619999999995343387126922607421875,"poi_name":"Th\u00e0nh Ph\u1ed1 Qu\u1ea3ng Ng\u00e3i","parent_id":"1568769","long":108.809619999999995343387126922607421875}}