{"success":true,"remaining_lookups":7159,"0":{"id":"1905201","label":"Huy\u1ec7n B\u1ea3o L\u00e2m","value":"1905201","lat":11.7116299999999995407051756046712398529052734375,"lon":107.7533800000000070440364652313292026519775390625,"poi_name":"Huy\u1ec7n B\u1ea3o L\u00e2m","parent_id":"1577882","long":107.7533800000000070440364652313292026519775390625},"1":{"id":"1905204","label":"Huy\u1ec7n C\u00e1t Ti\u00ean","value":"1905204","lat":11.66290000000000048885340220294892787933349609375,"lon":107.3676799999999929013938526622951030731201171875,"poi_name":"Huy\u1ec7n C\u00e1t Ti\u00ean","parent_id":"1577882","long":107.3676799999999929013938526622951030731201171875},"2":{"id":"1905205","label":"Huy\u1ec7n Di Linh","value":"1905205","lat":11.494659999999999655528881703503429889678955078125,"lon":108.0869100000000031513991416431963443756103515625,"poi_name":"Huy\u1ec7n Di Linh","parent_id":"1577882","long":108.0869100000000031513991416431963443756103515625},"3":{"id":"1905208","label":"Huy\u1ec7n L\u00e2m H\u00e0","value":"1905208","lat":11.8188999999999992951416061259806156158447265625,"lon":108.2121499999999940655470709316432476043701171875,"poi_name":"Huy\u1ec7n L\u00e2m H\u00e0","parent_id":"1577882","long":108.2121499999999940655470709316432476043701171875},"4":{"id":"1905209","label":"Huy\u1ec7n L\u1ea1c D\u01b0\u01a1ng","value":"1905209","lat":12.1237300000000001176658770418725907802581787109375,"lon":108.531080000000002883098204620182514190673828125,"poi_name":"Huy\u1ec7n L\u1ea1c D\u01b0\u01a1ng","parent_id":"1577882","long":108.531080000000002883098204620182514190673828125},"5":{"id":"1905207","label":"Huy\u1ec7n \u0110\u01a1n D\u01b0\u01a1ng","value":"1905207","lat":11.753080000000000637783159618265926837921142578125,"lon":108.5539700000000067348082666285336017608642578125,"poi_name":"Huy\u1ec7n \u0110\u01a1n D\u01b0\u01a1ng","parent_id":"1577882","long":108.5539700000000067348082666285336017608642578125},"6":{"id":"1905202","label":"Huy\u1ec7n \u0110\u1ea1 Huoai","value":"1905202","lat":11.4246499999999997498889570124447345733642578125,"lon":107.638249999999999317878973670303821563720703125,"poi_name":"Huy\u1ec7n \u0110\u1ea1 Huoai","parent_id":"1577882","long":107.638249999999999317878973670303821563720703125},"7":{"id":"1905203","label":"Huy\u1ec7n \u0110\u1ea1 T\u1ebbh","value":"1905203","lat":11.58445999999999997953636921010911464691162109375,"lon":107.52791999999999461579136550426483154296875,"poi_name":"Huy\u1ec7n \u0110\u1ea1 T\u1ebbh","parent_id":"1577882","long":107.52791999999999461579136550426483154296875},"8":{"id":"1905206","label":"Huy\u1ec7n \u0110\u1ee9c Tr\u1ecdng","value":"1905206","lat":11.62686000000000063892002799548208713531494140625,"lon":108.3533000000000043883119360543787479400634765625,"poi_name":"Huy\u1ec7n \u0110\u1ee9c Tr\u1ecdng","parent_id":"1577882","long":108.3533000000000043883119360543787479400634765625},"9":{"id":"1905200","label":"Th\u00e0nh Ph\u1ed1 B\u1ea3o L\u1ed9c","value":"1905200","lat":11.5375899999999997902477844036184251308441162109375,"lon":107.7863799999999940837369649671018123626708984375,"poi_name":"Th\u00e0nh Ph\u1ed1 B\u1ea3o L\u1ed9c","parent_id":"1577882","long":107.7863799999999940837369649671018123626708984375},"10":{"id":"1905197","label":"Th\u00e0nh Ph\u1ed1 \u0110\u00e0 L\u1ea1t","value":"1905197","lat":11.9314499999999998891553332214243710041046142578125,"lon":108.474140000000005557012627832591533660888671875,"poi_name":"Th\u00e0nh Ph\u1ed1 \u0110\u00e0 L\u1ea1t","parent_id":"1577882","long":108.474140000000005557012627832591533660888671875},"11":{"id":"1584012","label":"\u0110am Rong","value":"1584012","lat":12.0540900000000004155253918725065886974334716796875,"lon":108.1494100000000031513991416431963443756103515625,"poi_name":"\u0110am Rong","parent_id":"1577882","long":108.1494100000000031513991416431963443756103515625}}