{"success":true,"remaining_lookups":7161,"0":{"id":"1905107","label":"Huy\u1ec7n M\u01b0\u00f2ng T\u00e8","value":"1905107","lat":22.374430000000000262616595136933028697967529296875,"lon":102.738349999999996953192749060690402984619140625,"poi_name":"Huy\u1ec7n M\u01b0\u00f2ng T\u00e8","parent_id":"1577954","long":102.738349999999996953192749060690402984619140625},"1":{"id":"10816510","label":"Huy\u1ec7n N\u1eadm Nh\u00f9n","value":"10816510","lat":22.204499999999999459987520822323858737945556640625,"lon":103.011269999999996116457623429596424102783203125,"poi_name":"Huy\u1ec7n N\u1eadm Nh\u00f9n","parent_id":"1577954","long":103.011269999999996116457623429596424102783203125},"2":{"id":"1905106","label":"Huy\u1ec7n Phong Th\u1ed5","value":"1905106","lat":22.606500000000000483169060316868126392364501953125,"lon":103.3915400000000062163962866179645061492919921875,"poi_name":"Huy\u1ec7n Phong Th\u1ed5","parent_id":"1577954","long":103.3915400000000062163962866179645061492919921875},"3":{"id":"1905104","label":"Huy\u1ec7n S\u00ecn H\u1ed3","value":"1905104","lat":22.299240000000001060698195942677557468414306640625,"lon":103.2746800000000035879565984942018985748291015625,"poi_name":"Huy\u1ec7n S\u00ecn H\u1ed3","parent_id":"1577954","long":103.2746800000000035879565984942018985748291015625},"4":{"id":"8456760","label":"Huy\u1ec7n Tam \u0110\u01b0\u1eddng","value":"8456760","lat":22.3539099999999990586729836650192737579345703125,"lon":103.5934199999999947294782032258808612823486328125,"poi_name":"Huy\u1ec7n Tam \u0110\u01b0\u1eddng","parent_id":"1577954","long":103.5934199999999947294782032258808612823486328125},"5":{"id":"1905014","label":"Huy\u1ec7n Than Uy\u00ean","value":"1905014","lat":21.91423999999999949750417727045714855194091796875,"lon":103.8285699999999991405275068245828151702880859375,"poi_name":"Huy\u1ec7n Than Uy\u00ean","parent_id":"1577954","long":103.8285699999999991405275068245828151702880859375},"6":{"id":"10862502","label":"Huy\u1ec7n T\u00e2n Uy\u00ean","value":"10862502","lat":22.128370000000000317186277243308722972869873046875,"lon":103.735759999999999081410351209342479705810546875,"poi_name":"Huy\u1ec7n T\u00e2n Uy\u00ean","parent_id":"1577954","long":103.735759999999999081410351209342479705810546875},"7":{"id":"11497338","label":"Th\u00e0nh ph\u1ed1 Lai Ch\u00e2u","value":"11497338","lat":22.069230000000001012949724099598824977874755859375,"lon":103.1563900000000018053469830192625522613525390625,"poi_name":"Th\u00e0nh ph\u1ed1 Lai Ch\u00e2u","parent_id":"1577954","long":103.1563900000000018053469830192625522613525390625}}