{"success":true,"remaining_lookups":7178,"0":{"id":"1905565","label":"Huy\u1ec7n B\u1eafc B\u00ecnh","value":"1905565","lat":11.275710000000000121644916362129151821136474609375,"lon":108.3850599999999957390173221938312053680419921875,"poi_name":"Huy\u1ec7n B\u1eafc B\u00ecnh","parent_id":"1581882","long":108.3850599999999957390173221938312053680419921875},"1":{"id":"1905564","label":"Huy\u1ec7n H\u00e0m Thu\u1eadn B\u1eafc","value":"1905564","lat":11.147030000000000882209860719740390777587890625,"lon":108.0817200000000042336978367529809474945068359375,"poi_name":"Huy\u1ec7n H\u00e0m Thu\u1eadn B\u1eafc","parent_id":"1581882","long":108.0817200000000042336978367529809474945068359375},"2":{"id":"1905563","label":"Huy\u1ec7n H\u00e0m Thu\u1eadn Nam","value":"1905563","lat":10.9210100000000007725020623183809220790863037109375,"lon":107.9332500000000010231815394945442676544189453125,"poi_name":"Huy\u1ec7n H\u00e0m Thu\u1eadn Nam","parent_id":"1581882","long":107.9332500000000010231815394945442676544189453125},"3":{"id":"1905567","label":"Huy\u1ec7n H\u00e0m T\u00e2n","value":"1905567","lat":10.76856000000000079808160080574452877044677734375,"lon":107.6423300000000011777956387959420680999755859375,"poi_name":"Huy\u1ec7n H\u00e0m T\u00e2n","parent_id":"1581882","long":107.6423300000000011777956387959420680999755859375},"4":{"id":"1905570","label":"Huy\u1ec7n Ph\u00fa Qu\u00fd","value":"1905570","lat":10.5293299999999998561861502821557223796844482421875,"lon":108.9437599999999974897946231067180633544921875,"poi_name":"Huy\u1ec7n Ph\u00fa Qu\u00fd","parent_id":"1581882","long":108.9437599999999974897946231067180633544921875},"5":{"id":"1905566","label":"Huy\u1ec7n Tuy Phong","value":"1905566","lat":11.3474599999999998800603862036950886249542236328125,"lon":108.7046600000000040608938434161245822906494140625,"poi_name":"Huy\u1ec7n Tuy Phong","parent_id":"1581882","long":108.7046600000000040608938434161245822906494140625},"6":{"id":"1905568","label":"Huy\u1ec7n T\u00e1nh Linh","value":"1905568","lat":11.1136700000000008259348760475404560565948486328125,"lon":107.684269999999997935447026975452899932861328125,"poi_name":"Huy\u1ec7n T\u00e1nh Linh","parent_id":"1581882","long":107.684269999999997935447026975452899932861328125},"7":{"id":"1905569","label":"Huy\u1ec7n \u0110\u1ee9c Linh","value":"1905569","lat":11.177740000000000009094947017729282379150390625,"lon":107.5301500000000061163518694229423999786376953125,"poi_name":"Huy\u1ec7n \u0110\u1ee9c Linh","parent_id":"1581882","long":107.5301500000000061163518694229423999786376953125},"8":{"id":"1905562","label":"Th\u00e0nh Ph\u1ed1 Phan Thi\u1ebft","value":"1905562","lat":10.9369999999999993889332472463138401508331298828125,"lon":108.15778000000000247382558882236480712890625,"poi_name":"Th\u00e0nh Ph\u1ed1 Phan Thi\u1ebft","parent_id":"1581882","long":108.15778000000000247382558882236480712890625},"9":{"id":"8998373","label":"Th\u1ecb X\u00e3 La Gi","value":"8998373","lat":10.7231100000000001415401129634119570255279541015625,"lon":107.78910999999999376086634583771228790283203125,"poi_name":"Th\u1ecb X\u00e3 La Gi","parent_id":"1581882","long":107.78910999999999376086634583771228790283203125}}