{"success":true,"remaining_lookups":7131,"0":{"id":"9075679","label":"Huy\u1ec7n C\u1ea9m M\u1ef9","value":"9075679","lat":10.80893999999999977035258780233561992645263671875,"lon":107.2528400000000061709215515293180942535400390625,"poi_name":"Huy\u1ec7n C\u1ea9m M\u1ef9","parent_id":"1582720","long":107.2528400000000061709215515293180942535400390625},"1":{"id":"1905545","label":"Huy\u1ec7n Long Th\u00e0nh","value":"1905545","lat":10.76162000000000062982508097775280475616455078125,"lon":107.0268800000000055661075748503208160400390625,"poi_name":"Huy\u1ec7n Long Th\u00e0nh","parent_id":"1582720","long":107.0268800000000055661075748503208160400390625},"2":{"id":"1905546","label":"Huy\u1ec7n Nh\u01a1n Tr\u1ea1ch","value":"1905546","lat":10.6969200000000004280309440218843519687652587890625,"lon":106.8820500000000066620486904866993427276611328125,"poi_name":"Huy\u1ec7n Nh\u01a1n Tr\u1ea1ch","parent_id":"1582720","long":106.8820500000000066620486904866993427276611328125},"3":{"id":"1905544","label":"Huy\u1ec7n Th\u1ed1ng Nh\u1ea5t","value":"1905544","lat":10.9776399999999991763388607068918645381927490234375,"lon":107.1590900000000061709215515293180942535400390625,"poi_name":"Huy\u1ec7n Th\u1ed1ng Nh\u1ea5t","parent_id":"1582720","long":107.1590900000000061709215515293180942535400390625},"4":{"id":"9075680","label":"Huy\u1ec7n Tr\u1ea3ng Bom","value":"9075680","lat":10.9662400000000008759570846450515091419219970703125,"lon":107.0361400000000031695890356786549091339111328125,"poi_name":"Huy\u1ec7n Tr\u1ea3ng Bom","parent_id":"1582720","long":107.0361400000000031695890356786549091339111328125},"5":{"id":"1905550","label":"Huy\u1ec7n T\u00e2n Ph\u00fa","value":"1905550","lat":11.398669999999999191686583799310028553009033203125,"lon":107.3997600000000005593392415903508663177490234375,"poi_name":"Huy\u1ec7n T\u00e2n Ph\u00fa","parent_id":"1582720","long":107.3997600000000005593392415903508663177490234375},"6":{"id":"1905543","label":"Huy\u1ec7n V\u0129nh C\u1eedu","value":"1905543","lat":11.2572500000000008668621376273222267627716064453125,"lon":107.0277300000000053614712669514119625091552734375,"poi_name":"Huy\u1ec7n V\u0129nh C\u1eedu","parent_id":"1582720","long":107.0277300000000053614712669514119625091552734375},"7":{"id":"1905548","label":"Huy\u1ec7n Xu\u00e2n L\u1ed9c","value":"1905548","lat":10.9116300000000006065192792448215186595916748046875,"lon":107.436419999999998253770172595977783203125,"poi_name":"Huy\u1ec7n Xu\u00e2n L\u1ed9c","parent_id":"1582720","long":107.436419999999998253770172595977783203125},"8":{"id":"1905549","label":"Huy\u1ec7n \u0110\u1ecbnh Qu\u00e1n","value":"1905549","lat":11.21865999999999985448084771633148193359375,"lon":107.3395900000000011687006917782127857208251953125,"poi_name":"Huy\u1ec7n \u0110\u1ecbnh Qu\u00e1n","parent_id":"1582720","long":107.3395900000000011687006917782127857208251953125},"9":{"id":"1905542","label":"Th\u00e0nh Ph\u1ed1 Bi\u00ean H\u00f2a","value":"1905542","lat":10.957499999999999573674358543939888477325439453125,"lon":106.8426400000000029422153602354228496551513671875,"poi_name":"Th\u00e0nh Ph\u1ed1 Bi\u00ean H\u00f2a","parent_id":"1582720","long":106.8426400000000029422153602354228496551513671875},"10":{"id":"1905547","label":"Th\u1ecb X\u00e3 Long Kh\u00e1nh","value":"1905547","lat":10.9365299999999994184918250539340078830718994140625,"lon":107.2255499999999983629095368087291717529296875,"poi_name":"Th\u1ecb X\u00e3 Long Kh\u00e1nh","parent_id":"1582720","long":107.2255499999999983629095368087291717529296875}}