{"success":true,"remaining_lookups":7130,"0":{"id":"1904943","label":"Huy\u1ec7n Cao L\u00e3nh","value":"1904943","lat":10.4678699999999995640109773376025259494781494140625,"lon":105.7096499999999963392838253639638423919677734375,"poi_name":"Huy\u1ec7n Cao L\u00e3nh","parent_id":"1582562","long":105.7096499999999963392838253639638423919677734375},"1":{"id":"1904940","label":"Huy\u1ec7n Ch\u00e2u Th\u00e0nh","value":"1904940","lat":10.225429999999999353121893364004790782928466796875,"lon":105.8238000000000056388671509921550750732421875,"poi_name":"Huy\u1ec7n Ch\u00e2u Th\u00e0nh","parent_id":"1582562","long":105.8238000000000056388671509921550750732421875},"2":{"id":"1904947","label":"Huy\u1ec7n H\u1ed3ng Ng\u1ef1","value":"1904947","lat":10.8113100000000006417621989385224878787994384765625,"lon":105.292630000000002610249794088304042816162109375,"poi_name":"Huy\u1ec7n H\u1ed3ng Ng\u1ef1","parent_id":"1582562","long":105.292630000000002610249794088304042816162109375},"3":{"id":"1904941","label":"Huy\u1ec7n Lai Vung","value":"1904941","lat":10.240510000000000445652403868734836578369140625,"lon":105.6632699999999971396391629241406917572021484375,"poi_name":"Huy\u1ec7n Lai Vung","parent_id":"1582562","long":105.6632699999999971396391629241406917572021484375},"4":{"id":"1904942","label":"Huy\u1ec7n L\u1ea5p V\u00f2","value":"1904942","lat":10.3591800000000002768274498521350324153900146484375,"lon":105.60611000000000103682396002113819122314453125,"poi_name":"Huy\u1ec7n L\u1ea5p V\u00f2","parent_id":"1582562","long":105.60611000000000103682396002113819122314453125},"5":{"id":"1904946","label":"Huy\u1ec7n Tam N\u00f4ng","value":"1904946","lat":10.7276100000000003120703695458360016345977783203125,"lon":105.5252200000000044610715121962130069732666015625,"poi_name":"Huy\u1ec7n Tam N\u00f4ng","parent_id":"1582562","long":105.5252200000000044610715121962130069732666015625},"6":{"id":"1904945","label":"Huy\u1ec7n Thanh B\u00ecnh","value":"1904945","lat":10.601369999999999294004737748764455318450927734375,"lon":105.4781100000000009231371222995221614837646484375,"poi_name":"Huy\u1ec7n Thanh B\u00ecnh","parent_id":"1582562","long":105.4781100000000009231371222995221614837646484375},"7":{"id":"1904944","label":"Huy\u1ec7n Th\u00e1p M\u01b0\u1eddi","value":"1904944","lat":10.5439799999999994639665601425804197788238525390625,"lon":105.818749999999994315658113919198513031005859375,"poi_name":"Huy\u1ec7n Th\u00e1p M\u01b0\u1eddi","parent_id":"1582562","long":105.818749999999994315658113919198513031005859375},"8":{"id":"1904948","label":"Huy\u1ec7n T\u00e2n H\u1ed3ng","value":"1904948","lat":10.870889999999999275814843713305890560150146484375,"lon":105.4910399999999981446308083832263946533203125,"poi_name":"Huy\u1ec7n T\u00e2n H\u1ed3ng","parent_id":"1582562","long":105.4910399999999981446308083832263946533203125},"9":{"id":"1904939","label":"Sa Dec city","value":"1904939","lat":10.3055000000000003268496584496460855007171630859375,"lon":105.74756999999999607098288834095001220703125,"poi_name":"Sa Dec city","parent_id":"1582562","long":105.74756999999999607098288834095001220703125},"10":{"id":"1904938","label":"Th\u00e0nh Ph\u1ed1 Cao L\u00e3nh","value":"1904938","lat":10.4540500000000005087485988042317330837249755859375,"lon":105.6350900000000052614268497563898563385009765625,"poi_name":"Th\u00e0nh Ph\u1ed1 Cao L\u00e3nh","parent_id":"1582562","long":105.6350900000000052614268497563898563385009765625},"11":{"id":"9289553","label":"Th\u1ecb X\u00e3 H\u1ed3ng Ng\u1ef1","value":"9289553","lat":10.81436000000000063892002799548208713531494140625,"lon":105.3826499999999981582732289098203182220458984375,"poi_name":"Th\u1ecb X\u00e3 H\u1ed3ng Ng\u1ef1","parent_id":"1582562","long":105.3826499999999981582732289098203182220458984375}}