{"success":true,"remaining_lookups":7191,"0":{"id":"1905496","label":"Huy\u1ec7n An Ph\u00fa","value":"1905496","lat":10.84273999999999915644366410560905933380126953125,"lon":105.08990000000000009094947017729282379150390625,"poi_name":"Huy\u1ec7n An Ph\u00fa","parent_id":"1594446","long":105.08990000000000009094947017729282379150390625},"1":{"id":"1905492","label":"Huy\u1ec7n Ch\u00e2u Ph\u00fa","value":"1905492","lat":10.5716599999999996128963175578974187374114990234375,"lon":105.1699100000000015597834135405719280242919921875,"poi_name":"Huy\u1ec7n Ch\u00e2u Ph\u00fa","parent_id":"1594446","long":105.1699100000000015597834135405719280242919921875},"2":{"id":"1905489","label":"Huy\u1ec7n Ch\u00e2u Th\u00e0nh","value":"1905489","lat":10.432140000000000412683220929466187953948974609375,"lon":105.28221999999999525243765674531459808349609375,"poi_name":"Huy\u1ec7n Ch\u00e2u Th\u00e0nh","parent_id":"1594446","long":105.28221999999999525243765674531459808349609375},"3":{"id":"1905490","label":"Huy\u1ec7n Ch\u1ee3 M\u1edbi","value":"1905490","lat":10.4772999999999996134647517465054988861083984375,"lon":105.4909200000000026875568437390029430389404296875,"poi_name":"Huy\u1ec7n Ch\u1ee3 M\u1edbi","parent_id":"1594446","long":105.4909200000000026875568437390029430389404296875},"4":{"id":"1905491","label":"Huy\u1ec7n Ph\u00fa T\u00e2n","value":"1905491","lat":10.6571599999999993002575138234533369541168212890625,"lon":105.2845899999999943474904284812510013580322265625,"poi_name":"Huy\u1ec7n Ph\u00fa T\u00e2n","parent_id":"1594446","long":105.2845899999999943474904284812510013580322265625},"5":{"id":"1905488","label":"Huy\u1ec7n Tho\u1ea1i S\u01a1n","value":"1905488","lat":10.3195300000000003137756721116602420806884765625,"lon":105.2667900000000003046807250939309597015380859375,"poi_name":"Huy\u1ec7n Tho\u1ea1i S\u01a1n","parent_id":"1594446","long":105.2667900000000003046807250939309597015380859375},"6":{"id":"1905493","label":"Huy\u1ec7n Tri T\u00f4n","value":"1905493","lat":10.4141600000000007497646947740577161312103271484375,"lon":104.9613599999999991041477187536656856536865234375,"poi_name":"Huy\u1ec7n Tri T\u00f4n","parent_id":"1594446","long":104.9613599999999991041477187536656856536865234375},"7":{"id":"1905494","label":"Huy\u1ec7n T\u1ecbnh Bi\u00ean","value":"1905494","lat":10.559020000000000294448909698985517024993896484375,"lon":105.0090799999999973124431562609970569610595703125,"poi_name":"Huy\u1ec7n T\u1ecbnh Bi\u00ean","parent_id":"1594446","long":105.0090799999999973124431562609970569610595703125},"8":{"id":"1905486","label":"Long Xuy\u00ean City","value":"1905486","lat":10.3685700000000000642330633127130568027496337890625,"lon":105.4234000000000008867573342286050319671630859375,"poi_name":"Long Xuy\u00ean City","parent_id":"1594446","long":105.4234000000000008867573342286050319671630859375},"9":{"id":"1905487","label":"Th\u00e0nh ph\u1ed1 Ch\u00e2u \u0110\u1ed1c","value":"1905487","lat":10.67875000000000085265128291212022304534912109375,"lon":105.0902899999999959845808916725218296051025390625,"poi_name":"Th\u00e0nh ph\u1ed1 Ch\u00e2u \u0110\u1ed1c","parent_id":"1594446","long":105.0902899999999959845808916725218296051025390625},"10":{"id":"1905495","label":"Th\u1ecb X\u00e3 T\u00e2n Ch\u00e2u","value":"1905495","lat":10.7987500000000000710542735760100185871124267578125,"lon":105.190010000000000900399754755198955535888671875,"poi_name":"Th\u1ecb X\u00e3 T\u00e2n Ch\u00e2u","parent_id":"1594446","long":105.190010000000000900399754755198955535888671875}}