{"success":true,"remaining_lookups":7164,"0":{"id":"1905689","label":"Huy\u1ec7n B\u00ecnh Giang","value":"1905689","lat":20.875859999999999416786522488109767436981201171875,"lon":106.1913799999999952206053421832621097564697265625,"poi_name":"Huy\u1ec7n B\u00ecnh Giang","parent_id":"1905686","long":106.1913799999999952206053421832621097564697265625},"1":{"id":"1905688","label":"Huy\u1ec7n C\u1ea9m Gi\u00e0ng","value":"1905688","lat":20.949999999999999289457264239899814128875732421875,"lon":106.216669999999993478922988288104534149169921875,"poi_name":"Huy\u1ec7n C\u1ea9m Gi\u00e0ng","parent_id":"1905686","long":106.216669999999993478922988288104534149169921875},"2":{"id":"1905690","label":"Huy\u1ec7n Gia L\u1ed9c","value":"1905690","lat":20.851639999999999730562194599770009517669677734375,"lon":106.291300000000006775735528208315372467041015625,"poi_name":"Huy\u1ec7n Gia L\u1ed9c","parent_id":"1905686","long":106.291300000000006775735528208315372467041015625},"3":{"id":"1905695","label":"Huy\u1ec7n Kim Th\u00e0nh","value":"1905695","lat":20.938140000000000640056896372698247432708740234375,"lon":106.5099000000000017962520360015332698822021484375,"poi_name":"Huy\u1ec7n Kim Th\u00e0nh","parent_id":"1905686","long":106.5099000000000017962520360015332698822021484375},"4":{"id":"1905697","label":"Huy\u1ec7n Kinh M\u00f4n","value":"1905697","lat":21.0163399999999995770849636755883693695068359375,"lon":106.503839999999996734914020635187625885009765625,"poi_name":"Huy\u1ec7n Kinh M\u00f4n","parent_id":"1905686","long":106.503839999999996734914020635187625885009765625},"5":{"id":"1905696","label":"Huy\u1ec7n Nam S\u00e1ch","value":"1905696","lat":21.00484000000000150976120494306087493896484375,"lon":106.34041999999999461579136550426483154296875,"poi_name":"Huy\u1ec7n Nam S\u00e1ch","parent_id":"1905686","long":106.34041999999999461579136550426483154296875},"6":{"id":"1905692","label":"Huy\u1ec7n Ninh Giang","value":"1905692","lat":20.75007000000000090267349150963127613067626953125,"lon":106.333290000000005193214747123420238494873046875,"poi_name":"Huy\u1ec7n Ninh Giang","parent_id":"1905686","long":106.333290000000005193214747123420238494873046875},"7":{"id":"1905694","label":"Huy\u1ec7n Thanh H\u00e0","value":"1905694","lat":20.8958200000000005047695594839751720428466796875,"lon":106.433819999999997207851265557110309600830078125,"poi_name":"Huy\u1ec7n Thanh H\u00e0","parent_id":"1905686","long":106.433819999999997207851265557110309600830078125},"8":{"id":"1905691","label":"Huy\u1ec7n Thanh Mi\u1ec7n","value":"1905691","lat":20.77953000000000116642695502378046512603759765625,"lon":106.2221799999999944930095807649195194244384765625,"poi_name":"Huy\u1ec7n Thanh Mi\u1ec7n","parent_id":"1905686","long":106.2221799999999944930095807649195194244384765625},"9":{"id":"1905693","label":"Huy\u1ec7n T\u1ee9 K\u1ef3","value":"1905693","lat":20.804089999999998639168552472256124019622802734375,"lon":106.41361000000000558429746888577938079833984375,"poi_name":"Huy\u1ec7n T\u1ee9 K\u1ef3","parent_id":"1905686","long":106.41361000000000558429746888577938079833984375},"10":{"id":"1905687","label":"Th\u00e0nh Ph\u1ed1 H\u1ea3i D\u01b0\u01a1ng","value":"1905687","lat":20.93836999999999903820935287512838840484619140625,"lon":106.311610000000001718944986350834369659423828125,"poi_name":"Th\u00e0nh Ph\u1ed1 H\u1ea3i D\u01b0\u01a1ng","parent_id":"1905686","long":106.311610000000001718944986350834369659423828125},"11":{"id":"1905698","label":"Th\u1ecb X\u00e3 Ch\u00ed Linh","value":"1905698","lat":21.1372199999999992314769770018756389617919921875,"lon":106.396379999999993515302776359021663665771484375,"poi_name":"Th\u1ecb X\u00e3 Ch\u00ed Linh","parent_id":"1905686","long":106.396379999999993515302776359021663665771484375}}