{"success":true,"remaining_lookups":7135,"0":{"id":"8609068","label":"Huy\u1ec7n B\u00ecnh Xuy\u00ean","value":"8609068","lat":21.3056100000000014915713109076023101806640625,"lon":105.662250000000000227373675443232059478759765625,"poi_name":"Huy\u1ec7n B\u00ecnh Xuy\u00ean","parent_id":"1905856","long":105.662250000000000227373675443232059478759765625},"1":{"id":"1905576","label":"Huy\u1ec7n L\u1eadp Th\u1ea1ch","value":"1905576","lat":21.418780000000001706439434201456606388092041015625,"lon":105.484960000000000945874489843845367431640625,"poi_name":"Huy\u1ec7n L\u1eadp Th\u1ea1ch","parent_id":"1905856","long":105.484960000000000945874489843845367431640625},"2":{"id":"8608648","label":"Huy\u1ec7n S\u00f4ng L\u00f4","value":"8608648","lat":21.43918000000000034788172342814505100250244140625,"lon":105.4074399999999940291672828607261180877685546875,"poi_name":"Huy\u1ec7n S\u00f4ng L\u00f4","parent_id":"1905856","long":105.4074399999999940291672828607261180877685546875},"3":{"id":"8609067","label":"Huy\u1ec7n Tam D\u01b0\u01a1ng","value":"8609067","lat":21.361889999999998934754330548457801342010498046875,"lon":105.5568999999999988403942552395164966583251953125,"poi_name":"Huy\u1ec7n Tam D\u01b0\u01a1ng","parent_id":"1905856","long":105.5568999999999988403942552395164966583251953125},"4":{"id":"1905572","label":"Huy\u1ec7n Tam \u0110\u1ea3o","value":"1905572","lat":21.456900000000000972022462519817054271697998046875,"lon":105.5945999999999997953636921010911464691162109375,"poi_name":"Huy\u1ec7n Tam \u0110\u1ea3o","parent_id":"1905856","long":105.5945999999999997953636921010911464691162109375},"5":{"id":"1905575","label":"Huy\u1ec7n V\u0129nh T\u01b0\u1eddng","value":"1905575","lat":21.244330000000001490434442530386149883270263671875,"lon":105.4968300000000027694113668985664844512939453125,"poi_name":"Huy\u1ec7n V\u0129nh T\u01b0\u1eddng","parent_id":"1905856","long":105.4968300000000027694113668985664844512939453125},"6":{"id":"1905574","label":"Huy\u1ec7n Y\u00ean L\u1ea1c","value":"1905574","lat":21.218450000000000699174051987938582897186279296875,"lon":105.575860000000005811671144329011440277099609375,"poi_name":"Huy\u1ec7n Y\u00ean L\u1ea1c","parent_id":"1905856","long":105.575860000000005811671144329011440277099609375},"7":{"id":"1905571","label":"Th\u00e0nh Ph\u1ed1 V\u0129nh Y\u00ean","value":"1905571","lat":21.3053799999999995407051756046712398529052734375,"lon":105.5947000000000031150193535722792148590087890625,"poi_name":"Th\u00e0nh Ph\u1ed1 V\u0129nh Y\u00ean","parent_id":"1905856","long":105.5947000000000031150193535722792148590087890625},"8":{"id":"11497337","label":"Th\u1ecb x\u00e3 Ph\u00fac Y\u00ean","value":"11497337","lat":21.234120000000000771933628129772841930389404296875,"lon":105.702079999999995152393239550292491912841796875,"poi_name":"Th\u1ecb x\u00e3 Ph\u00fac Y\u00ean","parent_id":"1905856","long":105.702079999999995152393239550292491912841796875}}