{"success":true,"remaining_lookups":7170,"0":{"id":"8728393","label":"Huyen Nam Can","value":"8728393","lat":8.815310000000000201225702767260372638702392578125,"lon":105.0557400000000001227817847393453121185302734375,"poi_name":"Huyen Nam Can","parent_id":"1905678","long":105.0557400000000001227817847393453121185302734375},"1":{"id":"1905683","label":"Huy\u1ec7n C\u00e1i N\u01b0\u1edbc","value":"1905683","lat":9.0009399999999999408828443847596645355224609375,"lon":105.0420100000000047657522372901439666748046875,"poi_name":"Huy\u1ec7n C\u00e1i N\u01b0\u1edbc","parent_id":"1905678","long":105.0420100000000047657522372901439666748046875},"2":{"id":"1905685","label":"Huy\u1ec7n Ng\u1ecdc Hi\u1ec3n","value":"1905685","lat":8.6622299999999992081711752689443528652191162109375,"lon":104.9969200000000029149305191822350025177001953125,"poi_name":"Huy\u1ec7n Ng\u1ecdc Hi\u1ec3n","parent_id":"1905678","long":104.9969200000000029149305191822350025177001953125},"3":{"id":"9643191","label":"Huy\u1ec7n Ph\u00fa T\u00e2n","value":"9643191","lat":8.89338000000000050704329623840749263763427734375,"lon":104.88718000000000074578565545380115509033203125,"poi_name":"Huy\u1ec7n Ph\u00fa T\u00e2n","parent_id":"1905678","long":104.88718000000000074578565545380115509033203125},"4":{"id":"1905680","label":"Huy\u1ec7n Th\u1edbi B\u00ecnh","value":"1905680","lat":9.357900000000000773070496506989002227783203125,"lon":105.1602299999999985402610036544501781463623046875,"poi_name":"Huy\u1ec7n Th\u1edbi B\u00ecnh","parent_id":"1905678","long":105.1602299999999985402610036544501781463623046875},"5":{"id":"1905682","label":"Huy\u1ec7n Tr\u1ea7n V\u0103n Th\u1eddi","value":"1905682","lat":9.126609999999999445208231918513774871826171875,"lon":104.923259999999999081410351209342479705810546875,"poi_name":"Huy\u1ec7n Tr\u1ea7n V\u0103n Th\u1eddi","parent_id":"1905678","long":104.923259999999999081410351209342479705810546875},"6":{"id":"1905681","label":"Huy\u1ec7n U Minh","value":"1905681","lat":9.3676999999999992496668710373342037200927734375,"lon":104.94119000000000596628524363040924072265625,"poi_name":"Huy\u1ec7n U Minh","parent_id":"1905678","long":104.94119000000000596628524363040924072265625},"7":{"id":"1905684","label":"Huy\u1ec7n \u0110\u1ea7m D\u01a1i","value":"1905684","lat":8.9602900000000005320544005371630191802978515625,"lon":105.2410699999999934561856207437813282012939453125,"poi_name":"Huy\u1ec7n \u0110\u1ea7m D\u01a1i","parent_id":"1905678","long":105.2410699999999934561856207437813282012939453125},"8":{"id":"1905679","label":"Th\u00e0nh Ph\u1ed1 C\u00e0 Mau","value":"1905679","lat":9.1640999999999994685140336514450609683990478515625,"lon":105.1880400000000008731149137020111083984375,"poi_name":"Th\u00e0nh Ph\u1ed1 C\u00e0 Mau","parent_id":"1905678","long":105.1880400000000008731149137020111083984375}}