{"success":true,"remaining_lookups":7176,"0":{"id":"1905676","label":"Huy\u1ec7n Gi\u00e1 Rai","value":"1905676","lat":9.2716200000000004166622602497227489948272705078125,"lon":105.4001700000000028012436814606189727783203125,"poi_name":"Huy\u1ec7n Gi\u00e1 Rai","parent_id":"1905675","long":105.4001700000000028012436814606189727783203125},"1":{"id":"11497332","label":"Huy\u1ec7n Ho\u00e0 B\u00ecnh","value":"11497332","lat":9.2157999999999997697841536137275397777557373046875,"lon":105.6143200000000064164851210080087184906005859375,"poi_name":"Huy\u1ec7n Ho\u00e0 B\u00ecnh","parent_id":"1905675","long":105.6143200000000064164851210080087184906005859375},"2":{"id":"1905677","label":"Huy\u1ec7n H\u1ed3ng D\u00e2n","value":"1905677","lat":9.5382200000000008088818503892980515956878662109375,"lon":105.4224200000000024601831682957708835601806640625,"poi_name":"Huy\u1ec7n H\u1ed3ng D\u00e2n","parent_id":"1905675","long":105.4224200000000024601831682957708835601806640625},"3":{"id":"8341012","label":"Huy\u1ec7n Ph\u01b0\u1edbc Long","value":"8341012","lat":9.4052199999999999135980033315718173980712890625,"lon":105.4327899999999971214492688886821269989013671875,"poi_name":"Huy\u1ec7n Ph\u01b0\u1edbc Long","parent_id":"1905675","long":105.4327899999999971214492688886821269989013671875},"4":{"id":"8341013","label":"Huy\u1ec7n V\u0129nh L\u1ee3i","value":"8341013","lat":9.3292900000000003046807250939309597015380859375,"lon":105.6335600000000027876012609340250492095947265625,"poi_name":"Huy\u1ec7n V\u0129nh L\u1ee3i","parent_id":"1905675","long":105.6335600000000027876012609340250492095947265625},"5":{"id":"8341025","label":"Huy\u1ec7n \u0110\u00f4ng H\u1ea3i","value":"8341025","lat":9.1482399999999994832933225552551448345184326171875,"lon":105.4342500000000057980287238024175167083740234375,"poi_name":"Huy\u1ec7n \u0110\u00f4ng H\u1ea3i","parent_id":"1905675","long":105.4342500000000057980287238024175167083740234375},"6":{"id":"1905867","label":"Th\u00e0nh ph\u1ed1 B\u1ea1c Li\u00eau","value":"1905867","lat":9.267360000000000042064129956997931003570556640625,"lon":105.7612299999999976307663018815219402313232421875,"poi_name":"Th\u00e0nh ph\u1ed1 B\u1ea1c Li\u00eau","parent_id":"1905675","long":105.7612299999999976307663018815219402313232421875}}