{"success":true,"remaining_lookups":9910,"0":{"id":"2243908","label":"Ambuila Municipality","value":"2243908","lat":-7.666669999999999873807610129006206989288330078125,"lon":14.5,"poi_name":"Ambuila Municipality","parent_id":"2236566","long":14.5},"1":{"id":"2243632","label":"Bembe","value":"2243632","lat":-7.06224000000000007304379323613829910755157470703125,"lon":14.27450999999999936562744551338255405426025390625,"poi_name":"Bembe","parent_id":"2236566","long":14.27450999999999936562744551338255405426025390625},"2":{"id":"2243441","label":"Buengas","value":"2243441","lat":-6.66026000000000006906475391588173806667327880859375,"lon":15.8566900000000003956301952712237834930419921875,"poi_name":"Buengas","parent_id":"2236566","long":15.8566900000000003956301952712237834930419921875},"3":{"id":"2243355","label":"Bungo","value":"2243355","lat":-7.42659999999999964614971759147010743618011474609375,"lon":15.4428300000000007230482879094779491424560546875,"poi_name":"Bungo","parent_id":"2236566","long":15.4428300000000007230482879094779491424560546875},"4":{"id":"2243921","label":"Cangola","value":"2243921","lat":-7.833330000000000126192389870993793010711669921875,"lon":15.916669999999999873807610129006206989288330078125,"poi_name":"Cangola","parent_id":"2236566","long":15.916669999999999873807610129006206989288330078125},"5":{"id":"2241498","label":"Damba","value":"2241498","lat":-6.7414500000000003865352482534945011138916015625,"lon":15.2566900000000007509015631512738764286041259765625,"poi_name":"Damba","parent_id":"2236566","long":15.2566900000000007509015631512738764286041259765625},"6":{"id":"2239731","label":"Maquela do Zombo","value":"2239731","lat":-6.1236300000000003507238943711854517459869384765625,"lon":15.5457999999999998408384271897375583648681640625,"poi_name":"Maquela do Zombo","parent_id":"2236566","long":15.5457999999999998408384271897375583648681640625},"7":{"id":"2239352","label":"Mucaba","value":"2239352","lat":-7.1652100000000000790123522165231406688690185546875,"lon":15.088380000000000791260390542447566986083984375,"poi_name":"Mucaba","parent_id":"2236566","long":15.088380000000000791260390542447566986083984375},"8":{"id":"2243631","label":"Munic\u00edpio Bembe","value":"2243631","lat":-7.166669999999999873807610129006206989288330078125,"lon":14.333330000000000126192389870993793010711669921875,"poi_name":"Munic\u00edpio Bembe","parent_id":"2236566","long":14.333330000000000126192389870993793010711669921875},"9":{"id":"2239067","label":"Negage Municipality","value":"2239067","lat":-7.833330000000000126192389870993793010711669921875,"lon":15.333330000000000126192389870993793010711669921875,"poi_name":"Negage Municipality","parent_id":"2236566","long":15.333330000000000126192389870993793010711669921875},"10":{"id":"2238826","label":"Puri","value":"2238826","lat":-7.65233999999999969787722875480540096759796142578125,"lon":15.6883800000000004359890226623974740505218505859375,"poi_name":"Puri","parent_id":"2236566","long":15.6883800000000004359890226623974740505218505859375},"11":{"id":"2238174","label":"Quimbele","value":"2238174","lat":-6.3414500000000000312638803734444081783294677734375,"lon":16.381450000000000954969436861574649810791015625,"poi_name":"Quimbele","parent_id":"2236566","long":16.381450000000000954969436861574649810791015625},"12":{"id":"2237499","label":"Quitexe Municipality","value":"2237499","lat":-8,"lon":15,"poi_name":"Quitexe Municipality","parent_id":"2236566","long":15},"13":{"id":"2237144","label":"Santa Cruz","value":"2237144","lat":-7.03847999999999984765963745303452014923095703125,"lon":16.678470000000000794670995674096047878265380859375,"poi_name":"Santa Cruz","parent_id":"2236566","long":16.678470000000000794670995674096047878265380859375},"14":{"id":"2237127","label":"Sanza Pombo","value":"2237127","lat":-7.26025999999999971379338603583164513111114501953125,"lon":16.048770000000001090256773750297725200653076171875,"poi_name":"Sanza Pombo","parent_id":"2236566","long":16.048770000000001090256773750297725200653076171875},"15":{"id":"2236985","label":"Songo","value":"2236985","lat":-7.13353000000000037061909097246825695037841796875,"lon":14.7893699999999999050714905024506151676177978515625,"poi_name":"Songo","parent_id":"2236566","long":14.7893699999999999050714905024506151676177978515625},"16":{"id":"2236567","label":"Uige Municipality","value":"2236567","lat":-7.57488000000000027966962079517543315887451171875,"lon":15.067750000000000198951966012828052043914794921875,"poi_name":"Uige Municipality","parent_id":"2236566","long":15.067750000000000198951966012828052043914794921875}}