{"success":true,"remaining_lookups":9920,"0":{"id":"3351379","label":"Caconda","value":"3351379","lat":-13.75375999999999976353137753903865814208984375,"lon":15.153890000000000526370058651082217693328857421875,"poi_name":"Caconda","parent_id":"3348303","long":15.153890000000000526370058651082217693328857421875},"1":{"id":"10449850","label":"Cacula","value":"10449850","lat":-14.44098999999999932697392068803310394287109375,"lon":14.2437699999999995981170286540873348712921142578125,"poi_name":"Cacula","parent_id":"3348303","long":14.2437699999999995981170286540873348712921142578125},"2":{"id":"3351021","label":"Caluquembe","value":"3351021","lat":-13.9209300000000002484057404217310249805450439453125,"lon":14.5347600000000003461764208623208105564117431640625,"poi_name":"Caluquembe","parent_id":"3348303","long":14.5347600000000003461764208623208105564117431640625},"3":{"id":"3349996","label":"Chibia","value":"3349996","lat":-15.236570000000000391082721762359142303466796875,"lon":13.884679999999999466808731085620820522308349609375,"poi_name":"Chibia","parent_id":"3348303","long":13.884679999999999466808731085620820522308349609375},"4":{"id":"3349949","label":"Chicomba","value":"3349949","lat":-14.307880000000000819682099972851574420928955078125,"lon":14.9867200000000000414956957683898508548736572265625,"poi_name":"Chicomba","parent_id":"3348303","long":14.9867200000000000414956957683898508548736572265625},"5":{"id":"3349647","label":"Chipindo","value":"3349647","lat":-13.8682999999999996276756064617075026035308837890625,"lon":15.7327700000000003655031832749955356121063232421875,"poi_name":"Chipindo","parent_id":"3348303","long":15.7327700000000003655031832749955356121063232421875},"6":{"id":"3348075","label":"Cuvango","value":"3348075","lat":-14.27693000000000012050804798491299152374267578125,"lon":16.314750000000000085265128291212022304534912109375,"poi_name":"Cuvango","parent_id":"3348303","long":16.314750000000000085265128291212022304534912109375},"7":{"id":"3350009","label":"Gambos","value":"3350009","lat":-15.8092600000000000903810359886847436428070068359375,"lon":14.0766100000000005110223355586640536785125732421875,"poi_name":"Gambos","parent_id":"3348303","long":14.0766100000000005110223355586640536785125732421875},"8":{"id":"3348286","label":"Humpata","value":"3348286","lat":-15.0724999999999997868371792719699442386627197265625,"lon":13.3677100000000006474465408246032893657684326171875,"poi_name":"Humpata","parent_id":"3348303","long":13.3677100000000006474465408246032893657684326171875},"9":{"id":"3348165","label":"Jamba","value":"3348165","lat":-14.7629400000000003956301952712237834930419921875,"lon":15.8349299999999999499777914024889469146728515625,"poi_name":"Jamba","parent_id":"3348303","long":15.8349299999999999499777914024889469146728515625},"10":{"id":"3347760","label":"Lubango","value":"3347760","lat":-14.7876999999999991786125974613241851329803466796875,"lon":13.69894000000000033878677641041576862335205078125,"poi_name":"Lubango","parent_id":"3348303","long":13.69894000000000033878677641041576862335205078125},"11":{"id":"3347423","label":"Matala","value":"3347423","lat":-15.239670000000000271711542154662311077117919921875,"lon":15.1724599999999991695176504435949027538299560546875,"poi_name":"Matala","parent_id":"3348303","long":15.1724599999999991695176504435949027538299560546875},"12":{"id":"3346556","label":"Quilengues","value":"3346556","lat":-13.992129999999999512283466174267232418060302734375,"lon":13.7670499999999993434585121576674282550811767578125,"poi_name":"Quilengues","parent_id":"3348303","long":13.7670499999999993434585121576674282550811767578125},"13":{"id":"3346496","label":"Quipungo","value":"3346496","lat":-15.1220300000000005269384928396902978420257568359375,"lon":14.5595300000000005269384928396902978420257568359375,"poi_name":"Quipungo","parent_id":"3348303","long":14.5595300000000005269384928396902978420257568359375}}