{"success":true,"remaining_lookups":8268,"0":{"id":"1879681","label":"Anak-kun","value":"1879681","lat":38.51167000000000228965291171334683895111083984375,"lon":125.48610999999999648935045115649700164794921875,"poi_name":"Anak-kun","parent_id":"1876884","long":125.48610999999999648935045115649700164794921875},"1":{"id":"1879491","label":"Chaery\u014fng-gun","value":"1879491","lat":38.382779999999996789483702741563320159912109375,"lon":125.6586099999999959209162625484168529510498046875,"poi_name":"Chaery\u014fng-gun","parent_id":"1876884","long":125.6586099999999959209162625484168529510498046875},"2":{"id":"1879105","label":"Changp\u2019ung-gun","value":"1879105","lat":38.08234999999999814690454513765871524810791015625,"lon":126.6707799999999934925654088146984577178955078125,"poi_name":"Changp\u2019ung-gun","parent_id":"1876884","long":126.6707799999999934925654088146984577178955078125},"3":{"id":"1879031","label":"Changy\u014fn-gun","value":"1879031","lat":38.27971999999999752617441117763519287109375,"lon":125.0441699999999940473571768961846828460693359375,"poi_name":"Changy\u014fn-gun","parent_id":"1876884","long":125.0441699999999940473571768961846828460693359375},"4":{"id":"1878459","label":"Ch\u2019\u014fngdan-gun","value":"1878459","lat":38,"lon":125.9166699999999963210939313285052776336669921875,"poi_name":"Ch\u2019\u014fngdan-gun","parent_id":"1876884","long":125.9166699999999963210939313285052776336669921875},"5":{"id":"1877609","label":"Haeju-si","value":"1877609","lat":38.07694000000000045247361413203179836273193359375,"lon":125.7486099999999993315213941968977451324462890625,"poi_name":"Haeju-si","parent_id":"1876884","long":125.7486099999999993315213941968977451324462890625},"6":{"id":"1876380","label":"Kaep\u2019ung-gun","value":"1876380","lat":37.9528600000000011505107977427542209625244140625,"lon":126.456410000000005311449058353900909423828125,"poi_name":"Kaep\u2019ung-gun","parent_id":"1876884","long":126.456410000000005311449058353900909423828125},"7":{"id":"1876370","label":"Kaes\u014fng-si","value":"1876370","lat":37.94825999999999766032487968914210796356201171875,"lon":126.6030099999999976034814608283340930938720703125,"poi_name":"Kaes\u014fng-si","parent_id":"1876884","long":126.6030099999999976034814608283340930938720703125},"8":{"id":"1876125","label":"Kangny\u014fng-gun","value":"1876125","lat":37.88555999999999812644091434776782989501953125,"lon":125.5694400000000001682565198279917240142822265625,"poi_name":"Kangny\u014fng-gun","parent_id":"1876884","long":125.5694400000000001682565198279917240142822265625},"9":{"id":"1875061","label":"Kwail-gun","value":"1875061","lat":38.4472200000000015052137314341962337493896484375,"lon":125.016940000000005284164217300713062286376953125,"poi_name":"Kwail-gun","parent_id":"1876884","long":125.016940000000005284164217300713062286376953125},"10":{"id":"1873174","label":"Ongjin-gun","value":"1873174","lat":37.96527999999999991587174008600413799285888671875,"lon":125.28528000000000020008883439004421234130859375,"poi_name":"Ongjin-gun","parent_id":"1876884","long":125.28528000000000020008883439004421234130859375},"11":{"id":"1873016","label":"Paech\u2019\u014fn-gun","value":"1873016","lat":37.9797200000000003683453542180359363555908203125,"lon":126.3041699999999991632648743689060211181640625,"poi_name":"Paech\u2019\u014fn-gun","parent_id":"1876884","long":126.3041699999999991632648743689060211181640625},"12":{"id":"1871938","label":"Pongch\u2019\u014fn-gun","value":"1871938","lat":38.16667000000000342652128892950713634490966796875,"lon":126.25,"poi_name":"Pongch\u2019\u014fn-gun","parent_id":"1876884","long":126.25},"13":{"id":"1871968","label":"Py\u014fks\u014fng-gun","value":"1871968","lat":38.08332999999999657347871107049286365509033203125,"lon":125.5,"poi_name":"Py\u014fks\u014fng-gun","parent_id":"1876884","long":125.5},"14":{"id":"1871541","label":"Samch\u2019\u014fn-gun","value":"1871541","lat":38.34056000000000352656570612452924251556396484375,"lon":125.2944399999999944839146337471902370452880859375,"poi_name":"Samch\u2019\u014fn-gun","parent_id":"1876884","long":125.2944399999999944839146337471902370452880859375},"15":{"id":"1870659","label":"Sinch\u2019\u014fn-gun","value":"1870659","lat":38.3338899999999966894392855465412139892578125,"lon":125.497219999999998663042788393795490264892578125,"poi_name":"Sinch\u2019\u014fn-gun","parent_id":"1876884","long":125.497219999999998663042788393795490264892578125},"16":{"id":"1870278","label":"Sinw\u014fn-gun","value":"1870278","lat":38.14860999999999791043592267669737339019775390625,"lon":125.725830000000001973603502847254276275634765625,"poi_name":"Sinw\u014fn-gun","parent_id":"1876884","long":125.725830000000001973603502847254276275634765625},"17":{"id":"1869582","label":"Songhwa-gun","value":"1869582","lat":38.36889000000000038426151149906218051910400390625,"lon":125.151669999999995752659742720425128936767578125,"poi_name":"Songhwa-gun","parent_id":"1876884","long":125.151669999999995752659742720425128936767578125},"18":{"id":"1868579","label":"T\u2019aet\u2019an-gun","value":"1868579","lat":38.13582999999999856299837119877338409423828125,"lon":125.2997199999999935471350909210741519927978515625,"poi_name":"T\u2019aet\u2019an-gun","parent_id":"1876884","long":125.2997199999999935471350909210741519927978515625},"19":{"id":"8594115","label":"Yongy\u014fn-gun","value":"8594115","lat":38.152320000000003119566827081143856048583984375,"lon":124.9640299999999939473127597011625766754150390625,"poi_name":"Yongy\u014fn-gun","parent_id":"1876884","long":124.9640299999999939473127597011625766754150390625},"20":{"id":"1866571","label":"Y\u014fnan-gun","value":"1866571","lat":37.91667000000000342652128892950713634490966796875,"lon":126.0833300000000036789060686714947223663330078125,"poi_name":"Y\u014fnan-gun","parent_id":"1876884","long":126.0833300000000036789060686714947223663330078125},"21":{"id":"1867428","label":"\u016cllyul-gun","value":"1867428","lat":38.56166999999999944748196867294609546661376953125,"lon":125.2127799999999950841811369173228740692138671875,"poi_name":"\u016cllyul-gun","parent_id":"1876884","long":125.2127799999999950841811369173228740692138671875},"22":{"id":"1867379","label":"\u016cnch\u2019\u014fn-gun","value":"1867379","lat":38.62194000000000215777617995627224445343017578125,"lon":125.4547199999999946840034681372344493865966796875,"poi_name":"\u016cnch\u2019\u014fn-gun","parent_id":"1876884","long":125.4547199999999946840034681372344493865966796875}}