{"success":true,"remaining_lookups":8271,"0":{"id":"2044754","label":"Ch\u2019\u014fngjin-si","value":"2044754","lat":41.8872199999999992314769770018756389617919921875,"lon":129.831940000000003010427462868392467498779296875,"poi_name":"Ch\u2019\u014fngjin-si","parent_id":"2044245","long":129.831940000000003010427462868392467498779296875},"1":{"id":"2044094","label":"Hoery\u014fng-si","value":"2044094","lat":42.33332999999999657347871107049286365509033203125,"lon":129.75,"poi_name":"Hoery\u014fng-si","parent_id":"2044245","long":129.75},"2":{"id":"2043963","label":"Hwadae-gun","value":"2043963","lat":40.83332999999999657347871107049286365509033203125,"lon":129.5,"poi_name":"Hwadae-gun","parent_id":"2044245","long":129.5},"3":{"id":"2042710","label":"Hwas\u014fng-gun","value":"2042710","lat":41.25,"lon":129.41667000000001053194864653050899505615234375,"poi_name":"Hwas\u014fng-gun","parent_id":"2044245","long":129.41667000000001053194864653050899505615234375},"4":{"id":"2043486","label":"Kilchu-gun","value":"2043486","lat":41,"lon":129.16667000000001053194864653050899505615234375,"poi_name":"Kilchu-gun","parent_id":"2044245","long":129.16667000000001053194864653050899505615234375},"5":{"id":"2043476","label":"Kimch\u2019aek-si","value":"2043476","lat":40.81056000000000238969732890836894512176513671875,"lon":129.1066700000000082582118920981884002685546875,"poi_name":"Kimch\u2019aek-si","parent_id":"2044245","long":129.1066700000000082582118920981884002685546875},"6":{"id":"2042989","label":"Ky\u014fngs\u014fng-gun","value":"2042989","lat":41.65556000000000125282895169220864772796630859375,"lon":129.463609999999988531271810643374919891357421875,"poi_name":"Ky\u014fngs\u014fng-gun","parent_id":"2044245","long":129.463609999999988531271810643374919891357421875},"7":{"id":"2042740","label":"Musan-gun","value":"2042740","lat":42.0705600000000004001776687800884246826171875,"lon":129.3388899999999921419657766819000244140625,"poi_name":"Musan-gun","parent_id":"2044245","long":129.3388899999999921419657766819000244140625},"8":{"id":"2042719","label":"My\u014fngch\u2019\u014fn-gun","value":"2042719","lat":41.03999999999999914734871708787977695465087890625,"lon":129.57139000000000805812305770814418792724609375,"poi_name":"My\u014fngch\u2019\u014fn-gun","parent_id":"2044245","long":129.57139000000000805812305770814418792724609375},"9":{"id":"2042268","label":"Ons\u014fng-gun","value":"2042268","lat":42.847499999999996589394868351519107818603515625,"lon":129.930829999999986057446221821010112762451171875,"poi_name":"Ons\u014fng-gun","parent_id":"2044245","long":129.930829999999986057446221821010112762451171875},"10":{"id":"2041700","label":"Pury\u014fng-gun","value":"2041700","lat":42,"lon":129.66667000000001053194864653050899505615234375,"poi_name":"Pury\u014fng-gun","parent_id":"2044245","long":129.66667000000001053194864653050899505615234375},"11":{"id":"2041593","label":"Saeby\u014fl-gun","value":"2041593","lat":42.68388999999999811052475706674158573150634765625,"lon":130.114720000000005484253051690757274627685546875,"poi_name":"Saeby\u014fl-gun","parent_id":"2044245","long":130.114720000000005484253051690757274627685546875},"12":{"id":"2038910","label":"Y\u014fnsa-gun","value":"2038910","lat":41.79693999999999931560523691587150096893310546875,"lon":129.09138999999998986822902224957942962646484375,"poi_name":"Y\u014fnsa-gun","parent_id":"2044245","long":129.09138999999998986822902224957942962646484375},"13":{"id":"2042256","label":"\u014erang-gun","value":"2042256","lat":41.41667000000000342652128892950713634490966796875,"lon":129.41667000000001053194864653050899505615234375,"poi_name":"\u014erang-gun","parent_id":"2044245","long":129.41667000000001053194864653050899505615234375},"14":{"id":"2039588","label":"\u016cnd\u014fk-kun","value":"2039588","lat":42.43806000000000011596057447604835033416748046875,"lon":130.196670000000011668817023746669292449951171875,"poi_name":"\u016cnd\u014fk-kun","parent_id":"2044245","long":130.196670000000011668817023746669292449951171875}}