{"success":true,"remaining_lookups":9143,"0":{"id":"3599580","label":"Municipio de Barberena","value":"3599580","lat":14.300000000000000710542735760100185871124267578125,"lon":-90.3666699999999991632648743689060211181640625,"poi_name":"Municipio de Barberena","parent_id":"3589172","long":-90.3666699999999991632648743689060211181640625},"1":{"id":"3598967","label":"Municipio de Casillas","value":"3598967","lat":14.416669999999999873807610129006206989288330078125,"lon":-90.25,"poi_name":"Municipio de Casillas","parent_id":"3589172","long":-90.25},"2":{"id":"3598459","label":"Municipio de Chiquimulilla","value":"3598459","lat":14.0971600000000005792344381916336715221405029296875,"lon":-90.37903000000000020008883439004421234130859375,"poi_name":"Municipio de Chiquimulilla","parent_id":"3589172","long":-90.37903000000000020008883439004421234130859375},"3":{"id":"3597803","label":"Municipio de Cuilapa","value":"3597803","lat":14.28332999999999941564965411089360713958740234375,"lon":-90.2999999999999971578290569595992565155029296875,"poi_name":"Municipio de Cuilapa","parent_id":"3589172","long":-90.2999999999999971578290569595992565155029296875},"4":{"id":"3595502","label":"Municipio de Guazacap\u00e1n","value":"3595502","lat":14.0666700000000002290789780090562999248504638671875,"lon":-90.4166699999999963210939313285052776336669921875,"poi_name":"Municipio de Guazacap\u00e1n","parent_id":"3589172","long":-90.4166699999999963210939313285052776336669921875},"5":{"id":"3592125","label":"Municipio de Nueva Santa Rosa","value":"3592125","lat":14.3833300000000008367351256310939788818359375,"lon":-90.283330000000006521077011711895465850830078125,"poi_name":"Municipio de Nueva Santa Rosa","parent_id":"3589172","long":-90.283330000000006521077011711895465850830078125},"6":{"id":"3592017","label":"Municipio de Oratorio","value":"3592017","lat":14.2333300000000004814637577510438859462738037109375,"lon":-90.1666699999999963210939313285052776336669921875,"poi_name":"Municipio de Oratorio","parent_id":"3589172","long":-90.1666699999999963210939313285052776336669921875},"7":{"id":"3591091","label":"Municipio de Pueblo Nuevo Vi\u00f1as","value":"3591091","lat":14.2333300000000004814637577510438859462738037109375,"lon":-90.483329999999995152393239550292491912841796875,"poi_name":"Municipio de Pueblo Nuevo Vi\u00f1as","parent_id":"3589172","long":-90.483329999999995152393239550292491912841796875},"8":{"id":"3589879","label":"Municipio de San Juan Tecuaco","value":"3589879","lat":14.083330000000000126192389870993793010711669921875,"lon":-90.266670000000004847606760449707508087158203125,"poi_name":"Municipio de San Juan Tecuaco","parent_id":"3589172","long":-90.266670000000004847606760449707508087158203125},"9":{"id":"3589588","label":"Municipio de San Rafael Las Flores","value":"3589588","lat":14.46667000000000058435034588910639286041259765625,"lon":-90.1833299999999979945641825906932353973388671875,"poi_name":"Municipio de San Rafael Las Flores","parent_id":"3589172","long":-90.1833299999999979945641825906932353973388671875},"10":{"id":"3589397","label":"Municipio de Santa Cruz Naranjo","value":"3589397","lat":14.3833300000000008367351256310939788818359375,"lon":-90.3666699999999991632648743689060211181640625,"poi_name":"Municipio de Santa Cruz Naranjo","parent_id":"3589172","long":-90.3666699999999991632648743689060211181640625},"11":{"id":"3589248","label":"Municipio de Santa Mar\u00eda Ixhuat\u00e1n","value":"3589248","lat":14.1833299999999997709210219909437000751495361328125,"lon":-90.266670000000004847606760449707508087158203125,"poi_name":"Municipio de Santa Mar\u00eda Ixhuat\u00e1n","parent_id":"3589172","long":-90.266670000000004847606760449707508087158203125},"12":{"id":"3589158","label":"Municipio de Santa Rosa de Lima","value":"3589158","lat":14.4000000000000003552713678800500929355621337890625,"lon":-90.2999999999999971578290569595992565155029296875,"poi_name":"Municipio de Santa Rosa de Lima","parent_id":"3589172","long":-90.2999999999999971578290569595992565155029296875},"13":{"id":"3588490","label":"Municipio de Taxisco","value":"3588490","lat":14.0789699999999999846522769075818359851837158203125,"lon":-90.4617700000000013460521586239337921142578125,"poi_name":"Municipio de Taxisco","parent_id":"3589172","long":-90.4617700000000013460521586239337921142578125}}