{"success":true,"remaining_lookups":9145,"0":{"id":"3599786","label":"Municipio de Alotenango","value":"3599786","lat":14.4833300000000004814637577510438859462738037109375,"lon":-90.7999999999999971578290569595992565155029296875,"poi_name":"Municipio de Alotenango","parent_id":"3590686","long":-90.7999999999999971578290569595992565155029296875},"1":{"id":"3599698","label":"Municipio de Antigua","value":"3599698","lat":14.5666700000000002290789780090562999248504638671875,"lon":-90.733329999999995152393239550292491912841796875,"poi_name":"Municipio de Antigua","parent_id":"3590686","long":-90.733329999999995152393239550292491912841796875},"2":{"id":"3598127","label":"Municipio de Ciudad Vieja","value":"3598127","lat":14.5166699999999995185362422489561140537261962890625,"lon":-90.766670000000004847606760449707508087158203125,"poi_name":"Municipio de Ciudad Vieja","parent_id":"3590686","long":-90.766670000000004847606760449707508087158203125},"3":{"id":"3595170","label":"Municipio de Jocotenango","value":"3595170","lat":14.583330000000000126192389870993793010711669921875,"lon":-90.733329999999995152393239550292491912841796875,"poi_name":"Municipio de Jocotenango","parent_id":"3590686","long":-90.733329999999995152393239550292491912841796875},"4":{"id":"3592769","label":"Municipio de Magdalena Milpas Altas","value":"3592769","lat":14.550000000000000710542735760100185871124267578125,"lon":-90.6833299999999979945641825906932353973388671875,"poi_name":"Municipio de Magdalena Milpas Altas","parent_id":"3590686","long":-90.6833299999999979945641825906932353973388671875},"5":{"id":"3591573","label":"Municipio de Pastores","value":"3591573","lat":14.5999999999999996447286321199499070644378662109375,"lon":-90.75,"poi_name":"Municipio de Pastores","parent_id":"3590686","long":-90.75},"6":{"id":"3590474","label":"Municipio de San Antonio Aguas Calientes","value":"3590474","lat":14.5525999999999999801048033987171947956085205078125,"lon":-90.78224000000000160071067512035369873046875,"poi_name":"Municipio de San Antonio Aguas Calientes","parent_id":"3590686","long":-90.78224000000000160071067512035369873046875},"7":{"id":"3590392","label":"Municipio de San Bartolom\u00e9 Milpas Altas","value":"3590392","lat":14.5999999999999996447286321199499070644378662109375,"lon":-90.6833299999999979945641825906932353973388671875,"poi_name":"Municipio de San Bartolom\u00e9 Milpas Altas","parent_id":"3590686","long":-90.6833299999999979945641825906932353973388671875},"8":{"id":"3589851","label":"Municipio de San Lucas Sacatep\u00e9quez","value":"3589851","lat":14.6166699999999991632648743689060211181640625,"lon":-90.6666699999999963210939313285052776336669921875,"poi_name":"Municipio de San Lucas Sacatep\u00e9quez","parent_id":"3590686","long":-90.6666699999999963210939313285052776336669921875},"9":{"id":"3589726","label":"Municipio de San Miguel Due\u00f1as","value":"3589726","lat":14.5166699999999995185362422489561140537261962890625,"lon":-90.7999999999999971578290569595992565155029296875,"poi_name":"Municipio de San Miguel Due\u00f1as","parent_id":"3590686","long":-90.7999999999999971578290569595992565155029296875},"10":{"id":"3589459","label":"Municipio de Santa Catarina Barahona","value":"3589459","lat":14.550000000000000710542735760100185871124267578125,"lon":-90.783330000000006521077011711895465850830078125,"poi_name":"Municipio de Santa Catarina Barahona","parent_id":"3590686","long":-90.783330000000006521077011711895465850830078125},"11":{"id":"3589284","label":"Municipio de Santa Luc\u00eda Milpas Altas","value":"3589284","lat":14.5675299999999996458655004971660673618316650390625,"lon":-90.675510000000002719389158301055431365966796875,"poi_name":"Municipio de Santa Luc\u00eda Milpas Altas","parent_id":"3590686","long":-90.675510000000002719389158301055431365966796875},"12":{"id":"3589251","label":"Municipio de Santa Mar\u00eda de Jes\u00fas","value":"3589251","lat":14.5,"lon":-90.716669999999993478922988288104534149169921875,"poi_name":"Municipio de Santa Mar\u00eda de Jes\u00fas","parent_id":"3590686","long":-90.716669999999993478922988288104534149169921875},"13":{"id":"3589100","label":"Municipio de Santiago Sacatep\u00e9quez","value":"3589100","lat":14.6333300000000008367351256310939788818359375,"lon":-90.6833299999999979945641825906932353973388671875,"poi_name":"Municipio de Santiago Sacatep\u00e9quez","parent_id":"3590686","long":-90.6833299999999979945641825906932353973388671875},"14":{"id":"3589071","label":"Municipio de Santo Domingo Xenacoj","value":"3589071","lat":14.6833299999999997709210219909437000751495361328125,"lon":-90.7000000000000028421709430404007434844970703125,"poi_name":"Municipio de Santo Domingo Xenacoj","parent_id":"3590686","long":-90.7000000000000028421709430404007434844970703125},"15":{"id":"3588652","label":"Municipio de Sumpango","value":"3588652","lat":14.6500000000000003552713678800500929355621337890625,"lon":-90.733329999999995152393239550292491912841796875,"poi_name":"Municipio de Sumpango","parent_id":"3590686","long":-90.733329999999995152393239550292491912841796875}}