{"success":true,"remaining_lookups":9153,"0":{"id":"3595801","label":"Municipio de Escuintla","value":"3595801","lat":14.300000000000000710542735760100185871124267578125,"lon":-90.783330000000006521077011711895465850830078125,"poi_name":"Municipio de Escuintla","parent_id":"3595802","long":-90.783330000000006521077011711895465850830078125},"1":{"id":"3595553","label":"Municipio de Guanagazapa","value":"3595553","lat":14.2333300000000004814637577510438859462738037109375,"lon":-90.650000000000005684341886080801486968994140625,"poi_name":"Municipio de Guanagazapa","parent_id":"3595802","long":-90.650000000000005684341886080801486968994140625},"2":{"id":"3595254","label":"Municipio de Iztapa","value":"3595254","lat":13.9333299999999997709210219909437000751495361328125,"lon":-90.716669999999993478922988288104534149169921875,"poi_name":"Municipio de Iztapa","parent_id":"3595802","long":-90.716669999999993478922988288104534149169921875},"3":{"id":"3594750","label":"Municipio de La Democracia","value":"3594750","lat":14.2333300000000004814637577510438859462738037109375,"lon":-90.9500000000000028421709430404007434844970703125,"poi_name":"Municipio de La Democracia","parent_id":"3595802","long":-90.9500000000000028421709430404007434844970703125},"4":{"id":"3594574","label":"Municipio de La Gomera","value":"3594574","lat":14.083330000000000126192389870993793010711669921875,"lon":-91.0499999999999971578290569595992565155029296875,"poi_name":"Municipio de La Gomera","parent_id":"3595802","long":-91.0499999999999971578290569595992565155029296875},"5":{"id":"3592641","label":"Municipio de Masagua","value":"3592641","lat":14.199999999999999289457264239899814128875732421875,"lon":-90.849999999999994315658113919198513031005859375,"poi_name":"Municipio de Masagua","parent_id":"3595802","long":-90.849999999999994315658113919198513031005859375},"6":{"id":"3592142","label":"Municipio de Nueva Concepci\u00f3n","value":"3592142","lat":14.199999999999999289457264239899814128875732421875,"lon":-91.2999999999999971578290569595992565155029296875,"poi_name":"Municipio de Nueva Concepci\u00f3n","parent_id":"3595802","long":-91.2999999999999971578290569595992565155029296875},"7":{"id":"3591830","label":"Municipio de Pal\u00edn","value":"3591830","lat":14.4000000000000003552713678800500929355621337890625,"lon":-90.7000000000000028421709430404007434844970703125,"poi_name":"Municipio de Pal\u00edn","parent_id":"3595802","long":-90.7000000000000028421709430404007434844970703125},"8":{"id":"3590059","label":"Municipio de San Jos\u00e9","value":"3590059","lat":13.957969999999999544115780736319720745086669921875,"lon":-90.88326000000000703948899172246456146240234375,"poi_name":"Municipio de San Jos\u00e9","parent_id":"3595802","long":-90.88326000000000703948899172246456146240234375},"9":{"id":"3589034","label":"Municipio de San Vicente Pacaya","value":"3589034","lat":14.416669999999999873807610129006206989288330078125,"lon":-90.6333300000000008367351256310939788818359375,"poi_name":"Municipio de San Vicente Pacaya","parent_id":"3595802","long":-90.6333300000000008367351256310939788818359375},"10":{"id":"3589288","label":"Municipio de Santa Luc\u00eda Cotzumalguapa","value":"3589288","lat":14.333330000000000126192389870993793010711669921875,"lon":-91.016670000000004847606760449707508087158203125,"poi_name":"Municipio de Santa Luc\u00eda Cotzumalguapa","parent_id":"3595802","long":-91.016670000000004847606760449707508087158203125},"11":{"id":"3588719","label":"Municipio de Siquinal\u00e1","value":"3588719","lat":14.300000000000000710542735760100185871124267578125,"lon":-90.966669999999993478922988288104534149169921875,"poi_name":"Municipio de Siquinal\u00e1","parent_id":"3595802","long":-90.966669999999993478922988288104534149169921875},"12":{"id":"3588341","label":"Munic\u00edpio de Tiquisate","value":"3588341","lat":14.2835599999999995901589500135742127895355224609375,"lon":-91.368099999999998317434801720082759857177734375,"poi_name":"Munic\u00edpio de Tiquisate","parent_id":"3595802","long":-91.368099999999998317434801720082759857177734375}}