{"success":true,"remaining_lookups":9157,"0":{"id":"3597836","label":"Municipio de Cubulco","value":"3597836","lat":15.154450000000000642330633127130568027496337890625,"lon":-90.6712600000000037425706977955996990203857421875,"poi_name":"Municipio de Cubulco","parent_id":"3599602","long":-90.6712600000000037425706977955996990203857421875},"1":{"id":"3597300","label":"Municipio de El Chol","value":"3597300","lat":14.9526599999999998402699930011294782161712646484375,"lon":-90.48727999999999838109943084418773651123046875,"poi_name":"Municipio de El Chol","parent_id":"3599602","long":-90.48727999999999838109943084418773651123046875},"2":{"id":"3595630","label":"Municipio de Granados","value":"3595630","lat":14.916669999999999873807610129006206989288330078125,"lon":-90.516670000000004847606760449707508087158203125,"poi_name":"Municipio de Granados","parent_id":"3599602","long":-90.516670000000004847606760449707508087158203125},"3":{"id":"3591027","label":"Municipio de Purulh\u00e1","value":"3591027","lat":15.215180000000000148929757415316998958587646484375,"lon":-90.0384399999999942565409583039581775665283203125,"poi_name":"Municipio de Purulh\u00e1","parent_id":"3599602","long":-90.0384399999999942565409583039581775665283203125},"4":{"id":"3590923","label":"Municipio de Rabinal","value":"3590923","lat":15.1123799999999999243982529151253402233123779296875,"lon":-90.507059999999995625330484472215175628662109375,"poi_name":"Municipio de Rabinal","parent_id":"3599602","long":-90.507059999999995625330484472215175628662109375},"5":{"id":"3590615","label":"Municipio de Salam\u00e1","value":"3590615","lat":15.0999999999999996447286321199499070644378662109375,"lon":-90.266670000000004847606760449707508087158203125,"poi_name":"Municipio de Salam\u00e1","parent_id":"3599602","long":-90.266670000000004847606760449707508087158203125},"6":{"id":"3590106","label":"Municipio de San Jer\u00f3nimo","value":"3590106","lat":15.050000000000000710542735760100185871124267578125,"lon":-90.2000000000000028421709430404007434844970703125,"poi_name":"Municipio de San Jer\u00f3nimo","parent_id":"3599602","long":-90.2000000000000028421709430404007434844970703125},"7":{"id":"3589729","label":"Municipio de San Miguel Chicaj","value":"3589729","lat":15.15981000000000022964741219766438007354736328125,"lon":-90.4130300000000062254912336356937885284423828125,"poi_name":"Municipio de San Miguel Chicaj","parent_id":"3599602","long":-90.4130300000000062254912336356937885284423828125}}