{"success":true,"remaining_lookups":9864,"0":{"id":"2772395","label":"Linz Stadt","value":"2772395","lat":48.2999999999999971578290569595992565155029296875,"lon":14.28332999999999941564965411089360713958740234375,"poi_name":"Linz Stadt","parent_id":"2769848","long":14.28332999999999941564965411089360713958740234375},"1":{"id":"2781519","label":"Politischer Bezirk Braunau am Inn","value":"2781519","lat":48.11202999999999718738763476721942424774169921875,"lon":13.089240000000000208046913030557334423065185546875,"poi_name":"Politischer Bezirk Braunau am Inn","parent_id":"2769848","long":13.089240000000000208046913030557334423065185546875},"2":{"id":"2780393","label":"Politischer Bezirk Eferding","value":"2780393","lat":48.3216800000000006320988177321851253509521484375,"lon":13.98452999999999946112438919954001903533935546875,"poi_name":"Politischer Bezirk Eferding","parent_id":"2769848","long":13.98452999999999946112438919954001903533935546875},"3":{"id":"2779274","label":"Politischer Bezirk Freistadt","value":"2779274","lat":48.47005999999999659166860510595142841339111328125,"lon":14.64844000000000079353412729687988758087158203125,"poi_name":"Politischer Bezirk Freistadt","parent_id":"2769848","long":14.64844000000000079353412729687988758087158203125},"4":{"id":"2778435","label":"Politischer Bezirk Gmunden","value":"2778435","lat":47.75,"lon":13.75,"poi_name":"Politischer Bezirk Gmunden","parent_id":"2769848","long":13.75},"5":{"id":"2777971","label":"Politischer Bezirk Grieskirchen","value":"2777971","lat":48.26666999999999774217940284870564937591552734375,"lon":13.800000000000000710542735760100185871124267578125,"poi_name":"Politischer Bezirk Grieskirchen","parent_id":"2769848","long":13.800000000000000710542735760100185871124267578125},"6":{"id":"2774389","label":"Politischer Bezirk Kirchdorf an der Krems","value":"2774389","lat":47.84346000000000032059688237495720386505126953125,"lon":14.2134599999999995389998730388469994068145751953125,"poi_name":"Politischer Bezirk Kirchdorf an der Krems","parent_id":"2769848","long":14.2134599999999995389998730388469994068145751953125},"7":{"id":"2772396","label":"Politischer Bezirk Linz-Land","value":"2772396","lat":48.16667000000000342652128892950713634490966796875,"lon":14.300000000000000710542735760100185871124267578125,"poi_name":"Politischer Bezirk Linz-Land","parent_id":"2769848","long":14.300000000000000710542735760100185871124267578125},"8":{"id":"2769104","label":"Politischer Bezirk Perg","value":"2769104","lat":48.25724000000000302179614664055407047271728515625,"lon":14.7179599999999997095301296212710440158843994140625,"poi_name":"Politischer Bezirk Perg","parent_id":"2769848","long":14.7179599999999997095301296212710440158843994140625},"9":{"id":"2767470","label":"Politischer Bezirk Ried im Innkreis","value":"2767470","lat":48.23333000000000225782059715129435062408447265625,"lon":13.46667000000000058435034588910639286041259765625,"poi_name":"Politischer Bezirk Ried im Innkreis","parent_id":"2769848","long":13.46667000000000058435034588910639286041259765625},"10":{"id":"2767290","label":"Politischer Bezirk Rohrbach","value":"2767290","lat":48.55738999999999805368133820593357086181640625,"lon":13.9692600000000002324895831407047808170318603515625,"poi_name":"Politischer Bezirk Rohrbach","parent_id":"2769848","long":13.9692600000000002324895831407047808170318603515625},"11":{"id":"2766154","label":"Politischer Bezirk Sch\u00e4rding","value":"2766154","lat":48.4333299999999979945641825906932353973388671875,"lon":13.5999999999999996447286321199499070644378662109375,"poi_name":"Politischer Bezirk Sch\u00e4rding","parent_id":"2769848","long":13.5999999999999996447286321199499070644378662109375},"12":{"id":"2764357","label":"Politischer Bezirk Steyr-Land","value":"2764357","lat":47.89999999999999857891452847979962825775146484375,"lon":14.46667000000000058435034588910639286041259765625,"poi_name":"Politischer Bezirk Steyr-Land","parent_id":"2769848","long":14.46667000000000058435034588910639286041259765625},"13":{"id":"2762517","label":"Politischer Bezirk Urfahr-Umgebung","value":"2762517","lat":48.42511999999999972033037920482456684112548828125,"lon":14.27450999999999936562744551338255405426025390625,"poi_name":"Politischer Bezirk Urfahr-Umgebung","parent_id":"2769848","long":14.27450999999999936562744551338255405426025390625},"14":{"id":"2762342","label":"Politischer Bezirk V\u00f6cklabruck","value":"2762342","lat":48.00312999999999874489731155335903167724609375,"lon":13.6577199999999994162180882995016872882843017578125,"poi_name":"Politischer Bezirk V\u00f6cklabruck","parent_id":"2769848","long":13.6577199999999994162180882995016872882843017578125},"15":{"id":"2764347","label":"Steyr Stadt","value":"2764347","lat":48.03332999999999941564965411089360713958740234375,"lon":14.416669999999999873807610129006206989288330078125,"poi_name":"Steyr Stadt","parent_id":"2769848","long":14.416669999999999873807610129006206989288330078125},"16":{"id":"7871309","label":"Wels Stadt","value":"7871309","lat":48.16082000000000107320374809205532073974609375,"lon":14.0216399999999996595079210237599909305572509765625,"poi_name":"Wels Stadt","parent_id":"2769848","long":14.0216399999999996595079210237599909305572509765625},"17":{"id":"2761523","label":"Wels-Land","value":"2761523","lat":48.11659999999999826059138285927474498748779296875,"lon":13.9663699999999995071675584767945110797882080078125,"poi_name":"Wels-Land","parent_id":"2769848","long":13.9663699999999995071675584767945110797882080078125}}