{"success":true,"remaining_lookups":8180,"0":{"id":"8657188","label":"Bulolo","value":"8657188","lat":-7.416669999999999873807610129006206989288330078125,"lon":146.75,"poi_name":"Bulolo","parent_id":"2090468","long":146.75},"1":{"id":"2097417","label":"Finschhafen","value":"2097417","lat":-6.416669999999999873807610129006206989288330078125,"lon":147.5,"poi_name":"Finschhafen","parent_id":"2090468","long":147.5},"2":{"id":"8657211","label":"Huon Gulf","value":"8657211","lat":-7.1833299999999997709210219909437000751495361328125,"lon":146.94999999999998863131622783839702606201171875,"poi_name":"Huon Gulf","parent_id":"2090468","long":146.94999999999998863131622783839702606201171875},"3":{"id":"2095129","label":"Kabwum","value":"2095129","lat":-6.083330000000000126192389870993793010711669921875,"lon":147,"poi_name":"Kabwum","parent_id":"2090468","long":147},"4":{"id":"2092738","label":"Lae","value":"2092738","lat":-6.5,"lon":146.83332999999998946805135346949100494384765625,"poi_name":"Lae","parent_id":"2090468","long":146.83332999999998946805135346949100494384765625},"5":{"id":"9855507","label":"Markham","value":"9855507","lat":-6.64153000000000037772451833006925880908966064453125,"lon":146.86043000000000802174326963722705841064453125,"poi_name":"Markham","parent_id":"2090468","long":146.86043000000000802174326963722705841064453125},"6":{"id":"2090950","label":"Menyamya","value":"2090950","lat":-7.25,"lon":146.16667000000001053194864653050899505615234375,"poi_name":"Menyamya","parent_id":"2090468","long":146.16667000000001053194864653050899505615234375},"7":{"id":"8657212","label":"Nawae","value":"8657212","lat":-6.46666999999999969617192618898116052150726318359375,"lon":146.966669999999993478922988288104534149169921875,"poi_name":"Nawae","parent_id":"2090468","long":146.966669999999993478922988288104534149169921875},"8":{"id":"8657213","label":"Tewai Siassi","value":"8657213","lat":-6.1500000000000003552713678800500929355621337890625,"lon":147.533330000000006521077011711895465850830078125,"poi_name":"Tewai Siassi","parent_id":"2090468","long":147.533330000000006521077011711895465850830078125}}