{"success":true,"remaining_lookups":8183,"0":{"id":"2099273","label":"Bogia","value":"2099273","lat":-4.5,"lon":145,"poi_name":"Bogia","parent_id":"2091993","long":145},"1":{"id":"7910339","label":"Madang","value":"7910339","lat":-5.233670000000000044337866711430251598358154296875,"lon":145.788890000000009194991434924304485321044921875,"poi_name":"Madang","parent_id":"2091993","long":145.788890000000009194991434924304485321044921875},"2":{"id":"8657191","label":"Middle Ramu","value":"8657191","lat":-4.916669999999999873807610129006206989288330078125,"lon":144.75,"poi_name":"Middle Ramu","parent_id":"2091993","long":144.75},"3":{"id":"9855506","label":"Rai Coast","value":"9855506","lat":-5.7230299999999996174437910667620599269866943359375,"lon":146.461489999999997735358192585408687591552734375,"poi_name":"Rai Coast","parent_id":"2091993","long":146.461489999999997735358192585408687591552734375},"4":{"id":"8657210","label":"Sumkar","value":"8657210","lat":-4.79999999999999982236431605997495353221893310546875,"lon":145.55000000000001136868377216160297393798828125,"poi_name":"Sumkar","parent_id":"2091993","long":145.55000000000001136868377216160297393798828125},"5":{"id":"8657192","label":"Usino Bundi","value":"8657192","lat":-5.53333000000000030382807381101883947849273681640625,"lon":145.16667000000001053194864653050899505615234375,"poi_name":"Usino Bundi","parent_id":"2091993","long":145.16667000000001053194864653050899505615234375}}