{"success":true,"remaining_lookups":8188,"0":{"id":"8657206","label":"Daulo","value":"8657206","lat":-5.98332999999999959328533805091865360736846923828125,"lon":145.233329999999995152393239550292491912841796875,"poi_name":"Daulo","parent_id":"2097855","long":145.233329999999995152393239550292491912841796875},"1":{"id":"2096740","label":"Goroka","value":"2096740","lat":-6.04999999999999982236431605997495353221893310546875,"lon":145.3833300000000008367351256310939788818359375,"poi_name":"Goroka","parent_id":"2097855","long":145.3833300000000008367351256310939788818359375},"2":{"id":"2096222","label":"Henganofi","value":"2096222","lat":-6.21666999999999969617192618898116052150726318359375,"lon":145.66667000000001053194864653050899505615234375,"poi_name":"Henganofi","parent_id":"2097855","long":145.66667000000001053194864653050899505615234375},"3":{"id":"2095037","label":"Kainantu","value":"2095037","lat":-6.416669999999999873807610129006206989288330078125,"lon":145.91667000000001053194864653050899505615234375,"poi_name":"Kainantu","parent_id":"2097855","long":145.91667000000001053194864653050899505615234375},"4":{"id":"2092104","label":"Lufa","value":"2092104","lat":-6.45000000000000017763568394002504646778106689453125,"lon":145.25,"poi_name":"Lufa","parent_id":"2097855","long":145.25},"5":{"id":"9855501","label":"Obura Wonenara","value":"9855501","lat":-6.554339999999999832880348549224436283111572265625,"lon":145.97327999999998837665771134197711944580078125,"poi_name":"Obura Wonenara","parent_id":"2097855","long":145.97327999999998837665771134197711944580078125},"6":{"id":"2089207","label":"Okapa","value":"2089207","lat":-6.63332999999999994855670593096874654293060302734375,"lon":145.5,"poi_name":"Okapa","parent_id":"2097855","long":145.5},"7":{"id":"8657205","label":"Unggai Bena","value":"8657205","lat":-6.11667000000000005144329406903125345706939697265625,"lon":145.516670000000004847606760449707508087158203125,"poi_name":"Unggai Bena","parent_id":"2097855","long":145.516670000000004847606760449707508087158203125}}