{"success":true,"remaining_lookups":8362,"0":{"id":"2759886","label":"Gemeente Almelo","value":"2759886","lat":52.34463000000000221234586206264793872833251953125,"lon":6.65941999999999989512389220180921256542205810546875,"poi_name":"Gemeente Almelo","parent_id":"2748838","long":6.65941999999999989512389220180921256542205810546875},"1":{"id":"2758597","label":"Gemeente Borne","value":"2758597","lat":52.3111999999999994770405464805662631988525390625,"lon":6.7440400000000000346744855050928890705108642578125,"poi_name":"Gemeente Borne","parent_id":"2748838","long":6.7440400000000000346744855050928890705108642578125},"2":{"id":"2757849","label":"Gemeente Dalfsen","value":"2757849","lat":52.52461000000000268528310698457062244415283203125,"lon":6.27214000000000027057467377744615077972412109375,"poi_name":"Gemeente Dalfsen","parent_id":"2748838","long":6.27214000000000027057467377744615077972412109375},"3":{"id":"2756986","label":"Gemeente Deventer","value":"2756986","lat":52.26926999999999878809830988757312297821044921875,"lon":6.2379499999999996617816577781923115253448486328125,"poi_name":"Gemeente Deventer","parent_id":"2748838","long":6.2379499999999996617816577781923115253448486328125},"4":{"id":"6544285","label":"Gemeente Dinkelland","value":"6544285","lat":52.37107999999999918827597866766154766082763671875,"lon":6.89294000000000028904878490720875561237335205078125,"poi_name":"Gemeente Dinkelland","parent_id":"2748838","long":6.89294000000000028904878490720875561237335205078125},"5":{"id":"2756070","label":"Gemeente Enschede","value":"2756070","lat":52.21909000000000133923094836063683032989501953125,"lon":6.88041000000000035896619010600261390209197998046875,"poi_name":"Gemeente Enschede","parent_id":"2748838","long":6.88041000000000035896619010600261390209197998046875},"6":{"id":"2755031","label":"Gemeente Haaksbergen","value":"2755031","lat":52.1551400000000029422153602354228496551513671875,"lon":6.754039999999999821511664777062833309173583984375,"poi_name":"Gemeente Haaksbergen","parent_id":"2748838","long":6.754039999999999821511664777062833309173583984375},"7":{"id":"2754858","label":"Gemeente Hardenberg","value":"2754858","lat":52.59311999999999898136593401432037353515625,"lon":6.5347600000000003461764208623208105564117431640625,"poi_name":"Gemeente Hardenberg","parent_id":"2748838","long":6.5347600000000003461764208623208105564117431640625},"8":{"id":"2754456","label":"Gemeente Hellendoorn","value":"2754456","lat":52.390219999999999345163814723491668701171875,"lon":6.46433999999999997498889570124447345733642578125,"poi_name":"Gemeente Hellendoorn","parent_id":"2748838","long":6.46433999999999997498889570124447345733642578125},"9":{"id":"2754392","label":"Gemeente Hengelo","value":"2754392","lat":52.25909999999999655528881703503429889678955078125,"lon":6.7787600000000001188027454190887510776519775390625,"poi_name":"Gemeente Hengelo","parent_id":"2748838","long":6.7787600000000001188027454190887510776519775390625},"10":{"id":"6544289","label":"Gemeente Hof van Twente","value":"6544289","lat":52.2434099999999972396835801191627979278564453125,"lon":6.59748999999999963250729706487618386745452880859375,"poi_name":"Gemeente Hof van Twente","parent_id":"2748838","long":6.59748999999999963250729706487618386745452880859375},"11":{"id":"2753104","label":"Gemeente Kampen","value":"2753104","lat":52.56181000000000125282895169220864772796630859375,"lon":5.915350000000000108002495835535228252410888671875,"poi_name":"Gemeente Kampen","parent_id":"2748838","long":5.915350000000000108002495835535228252410888671875},"12":{"id":"2751423","label":"Gemeente Losser","value":"2751423","lat":52.29818999999999817873685969971120357513427734375,"lon":7.00105999999999983884890752960927784442901611328125,"poi_name":"Gemeente Losser","parent_id":"2748838","long":7.00105999999999983884890752960927784442901611328125},"13":{"id":"2749643","label":"Gemeente Oldenzaal","value":"2749643","lat":52.30749999999999744204615126363933086395263671875,"lon":6.90749999999999975131004248396493494510650634765625,"poi_name":"Gemeente Oldenzaal","parent_id":"2748838","long":6.90749999999999975131004248396493494510650634765625},"14":{"id":"6544248","label":"Gemeente Olst-Wijhe","value":"6544248","lat":52.35734000000000065710992203094065189361572265625,"lon":6.1348099999999998743760443176142871379852294921875,"poi_name":"Gemeente Olst-Wijhe","parent_id":"2748838","long":6.1348099999999998743760443176142871379852294921875},"15":{"id":"2749611","label":"Gemeente Ommen","value":"2749611","lat":52.51659000000000077079675975255668163299560546875,"lon":6.4563100000000002154365574824623763561248779296875,"poi_name":"Gemeente Ommen","parent_id":"2748838","long":6.4563100000000002154365574824623763561248779296875},"16":{"id":"2748370","label":"Gemeente Raalte","value":"2748370","lat":52.4029900000000026238922146148979663848876953125,"lon":6.287729999999999819237928022630512714385986328125,"poi_name":"Gemeente Raalte","parent_id":"2748838","long":6.287729999999999819237928022630512714385986328125},"17":{"id":"6544230","label":"Gemeente Rijssen-Holten","value":"6544230","lat":52.28999999999999914734871708787977695465087890625,"lon":6.4251500000000003609557097661308944225311279296875,"poi_name":"Gemeente Rijssen-Holten","parent_id":"2748838","long":6.4251500000000003609557097661308944225311279296875},"18":{"id":"2746837","label":"Gemeente Staphorst","value":"2746837","lat":52.63241000000000013869794202037155628204345703125,"lon":6.20737000000000005428546501207165420055389404296875,"poi_name":"Gemeente Staphorst","parent_id":"2748838","long":6.20737000000000005428546501207165420055389404296875},"19":{"id":"6544235","label":"Gemeente Steenwijkerland","value":"6544235","lat":52.7558700000000015961632016114890575408935546875,"lon":6.04028000000000009350742402602918446063995361328125,"poi_name":"Gemeente Steenwijkerland","parent_id":"2748838","long":6.04028000000000009350742402602918446063995361328125},"20":{"id":"2746132","label":"Gemeente Tubbergen","value":"2746132","lat":52.4045100000000019235812942497432231903076171875,"lon":6.78240999999999960579089020029641687870025634765625,"poi_name":"Gemeente Tubbergen","parent_id":"2748838","long":6.78240999999999960579089020029641687870025634765625},"21":{"id":"6544245","label":"Gemeente Twenterand","value":"6544245","lat":52.44973999999999847432263777591288089752197265625,"lon":6.56121999999999960806462695472873747348785400390625,"poi_name":"Gemeente Twenterand","parent_id":"2748838","long":6.56121999999999960806462695472873747348785400390625},"22":{"id":"2744548","label":"Gemeente Wierden","value":"2744548","lat":52.34246999999999871988620725460350513458251953125,"lon":6.5579499999999999459987520822323858737945556640625,"poi_name":"Gemeente Wierden","parent_id":"2748838","long":6.5579499999999999459987520822323858737945556640625},"23":{"id":"6544260","label":"Gemeente Zwartewaterland","value":"6544260","lat":52.6024000000000029331204132176935672760009765625,"lon":6.07401999999999997470467860694043338298797607421875,"poi_name":"Gemeente Zwartewaterland","parent_id":"2748838","long":6.07401999999999997470467860694043338298797607421875},"24":{"id":"2743476","label":"Gemeente Zwolle","value":"2743476","lat":52.51263999999999754209056845866143703460693359375,"lon":6.09358999999999983998577590682543814182281494140625,"poi_name":"Gemeente Zwolle","parent_id":"2748838","long":6.09358999999999983998577590682543814182281494140625}}