{"success":true,"remaining_lookups":8363,"0":{"id":"2760133","label":"Gemeente Aalsmeer","value":"2760133","lat":52.264060000000000627551344223320484161376953125,"lon":4.76532000000000000028421709430404007434844970703125,"poi_name":"Gemeente Aalsmeer","parent_id":"2749879","long":4.76532000000000000028421709430404007434844970703125},"1":{"id":"2759898","label":"Gemeente Alkmaar","value":"2759898","lat":52.6289000000000015688783605583012104034423828125,"lon":4.7440300000000004132516551180742681026458740234375,"poi_name":"Gemeente Alkmaar","parent_id":"2749879","long":4.7440300000000004132516551180742681026458740234375},"2":{"id":"2759797","label":"Gemeente Amstelveen","value":"2759797","lat":52.2984000000000008867573342286050319671630859375,"lon":4.85766999999999971038278090418316423892974853515625,"poi_name":"Gemeente Amstelveen","parent_id":"2749879","long":4.85766999999999971038278090418316423892974853515625},"3":{"id":"2759793","label":"Gemeente Amsterdam","value":"2759793","lat":52.3730199999999967985786497592926025390625,"lon":4.898559999999999803321770741604268550872802734375,"poi_name":"Gemeente Amsterdam","parent_id":"2749879","long":4.898559999999999803321770741604268550872802734375},"4":{"id":"2759320","label":"Gemeente Beemster","value":"2759320","lat":52.55402000000000128920873976312577724456787109375,"lon":4.91809999999999991615595718030817806720733642578125,"poi_name":"Gemeente Beemster","parent_id":"2749879","long":4.91809999999999991615595718030817806720733642578125},"5":{"id":"2759151","label":"Gemeente Bergen","value":"2759151","lat":52.65782999999999702822606195695698261260986328125,"lon":4.6760999999999999232613845379091799259185791015625,"poi_name":"Gemeente Bergen","parent_id":"2749879","long":4.6760999999999999232613845379091799259185791015625},"6":{"id":"2758997","label":"Gemeente Beverwijk","value":"2758997","lat":52.48272999999999655074134352616965770721435546875,"lon":4.65467999999999992866150932968594133853912353515625,"poi_name":"Gemeente Beverwijk","parent_id":"2749879","long":4.65467999999999992866150932968594133853912353515625},"7":{"id":"2758867","label":"Gemeente Blaricum","value":"2758867","lat":52.28547999999999973397279973141849040985107421875,"lon":5.268299999999999982946974341757595539093017578125,"poi_name":"Gemeente Blaricum","parent_id":"2749879","long":5.268299999999999982946974341757595539093017578125},"8":{"id":"2758802","label":"Gemeente Bloemendaal","value":"2758802","lat":52.36229999999999762394509161822497844696044921875,"lon":4.58968000000000042604142436175607144832611083984375,"poi_name":"Gemeente Bloemendaal","parent_id":"2749879","long":4.58968000000000042604142436175607144832611083984375},"9":{"id":"2757990","label":"Gemeente Castricum","value":"2757990","lat":52.55577000000000253976395470090210437774658203125,"lon":4.68944999999999989626076057902537286281585693359375,"poi_name":"Gemeente Castricum","parent_id":"2749879","long":4.68944999999999989626076057902537286281585693359375},"10":{"id":"2757219","label":"Gemeente Den Helder","value":"2757219","lat":52.9236599999999981491782818920910358428955078125,"lon":4.7579299999999999926103555480949580669403076171875,"poi_name":"Gemeente Den Helder","parent_id":"2749879","long":4.7579299999999999926103555480949580669403076171875},"11":{"id":"2756887","label":"Gemeente Diemen","value":"2756887","lat":52.34163000000000209865902434103190898895263671875,"lon":4.9680499999999998550492819049395620822906494140625,"poi_name":"Gemeente Diemen","parent_id":"2749879","long":4.9680499999999998550492819049395620822906494140625},"12":{"id":"6544254","label":"Gemeente Drechterland","value":"6544254","lat":52.6645400000000023510438040830194950103759765625,"lon":5.1656899999999996708766047959215939044952392578125,"poi_name":"Gemeente Drechterland","parent_id":"2749879","long":5.1656899999999996708766047959215939044952392578125},"13":{"id":"2756430","label":"Gemeente Edam-Volendam","value":"2756430","lat":52.50556000000000267391442321240901947021484375,"lon":5.05919999999999969730879456619732081890106201171875,"poi_name":"Gemeente Edam-Volendam","parent_id":"2749879","long":5.05919999999999969730879456619732081890106201171875},"14":{"id":"2756076","label":"Gemeente Enkhuizen","value":"2756076","lat":52.71652999999999877900336286984384059906005859375,"lon":5.27615000000000033963942769332788884639739990234375,"poi_name":"Gemeente Enkhuizen","parent_id":"2749879","long":5.27615000000000033963942769332788884639739990234375},"15":{"id":"2755002","label":"Gemeente Haarlem","value":"2755002","lat":52.38074000000000296495272777974605560302734375,"lon":4.6440000000000001278976924368180334568023681640625,"poi_name":"Gemeente Haarlem","parent_id":"2749879","long":4.6440000000000001278976924368180334568023681640625},"16":{"id":"2755000","label":"Gemeente Haarlemmerliede en Spaarnwoude","value":"2755000","lat":52.38828000000000173486114363186061382293701171875,"lon":4.7388799999999999812416717759333550930023193359375,"poi_name":"Gemeente Haarlemmerliede en Spaarnwoude","parent_id":"2749879","long":4.7388799999999999812416717759333550930023193359375},"17":{"id":"2754999","label":"Gemeente Haarlemmermeer","value":"2754999","lat":52.306229999999999336068867705762386322021484375,"lon":4.6841799999999995662847140920348465442657470703125,"poi_name":"Gemeente Haarlemmermeer","parent_id":"2749879","long":4.6841799999999995662847140920348465442657470703125},"18":{"id":"2754696","label":"Gemeente Heemskerk","value":"2754696","lat":52.5094500000000010686562745831906795501708984375,"lon":4.6538599999999998857447280897758901119232177734375,"poi_name":"Gemeente Heemskerk","parent_id":"2749879","long":4.6538599999999998857447280897758901119232177734375},"19":{"id":"2754691","label":"Gemeente Heemstede","value":"2754691","lat":52.3471899999999976671460899524390697479248046875,"lon":4.6183800000000001517719283583573997020721435546875,"poi_name":"Gemeente Heemstede","parent_id":"2749879","long":4.6183800000000001517719283583573997020721435546875},"20":{"id":"2754658","label":"Gemeente Heerhugowaard","value":"2754658","lat":52.68209999999999837427822058089077472686767578125,"lon":4.84363000000000010203393685515038669109344482421875,"poi_name":"Gemeente Heerhugowaard","parent_id":"2749879","long":4.84363000000000010203393685515038669109344482421875},"21":{"id":"2754515","label":"Gemeente Heiloo","value":"2754515","lat":52.6012199999999978672349243424832820892333984375,"lon":4.709450000000000358113538823090493679046630859375,"poi_name":"Gemeente Heiloo","parent_id":"2749879","long":4.709450000000000358113538823090493679046630859375},"22":{"id":"2754063","label":"Gemeente Hilversum","value":"2754063","lat":52.222520000000002937667886726558208465576171875,"lon":5.16788999999999987267074175179004669189453125,"poi_name":"Gemeente Hilversum","parent_id":"2749879","long":5.16788999999999987267074175179004669189453125},"23":{"id":"8426240","label":"Gemeente Hollands Kroon","value":"8426240","lat":52.8488200000000034606273402459919452667236328125,"lon":4.90711000000000030496494218823499977588653564453125,"poi_name":"Gemeente Hollands Kroon","parent_id":"2749879","long":4.90711000000000030496494218823499977588653564453125},"24":{"id":"2753635","label":"Gemeente Hoorn","value":"2753635","lat":52.64312000000000324462234857492148876190185546875,"lon":5.05778999999999978598452798905782401561737060546875,"poi_name":"Gemeente Hoorn","parent_id":"2749879","long":5.05778999999999978598452798905782401561737060546875},"25":{"id":"2753467","label":"Gemeente Huizen","value":"2753467","lat":52.296639999999996462065610103309154510498046875,"lon":5.2413199999999999789679350215010344982147216796875,"poi_name":"Gemeente Huizen","parent_id":"2749879","long":5.2413199999999999789679350215010344982147216796875},"26":{"id":"6544220","label":"Gemeente Koggenland","value":"6544220","lat":52.64162999999999925648808130063116550445556640625,"lon":4.9490899999999999891997504164464771747589111328125,"poi_name":"Gemeente Koggenland","parent_id":"2749879","long":4.9490899999999999891997504164464771747589111328125},"27":{"id":"2751979","label":"Gemeente Landsmeer","value":"2751979","lat":52.4309999999999973852027324028313159942626953125,"lon":4.91570000000000018047785488306544721126556396484375,"poi_name":"Gemeente Landsmeer","parent_id":"2749879","long":4.91570000000000018047785488306544721126556396484375},"28":{"id":"2751962","label":"Gemeente Langedijk","value":"2751962","lat":52.69151000000000095724317361600697040557861328125,"lon":4.786590000000000344471118296496570110321044921875,"poi_name":"Gemeente Langedijk","parent_id":"2749879","long":4.786590000000000344471118296496570110321044921875},"29":{"id":"2751873","label":"Gemeente Laren","value":"2751873","lat":52.24517999999999773308445583097636699676513671875,"lon":5.2170100000000001472244548494927585124969482421875,"poi_name":"Gemeente Laren","parent_id":"2749879","long":5.2170100000000001472244548494927585124969482421875},"30":{"id":"2751072","label":"Gemeente Medemblik","value":"2751072","lat":52.72496000000000293539414997212588787078857421875,"lon":5.1220400000000001483613232267089188098907470703125,"poi_name":"Gemeente Medemblik","parent_id":"2749879","long":5.1220400000000001483613232267089188098907470703125},"31":{"id":"2749319","label":"Gemeente Oostzaan","value":"2749319","lat":52.43780000000000285353962681256234645843505859375,"lon":4.876039999999999707824827055446803569793701171875,"poi_name":"Gemeente Oostzaan","parent_id":"2749879","long":4.876039999999999707824827055446803569793701171875},"32":{"id":"2749285","label":"Gemeente Opmeer","value":"2749285","lat":52.7146800000000013142198440618813037872314453125,"lon":4.95333999999999985419663062202744185924530029296875,"poi_name":"Gemeente Opmeer","parent_id":"2749879","long":4.95333999999999985419663062202744185924530029296875},"33":{"id":"2749027","label":"Gemeente Ouder-Amstel","value":"2749027","lat":52.306589999999999918145476840436458587646484375,"lon":4.914320000000000021600499167107045650482177734375,"poi_name":"Gemeente Ouder-Amstel","parent_id":"2749879","long":4.914320000000000021600499167107045650482177734375},"34":{"id":"2748412","label":"Gemeente Purmerend","value":"2748412","lat":52.5051500000000004320099833421409130096435546875,"lon":4.95242999999999966576069709844887256622314453125,"poi_name":"Gemeente Purmerend","parent_id":"2749879","long":4.95242999999999966576069709844887256622314453125},"35":{"id":"2747719","label":"Gemeente Schagen","value":"2747719","lat":52.7882299999999986539478413760662078857421875,"lon":4.7996499999999997498889570124447345733642578125,"poi_name":"Gemeente Schagen","parent_id":"2749879","long":4.7996499999999997498889570124447345733642578125},"36":{"id":"6544238","label":"Gemeente Stede Broec","value":"6544238","lat":52.69617000000000217596607399173080921173095703125,"lon":5.22388999999999992240873325499705970287322998046875,"poi_name":"Gemeente Stede Broec","parent_id":"2749879","long":5.22388999999999992240873325499705970287322998046875},"37":{"id":"2746383","label":"Gemeente Texel","value":"2746383","lat":53.07883000000000350837581208907067775726318359375,"lon":4.811659999999999826059138285927474498748779296875,"poi_name":"Gemeente Texel","parent_id":"2749879","long":4.811659999999999826059138285927474498748779296875},"38":{"id":"2745977","label":"Gemeente Uitgeest","value":"2745977","lat":52.52855000000000273985278909094631671905517578125,"lon":4.7117599999999999482724888366647064685821533203125,"poi_name":"Gemeente Uitgeest","parent_id":"2749879","long":4.7117599999999999482724888366647064685821533203125},"39":{"id":"2745972","label":"Gemeente Uithoorn","value":"2745972","lat":52.23998999999999881538315094076097011566162109375,"lon":4.83072000000000034702907214523293077945709228515625,"poi_name":"Gemeente Uithoorn","parent_id":"2749879","long":4.83072000000000034702907214523293077945709228515625},"40":{"id":"2745675","label":"Gemeente Velsen","value":"2745675","lat":52.451819999999997889972291886806488037109375,"lon":4.63210999999999994969357430818490684032440185546875,"poi_name":"Gemeente Velsen","parent_id":"2749879","long":4.63210999999999994969357430818490684032440185546875},"41":{"id":"2758257","label":"Gemeente Waterland","value":"2758257","lat":52.437600000000003319655661471188068389892578125,"lon":5.013709999999999666897565475665032863616943359375,"poi_name":"Gemeente Waterland","parent_id":"2749879","long":5.013709999999999666897565475665032863616943359375},"42":{"id":"2744903","label":"Gemeente Weesp","value":"2744903","lat":52.3057500000000032969182939268648624420166015625,"lon":5.0415200000000002233946361229754984378814697265625,"poi_name":"Gemeente Weesp","parent_id":"2749879","long":5.0415200000000002233946361229754984378814697265625},"43":{"id":"3345301","label":"Gemeente Wijdemeren","value":"3345301","lat":52.2275599999999968758856994099915027618408203125,"lon":5.084450000000000358113538823090493679046630859375,"poi_name":"Gemeente Wijdemeren","parent_id":"2749879","long":5.084450000000000358113538823090493679046630859375},"44":{"id":"6544263","label":"Gemeente Wormerland","value":"6544263","lat":52.4969999999999998863131622783839702606201171875,"lon":4.83363999999999993661958797019906342029571533203125,"poi_name":"Gemeente Wormerland","parent_id":"2749879","long":4.83363999999999993661958797019906342029571533203125},"45":{"id":"2744113","label":"Gemeente Zaanstad","value":"2744113","lat":52.453079999999999927240423858165740966796875,"lon":4.81252999999999975244691086118109524250030517578125,"poi_name":"Gemeente Zaanstad","parent_id":"2749879","long":4.81252999999999975244691086118109524250030517578125},"46":{"id":"2744040","label":"Gemeente Zandvoort","value":"2744040","lat":52.35768999999999806505002197809517383575439453125,"lon":4.5438799999999996970245774718932807445526123046875,"poi_name":"Gemeente Zandvoort","parent_id":"2749879","long":4.5438799999999996970245774718932807445526123046875},"47":{"id":"11189015","label":"Gooise Meren","value":"11189015","lat":52.29735000000000155750967678613960742950439453125,"lon":5.13370999999999977347897583968006074428558349609375,"poi_name":"Gooise Meren","parent_id":"2749879","long":5.13370999999999977347897583968006074428558349609375}}