{"success":true,"remaining_lookups":8824,"0":{"id":"7415926","label":"Ch\u016b\u014d-shi","value":"7415926","lat":35.58418000000000347426976077258586883544921875,"lon":138.541100000000000136424205265939235687255859375,"poi_name":"Ch\u016b\u014d-shi","parent_id":"1848649","long":138.541100000000000136424205265939235687255859375},"1":{"id":"7415916","label":"Fuefuki-shi","value":"7415916","lat":35.59955000000000069348971010185778141021728515625,"lon":138.680669999999992114680935628712177276611328125,"poi_name":"Fuefuki-shi","parent_id":"1848649","long":138.680669999999992114680935628712177276611328125},"2":{"id":"1864076","label":"Fuji-yoshida Shi","value":"1864076","lat":35.4391499999999979308995534665882587432861328125,"lon":138.793679999999994834070093929767608642578125,"poi_name":"Fuji-yoshida Shi","parent_id":"1848649","long":138.793679999999994834070093929767608642578125},"3":{"id":"7415915","label":"Hokuto-shi","value":"7415915","lat":35.8371700000000004138200893066823482513427734375,"lon":138.39375000000001136868377216160297393798828125,"poi_name":"Hokuto-shi","parent_id":"1848649","long":138.39375000000001136868377216160297393798828125},"4":{"id":"9062326","label":"Kai-shi","value":"9062326","lat":35.71627000000000151658241520635783672332763671875,"lon":138.51870999999999867213773541152477264404296875,"poi_name":"Kai-shi","parent_id":"1848649","long":138.51870999999999867213773541152477264404296875},"5":{"id":"1859260","label":"Kitatsuru-gun","value":"1859260","lat":35.7841499999999967940311762504279613494873046875,"lon":138.9180000000000063664629124104976654052734375,"poi_name":"Kitatsuru-gun","parent_id":"1848649","long":138.9180000000000063664629124104976654052734375},"6":{"id":"1859096","label":"K\u014dfu-shi","value":"1859096","lat":35.6960600000000027876012609340250492095947265625,"lon":138.612609999999989440766512416303157806396484375,"poi_name":"K\u014dfu-shi","parent_id":"1848649","long":138.612609999999989440766512416303157806396484375},"7":{"id":"7415917","label":"K\u014dsh\u016b-shi","value":"7415917","lat":35.7264899999999983037923811934888362884521484375,"lon":138.791779999999988604031386785209178924560546875,"poi_name":"K\u014dsh\u016b-shi","parent_id":"1848649","long":138.791779999999988604031386785209178924560546875},"8":{"id":"7415914","label":"Minami Alps-shi","value":"7415914","lat":35.6506499999999988403942552395164966583251953125,"lon":138.35412999999999783540260978043079376220703125,"poi_name":"Minami Alps-shi","parent_id":"1848649","long":138.35412999999999783540260978043079376220703125},"9":{"id":"1857168","label":"Minamikoma-gun","value":"1857168","lat":35.4176700000000010959411156363785266876220703125,"lon":138.39913999999998850398696959018707275390625,"poi_name":"Minamikoma-gun","parent_id":"1848649","long":138.39913999999998850398696959018707275390625},"10":{"id":"7415908","label":"Minamitsuru-gun","value":"7415908","lat":35.49757000000000317641024594195187091827392578125,"lon":138.743590000000011741576599888503551483154296875,"poi_name":"Minamitsuru-gun","parent_id":"1848649","long":138.743590000000011741576599888503551483154296875},"11":{"id":"7415909","label":"Nakakoma-gun","value":"7415909","lat":35.62783999999999906549419392831623554229736328125,"lon":138.530000000000001136868377216160297393798828125,"poi_name":"Nakakoma-gun","parent_id":"1848649","long":138.530000000000001136868377216160297393798828125},"12":{"id":"1855362","label":"Nirasaki-shi","value":"1855362","lat":35.7177199999999999135980033315718173980712890625,"lon":138.412000000000006139089236967265605926513671875,"poi_name":"Nirasaki-shi","parent_id":"1848649","long":138.412000000000006139089236967265605926513671875},"13":{"id":"1855121","label":"Nishiyatsushiro-gun","value":"1855121","lat":35.53195000000000192130755749531090259552001953125,"lon":138.509999999999990905052982270717620849609375,"poi_name":"Nishiyatsushiro-gun","parent_id":"1848649","long":138.509999999999990905052982270717620849609375},"14":{"id":"1849556","label":"Tsuru-shi","value":"1849556","lat":35.53659999999999996589394868351519107818603515625,"lon":138.914890000000013969838619232177734375,"poi_name":"Tsuru-shi","parent_id":"1848649","long":138.914890000000013969838619232177734375},"15":{"id":"1849406","label":"Uenohara-shi","value":"1849406","lat":35.64999999999999857891452847979962825775146484375,"lon":139.05000000000001136868377216160297393798828125,"poi_name":"Uenohara-shi","parent_id":"1848649","long":139.05000000000001136868377216160297393798828125},"16":{"id":"1848648","label":"Yamanashi-shi","value":"1848648","lat":35.796909999999996898623066954314708709716796875,"lon":138.69742999999999710780684836208820343017578125,"poi_name":"Yamanashi-shi","parent_id":"1848649","long":138.69742999999999710780684836208820343017578125},"17":{"id":"1853562","label":"\u014ctsuki-shi","value":"1853562","lat":35.64285000000000280806489172391593456268310546875,"lon":138.919929999999993697201716713607311248779296875,"poi_name":"\u014ctsuki-shi","parent_id":"1848649","long":138.919929999999993697201716713607311248779296875}}