{"success":true,"remaining_lookups":8828,"0":{"id":"1862610","label":"Himi Shi","value":"1862610","lat":36.8721800000000001773514668457210063934326171875,"lon":136.940660000000008267306839115917682647705078125,"poi_name":"Himi Shi","parent_id":"1849872","long":136.940660000000008267306839115917682647705078125},"1":{"id":"1861653","label":"Imizu Shi","value":"1861653","lat":36.72939000000000220325091504491865634918212890625,"lon":137.087839999999999918145476840436458587646484375,"poi_name":"Imizu Shi","parent_id":"1849872","long":137.087839999999999918145476840436458587646484375},"2":{"id":"1858253","label":"Kurobe Shi","value":"1858253","lat":36.771129999999999427018337883055210113525390625,"lon":137.62164000000001351509126834571361541748046875,"poi_name":"Kurobe Shi","parent_id":"1849872","long":137.62164000000001351509126834571361541748046875},"3":{"id":"1855873","label":"Nakaniikawa Gun","value":"1855873","lat":36.63273000000000223508322960697114467620849609375,"lon":137.494229999999987512637744657695293426513671875,"poi_name":"Nakaniikawa Gun","parent_id":"1849872","long":137.494229999999987512637744657695293426513671875},"4":{"id":"1855693","label":"Namerikawa-shi","value":"1855693","lat":36.74933999999999656438376405276358127593994140625,"lon":137.381290000000007012204150669276714324951171875,"poi_name":"Namerikawa-shi","parent_id":"1849872","long":137.381290000000007012204150669276714324951171875},"5":{"id":"7391183","label":"Nanto Shi","value":"7391183","lat":36.45259999999999678266249247826635837554931640625,"lon":136.914299999999997226041159592568874359130859375,"poi_name":"Nanto Shi","parent_id":"1849872","long":136.914299999999997226041159592568874359130859375},"6":{"id":"1853505","label":"Oyabe Shi","value":"1853505","lat":36.66349000000000302179614664055407047271728515625,"lon":136.85498999999998659404809586703777313232421875,"poi_name":"Oyabe Shi","parent_id":"1849872","long":136.85498999999998659404809586703777313232421875},"7":{"id":"1852239","label":"Shimoniikawa Gun","value":"1852239","lat":36.89634000000000213503881241194903850555419921875,"lon":137.617250000000012732925824820995330810546875,"poi_name":"Shimoniikawa Gun","parent_id":"1849872","long":137.617250000000012732925824820995330810546875},"8":{"id":"1851028","label":"Takaoka Shi","value":"1851028","lat":36.7425700000000006184563972055912017822265625,"lon":136.962629999999990104697644710540771484375,"poi_name":"Takaoka Shi","parent_id":"1849872","long":136.962629999999990104697644710540771484375},"9":{"id":"1850038","label":"Tonami Shi","value":"1850038","lat":36.62395000000000067075234255753457546234130859375,"lon":136.98899000000000114596332423388957977294921875,"poi_name":"Tonami Shi","parent_id":"1849872","long":136.98899000000000114596332423388957977294921875},"10":{"id":"1849870","label":"Toyama Shi","value":"1849870","lat":36.55145999999999872898115427233278751373291015625,"lon":137.298720000000002983142621815204620361328125,"poi_name":"Toyama Shi","parent_id":"1849872","long":137.298720000000002983142621815204620361328125},"11":{"id":"1849235","label":"Uozu Shi","value":"1849235","lat":36.76234000000000179397829924710094928741455078125,"lon":137.489839999999986730472301132977008819580078125,"poi_name":"Uozu Shi","parent_id":"1849872","long":137.489839999999986730472301132977008819580078125}}