{"success":true,"remaining_lookups":8831,"0":{"id":"1865306","label":"Anan Shi","value":"1865306","lat":33.87716000000000349245965480804443359375,"lon":134.606439999999992096491041593253612518310546875,"poi_name":"Anan Shi","parent_id":"1850157","long":134.606439999999992096491041593253612518310546875},"1":{"id":"1864902","label":"Awa-shi","value":"1864902","lat":34.10000000000000142108547152020037174224853515625,"lon":134.25,"poi_name":"Awa-shi","parent_id":"1850157","long":134.25},"2":{"id":"1861303","label":"Itano-gun","value":"1861303","lat":34.14003000000000298541635856963694095611572265625,"lon":134.4694299999999884676071815192699432373046875,"poi_name":"Itano-gun","parent_id":"1850157","long":134.4694299999999884676071815192699432373046875},"3":{"id":"1860803","label":"Kaifu Gun","value":"1860803","lat":33.6811900000000008503775461576879024505615234375,"lon":134.353119999999989886418916285037994384765625,"poi_name":"Kaifu Gun","parent_id":"1850157","long":134.353119999999989886418916285037994384765625},"4":{"id":"1859771","label":"Katsuura Gun","value":"1859771","lat":33.91380000000000194404492503963410854339599609375,"lon":134.426410000000004174580681137740612030029296875,"poi_name":"Katsuura Gun","parent_id":"1850157","long":134.426410000000004174580681137740612030029296875},"5":{"id":"1858900","label":"Komatsushima Shi","value":"1858900","lat":33.9807100000000019690560293383896350860595703125,"lon":134.595290000000005647962098009884357452392578125,"poi_name":"Komatsushima Shi","parent_id":"1850157","long":134.595290000000005647962098009884357452392578125},"6":{"id":"7406321","label":"Mima Gun","value":"7406321","lat":33.96477999999999752844814793206751346588134765625,"lon":134.055190000000010286385077051818370819091796875,"poi_name":"Mima Gun","parent_id":"1850157","long":134.055190000000010286385077051818370819091796875},"7":{"id":"7406325","label":"Mima Shi","value":"7406325","lat":34.01888999999999896317603997886180877685546875,"lon":134.1433299999999917417881079018115997314453125,"poi_name":"Mima Shi","parent_id":"1850157","long":134.1433299999999917417881079018115997314453125},"8":{"id":"7406326","label":"Miyoshi Shi","value":"7406326","lat":33.93348999999999904275682638399302959442138671875,"lon":133.851840000000009922587196342647075653076171875,"poi_name":"Miyoshi Shi","parent_id":"1850157","long":133.851840000000009922587196342647075653076171875},"9":{"id":"1856695","label":"Miyoshi-gun","value":"1856695","lat":34.03647000000000133468347485177218914031982421875,"lon":133.9181800000000066575012169778347015380859375,"poi_name":"Miyoshi-gun","parent_id":"1850157","long":133.9181800000000066575012169778347015380859375},"10":{"id":"7406322","label":"My\u014dd\u014d Gun","value":"7406322","lat":33.98230000000000217141860048286616802215576171875,"lon":134.451899999999994861354934982955455780029296875,"poi_name":"My\u014dd\u014d Gun","parent_id":"1850157","long":134.451899999999994861354934982955455780029296875},"11":{"id":"1856299","label":"My\u014dzai Gun","value":"1856299","lat":33.991860000000002628439688123762607574462890625,"lon":134.34994000000000369254848919808864593505859375,"poi_name":"My\u014dzai Gun","parent_id":"1850157","long":134.34994000000000369254848919808864593505859375},"12":{"id":"7406323","label":"Naka Gun","value":"7406323","lat":33.80067999999999983629095368087291717529296875,"lon":134.260719999999992069206200540065765380859375,"poi_name":"Naka Gun","parent_id":"1850157","long":134.260719999999992069206200540065765380859375},"13":{"id":"10172903","label":"Naruto-shi","value":"10172903","lat":34.1788099999999985811882652342319488525390625,"lon":134.613570000000009940777090378105640411376953125,"poi_name":"Naruto-shi","parent_id":"1850157","long":134.613570000000009940777090378105640411376953125},"14":{"id":"1850156","label":"Tokushima Shi","value":"1850156","lat":34.04921999999999826513885636813938617706298828125,"lon":134.523590000000012878444977104663848876953125,"poi_name":"Tokushima Shi","parent_id":"1850157","long":134.523590000000012878444977104663848876953125},"15":{"id":"7406324","label":"Yoshinogawa Shi","value":"7406324","lat":34.03705000000000069348971010185778141021728515625,"lon":134.283539999999987912815413437783718109130859375,"poi_name":"Yoshinogawa Shi","parent_id":"1850157","long":134.283539999999987912815413437783718109130859375}}