{"success":true,"remaining_lookups":8830,"0":{"id":"1865750","label":"Adachi Ku","value":"1865750","lat":35.77879999999999682813722756691277027130126953125,"lon":139.795089999999987639967002905905246734619140625,"poi_name":"Adachi Ku","parent_id":"1850144","long":139.795089999999987639967002905905246734619140625},"1":{"id":"8304374","label":"Akiruno-shi","value":"8304374","lat":35.7328499999999991132426657713949680328369140625,"lon":139.225249999999988403942552395164966583251953125,"poi_name":"Akiruno-shi","parent_id":"1850144","long":139.225249999999988403942552395164966583251953125},"2":{"id":"1865425","label":"Akishima-shi","value":"1865425","lat":35.707819999999998117345967330038547515869140625,"lon":139.364180000000004611138137988746166229248046875,"poi_name":"Akishima-shi","parent_id":"1850144","long":139.364180000000004611138137988746166229248046875},"3":{"id":"1865187","label":"Arakawa Ku","value":"1865187","lat":35.7399300000000010868461686186492443084716796875,"lon":139.7812999999999874489731155335903167724609375,"poi_name":"Arakawa Ku","parent_id":"1850144","long":139.7812999999999874489731155335903167724609375},"4":{"id":"7475133","label":"Bunky\u014d-ku","value":"7475133","lat":35.7174499999999994770405464805662631988525390625,"lon":139.747289999999992460288922302424907684326171875,"poi_name":"Bunky\u014d-ku","parent_id":"1850144","long":139.747289999999992460288922302424907684326171875},"5":{"id":"1864529","label":"Chiyoda-ku","value":"1864529","lat":35.69402000000000185764292837120592594146728515625,"lon":139.75362999999998692146618850529193878173828125,"poi_name":"Chiyoda-ku","parent_id":"1850144","long":139.75362999999998692146618850529193878173828125},"6":{"id":"1864514","label":"Ch\u014dfu-shi","value":"1864514","lat":35.64999999999999857891452847979962825775146484375,"lon":139.55000000000001136868377216160297393798828125,"poi_name":"Ch\u014dfu-shi","parent_id":"1850144","long":139.55000000000001136868377216160297393798828125},"7":{"id":"1864487","label":"Ch\u016b\u014d Ku","value":"1864487","lat":35.66993000000000080262907431460916996002197265625,"lon":139.777050000000002683009370230138301849365234375,"poi_name":"Ch\u016b\u014d Ku","parent_id":"1850144","long":139.777050000000002683009370230138301849365234375},"8":{"id":"1864242","label":"Edogawa Ku","value":"1864242","lat":35.692419999999998481143848039209842681884765625,"lon":139.8756700000000137151801027357578277587890625,"poi_name":"Edogawa Ku","parent_id":"1850144","long":139.8756700000000137151801027357578277587890625},"9":{"id":"1864148","label":"Fuch\u016b-shi","value":"1864148","lat":35.66667000000000342652128892950713634490966796875,"lon":139.5,"poi_name":"Fuch\u016b-shi","parent_id":"1850144","long":139.5},"10":{"id":"1863780","label":"Fussa-shi","value":"1863780","lat":35.7358100000000007412381819449365139007568359375,"lon":139.336379999999991241566021926701068878173828125,"poi_name":"Fussa-shi","parent_id":"1850144","long":139.336379999999991241566021926701068878173828125},"11":{"id":"1863453","label":"Hachij\u014d Shich\u014d","value":"1863453","lat":33.0634399999999999408828443847596645355224609375,"lon":139.796559999999999490682967007160186767578125,"poi_name":"Hachij\u014d Shich\u014d","parent_id":"1850144","long":139.796559999999999490682967007160186767578125},"12":{"id":"8304375","label":"Hachi\u014dji-shi","value":"8304375","lat":35.65982999999999947249307297170162200927734375,"lon":139.287659999999988258423400111496448516845703125,"poi_name":"Hachi\u014dji-shi","parent_id":"1850144","long":139.287659999999988258423400111496448516845703125},"13":{"id":"1863251","label":"Hamura-shi","value":"1863251","lat":35.763509999999996580299921333789825439453125,"lon":139.314109999999999445208231918513774871826171875,"poi_name":"Hamura-shi","parent_id":"1850144","long":139.314109999999999445208231918513774871826171875},"14":{"id":"1862768","label":"Higashi-murayama-shi","value":"1862768","lat":35.75529000000000223735696636140346527099609375,"lon":139.46971999999999525243765674531459808349609375,"poi_name":"Higashi-murayama-shi","parent_id":"1850144","long":139.46971999999999525243765674531459808349609375},"15":{"id":"1862785","label":"Higashikurume-shi","value":"1862785","lat":35.75820999999999827423380338586866855621337890625,"lon":139.52953999999999723513610661029815673828125,"poi_name":"Higashikurume-shi","parent_id":"1850144","long":139.52953999999999723513610661029815673828125},"16":{"id":"1862703","label":"Higashiyamato-shi","value":"1862703","lat":35.7503099999999989222487783990800380706787109375,"lon":139.426600000000007639755494892597198486328125,"poi_name":"Higashiyamato-shi","parent_id":"1850144","long":139.426600000000007639755494892597198486328125},"17":{"id":"1862576","label":"Hino-shi","value":"1862576","lat":35.663330000000001973603502847254276275634765625,"lon":139.398650000000003501554601825773715972900390625,"poi_name":"Hino-shi","parent_id":"1850144","long":139.398650000000003501554601825773715972900390625},"18":{"id":"1861634","label":"Inagi-shi","value":"1861634","lat":35.63289999999999935198502498678863048553466796875,"lon":139.49290999999999485225998796522617340087890625,"poi_name":"Inagi-shi","parent_id":"1850144","long":139.49290999999999485225998796522617340087890625},"19":{"id":"1861322","label":"Itabashi-ku","value":"1861322","lat":35.75117999999999796045813127420842647552490234375,"lon":139.70927000000000361978891305625438690185546875,"poi_name":"Itabashi-ku","parent_id":"1850144","long":139.70927000000000361978891305625438690185546875},"20":{"id":"1859779","label":"Katsushika Ku","value":"1859779","lat":35.75323999999999813326212461106479167938232421875,"lon":139.855670000000003483364707790315151214599609375,"poi_name":"Katsushika Ku","parent_id":"1850144","long":139.855670000000003483364707790315151214599609375},"21":{"id":"1859308","label":"Kita-ku","value":"1859308","lat":35.7526399999999995316102285869419574737548828125,"lon":139.7334799999999859210220165550708770751953125,"poi_name":"Kita-ku","parent_id":"1850144","long":139.7334799999999859210220165550708770751953125},"22":{"id":"1859211","label":"Kiyose-shi","value":"1859211","lat":35.7855100000000021509549696929752826690673828125,"lon":139.526280000000014069883036427199840545654296875,"poi_name":"Kiyose-shi","parent_id":"1850144","long":139.526280000000014069883036427199840545654296875},"23":{"id":"1859115","label":"Kodaira-shi","value":"1859115","lat":35.7273799999999965848473948426544666290283203125,"lon":139.481729999999998881321516819298267364501953125,"poi_name":"Kodaira-shi","parent_id":"1850144","long":139.481729999999998881321516819298267364501953125},"24":{"id":"1859087","label":"Koganei-shi","value":"1859087","lat":35.70107999999999748297341284342110157012939453125,"lon":139.511040000000008376446203328669071197509765625,"poi_name":"Koganei-shi","parent_id":"1850144","long":139.511040000000008376446203328669071197509765625},"25":{"id":"1858962","label":"Kokubunji-shi","value":"1858962","lat":35.70551999999999992496668710373342037200927734375,"lon":139.46125000000000682121026329696178436279296875,"poi_name":"Kokubunji-shi","parent_id":"1850144","long":139.46125000000000682121026329696178436279296875},"26":{"id":"1858941","label":"Komae-shi","value":"1858941","lat":35.63486999999999937926986603997647762298583984375,"lon":139.5772299999999859210220165550708770751953125,"poi_name":"Komae-shi","parent_id":"1850144","long":139.5772299999999859210220165550708770751953125},"27":{"id":"1858346","label":"Kunitachi-shi","value":"1858346","lat":35.686340000000001282387529499828815460205078125,"lon":139.43878000000000838554115034639835357666015625,"poi_name":"Kunitachi-shi","parent_id":"1850144","long":139.43878000000000838554115034639835357666015625},"28":{"id":"1858665","label":"K\u014dt\u014d-ku","value":"1858665","lat":35.66667000000000342652128892950713634490966796875,"lon":139.81666999999998779458110220730304718017578125,"poi_name":"K\u014dt\u014d-ku","parent_id":"1850144","long":139.81666999999998779458110220730304718017578125},"29":{"id":"1857869","label":"Machida-shi","value":"1857869","lat":35.57625999999999777401171741075813770294189453125,"lon":139.4299800000000004729372449219226837158203125,"poi_name":"Machida-shi","parent_id":"1850144","long":139.4299800000000004729372449219226837158203125},"30":{"id":"1857420","label":"Meguro-ku","value":"1857420","lat":35.64146000000000213958628592081367969512939453125,"lon":139.6981700000000046202330850064754486083984375,"poi_name":"Meguro-ku","parent_id":"1850144","long":139.6981700000000046202330850064754486083984375},"31":{"id":"1857091","label":"Minato-ku","value":"1857091","lat":35.64999999999999857891452847979962825775146484375,"lon":139.733329999999995152393239550292491912841796875,"poi_name":"Minato-ku","parent_id":"1850144","long":139.733329999999995152393239550292491912841796875},"32":{"id":"1856942","label":"Mitaka-shi","value":"1856942","lat":35.6835099999999982856024871580302715301513671875,"lon":139.559629999999998517523636110126972198486328125,"poi_name":"Mitaka-shi","parent_id":"1850144","long":139.559629999999998517523636110126972198486328125},"33":{"id":"1856786","label":"Miyake Shich\u014d","value":"1856786","lat":34.07540999999999797864802530966699123382568359375,"lon":139.51537999999999328792910091578960418701171875,"poi_name":"Miyake Shich\u014d","parent_id":"1850144","long":139.51537999999999328792910091578960418701171875},"34":{"id":"1856368","label":"Musashimurayama-shi","value":"1856368","lat":35.75036999999999665078576072119176387786865234375,"lon":139.383909999999985984686645679175853729248046875,"poi_name":"Musashimurayama-shi","parent_id":"1850144","long":139.383909999999985984686645679175853729248046875},"35":{"id":"1856366","label":"Musashino-shi","value":"1856366","lat":35.7177099999999967394614941440522670745849609375,"lon":139.566000000000002501110429875552654266357421875,"poi_name":"Musashino-shi","parent_id":"1850144","long":139.566000000000002501110429875552654266357421875},"36":{"id":"1855848","label":"Nakano-ku","value":"1855848","lat":35.7109099999999983765519573353230953216552734375,"lon":139.662479999999987967385095544159412384033203125,"poi_name":"Nakano-ku","parent_id":"1850144","long":139.662479999999987967385095544159412384033203125},"37":{"id":"1855502","label":"Nerima-ku","value":"1855502","lat":35.73550999999999788769855513237416744232177734375,"lon":139.65167999999999892679625190794467926025390625,"poi_name":"Nerima-ku","parent_id":"1850144","long":139.65167999999999892679625190794467926025390625},"38":{"id":"1855156","label":"Nishitama-gun","value":"1855156","lat":35.7882900000000034879121812991797924041748046875,"lon":139.095139999999986457623890601098537445068359375,"poi_name":"Nishitama-gun","parent_id":"1850144","long":139.095139999999986457623890601098537445068359375},"39":{"id":"8304376","label":"Nishit\u014dky\u014d-shi","value":"8304376","lat":35.73485000000000155750967678613960742950439453125,"lon":139.5462400000000116051523946225643157958984375,"poi_name":"Nishit\u014dky\u014d-shi","parent_id":"1850144","long":139.5462400000000116051523946225643157958984375},"40":{"id":"2111520","label":"Ogasawara Shich\u014d","value":"2111520","lat":27.059129999999999682813722756691277027130126953125,"lon":142.212520000000012032614904455840587615966796875,"poi_name":"Ogasawara Shich\u014d","parent_id":"1850144","long":142.212520000000012032614904455840587615966796875},"41":{"id":"1852675","label":"Setagaya-ku","value":"1852675","lat":35.6465699999999969804775901138782501220703125,"lon":139.65325000000001409716787748038768768310546875,"poi_name":"Setagaya-ku","parent_id":"1850144","long":139.65325000000001409716787748038768768310546875},"42":{"id":"1852582","label":"Shibuya-ku","value":"1852582","lat":35.6640399999999999636202119290828704833984375,"lon":139.698209999999988895069691352546215057373046875,"poi_name":"Shibuya-ku","parent_id":"1850144","long":139.698209999999988895069691352546215057373046875},"43":{"id":"1852140","label":"Shinagawa-ku","value":"1852140","lat":35.6090200000000010049916454590857028961181640625,"lon":139.73016999999998688508640043437480926513671875,"poi_name":"Shinagawa-ku","parent_id":"1850144","long":139.73016999999998688508640043437480926513671875},"44":{"id":"1852083","label":"Shinjuku-ku","value":"1852083","lat":35.69384000000000156660462380386888980865478515625,"lon":139.70355000000000700310920365154743194580078125,"poi_name":"Shinjuku-ku","parent_id":"1850144","long":139.70355000000000700310920365154743194580078125},"45":{"id":"1851510","label":"Suginami-ku","value":"1851510","lat":35.69950999999999652345650247298181056976318359375,"lon":139.63641000000001213265932165086269378662109375,"poi_name":"Suginami-ku","parent_id":"1850144","long":139.63641000000001213265932165086269378662109375},"46":{"id":"1851451","label":"Sumida-ku","value":"1851451","lat":35.71072000000000201680450118146836757659912109375,"lon":139.801500000000004320099833421409130096435546875,"poi_name":"Sumida-ku","parent_id":"1850144","long":139.801500000000004320099833421409130096435546875},"47":{"id":"1851306","label":"Tachikawa-shi","value":"1851306","lat":35.71446999999999860619936953298747539520263671875,"lon":139.404529999999994060999597422778606414794921875,"poi_name":"Tachikawa-shi","parent_id":"1850144","long":139.404529999999994060999597422778606414794921875},"48":{"id":"7475134","label":"Tait\u014d-ku","value":"7475134","lat":35.7126099999999979672793415375053882598876953125,"lon":139.780000000000001136868377216160297393798828125,"poi_name":"Tait\u014d-ku","parent_id":"1850144","long":139.780000000000001136868377216160297393798828125},"49":{"id":"1850731","label":"Tama-shi","value":"1850731","lat":35.63054000000000343106876243837177753448486328125,"lon":139.439760000000006812115316279232501983642578125,"poi_name":"Tama-shi","parent_id":"1850144","long":139.439760000000006812115316279232501983642578125},"50":{"id":"7475135","label":"Toshima-ku","value":"7475135","lat":35.73246000000000321961124427616596221923828125,"lon":139.71539999999998826751834712922573089599609375,"poi_name":"Toshima-ku","parent_id":"1850144","long":139.71539999999998826751834712922573089599609375},"51":{"id":"1854160","label":"\u014cme-shi","value":"1854160","lat":35.7881399999999985084286890923976898193359375,"lon":139.27501000000000885847839526832103729248046875,"poi_name":"\u014cme-shi","parent_id":"1850144","long":139.27501000000000885847839526832103729248046875},"52":{"id":"1853724","label":"\u014cshima Shich\u014d","value":"1853724","lat":34.74047999999999802867023390717804431915283203125,"lon":139.409639999999996007318259216845035552978515625,"poi_name":"\u014cshima Shich\u014d","parent_id":"1850144","long":139.409639999999996007318259216845035552978515625},"53":{"id":"1853655","label":"\u014cta-ku","value":"1853655","lat":35.56125999999999720557752880267798900604248046875,"lon":139.7160499999999956344254314899444580078125,"poi_name":"\u014cta-ku","parent_id":"1850144","long":139.7160499999999956344254314899444580078125}}