{"success":true,"remaining_lookups":8832,"0":{"id":"1865004","label":"Ashikaga Shi","value":"1865004","lat":36.35931000000000068439476308412849903106689453125,"lon":139.45301000000000612999428994953632354736328125,"poi_name":"Ashikaga Shi","parent_id":"1850310","long":139.45301000000000612999428994953632354736328125},"1":{"id":"2112845","label":"Haga-gun","value":"2112845","lat":36.5031000000000034333424991928040981292724609375,"lon":140.11241000000001122316461987793445587158203125,"poi_name":"Haga-gun","parent_id":"1850310","long":140.11241000000001122316461987793445587158203125},"2":{"id":"1860097","label":"Kanuma-shi","value":"1860097","lat":36.57549999999999812416717759333550930023193359375,"lon":139.641490000000004556568455882370471954345703125,"poi_name":"Kanuma-shi","parent_id":"1850310","long":139.641490000000004556568455882370471954345703125},"3":{"id":"1859750","label":"Kawachi-gun","value":"1859750","lat":36.44550000000000267164068645797669887542724609375,"lon":139.910609999999991259755915962159633636474609375,"poi_name":"Kawachi-gun","parent_id":"1850310","long":139.910609999999991259755915962159633636474609375},"4":{"id":"2111835","label":"Mooka-shi","value":"2111835","lat":36.4500000000000028421709430404007434844970703125,"lon":140.05000000000001136868377216160297393798828125,"poi_name":"Mooka-shi","parent_id":"1850310","long":140.05000000000001136868377216160297393798828125},"5":{"id":"2111674","label":"Nasu-gun","value":"2111674","lat":36.94406000000000034333424991928040981292724609375,"lon":140.124290000000002009983290918171405792236328125,"poi_name":"Nasu-gun","parent_id":"1850310","long":140.124290000000002009983290918171405792236328125},"6":{"id":"7453512","label":"Nasukarasuyama-shi","value":"7453512","lat":36.662700000000000954969436861574649810791015625,"lon":140.1340500000000020008883439004421234130859375,"poi_name":"Nasukarasuyama-shi","parent_id":"1850310","long":140.1340500000000020008883439004421234130859375},"7":{"id":"7453513","label":"Nasushiobara-shi","value":"7453513","lat":36.99085000000000178488335222937166690826416015625,"lon":139.910519999999991114236763678491115570068359375,"poi_name":"Nasushiobara-shi","parent_id":"1850310","long":139.910519999999991114236763678491115570068359375},"8":{"id":"1861696","label":"Nikko-shi","value":"1861696","lat":36.75,"lon":139.69999999999998863131622783839702606201171875,"poi_name":"Nikko-shi","parent_id":"1850310","long":139.69999999999998863131622783839702606201171875},"9":{"id":"1853473","label":"Oyama-shi","value":"1853473","lat":36.30799999999999982946974341757595539093017578125,"lon":139.801950000000005047695594839751720428466796875,"poi_name":"Oyama-shi","parent_id":"1850310","long":139.801950000000005047695594839751720428466796875},"10":{"id":"7453516","label":"Sakura-shi","value":"7453516","lat":36.7236199999999968213160173036158084869384765625,"lon":140.002890000000007830749382264912128448486328125,"poi_name":"Sakura-shi","parent_id":"1850310","long":140.002890000000007830749382264912128448486328125},"11":{"id":"7453517","label":"Sano-shi","value":"7453517","lat":36.42405999999999721694621257483959197998046875,"lon":139.53577999999998837665771134197711944580078125,"poi_name":"Sano-shi","parent_id":"1850310","long":139.53577999999998837665771134197711944580078125},"12":{"id":"1852170","label":"Shimotsuga-gun","value":"1852170","lat":36.23763000000000289446688839234411716461181640625,"lon":139.730989999999991368895280174911022186279296875,"poi_name":"Shimotsuga-gun","parent_id":"1850310","long":139.730989999999991368895280174911022186279296875},"13":{"id":"8739981","label":"Shimotsuke-shi","value":"8739981","lat":36.40290999999999854708221391774713993072509765625,"lon":139.86110999999999648935045115649700164794921875,"poi_name":"Shimotsuke-shi","parent_id":"1850310","long":139.86110999999999648935045115649700164794921875},"14":{"id":"1851957","label":"Shioya-gun","value":"1851957","lat":36.74998000000000075715433922596275806427001953125,"lon":139.873439999999988003764883615076541900634765625,"poi_name":"Shioya-gun","parent_id":"1850310","long":139.873439999999988003764883615076541900634765625},"15":{"id":"7453590","label":"Tochigi-shi","value":"7453590","lat":36.41127999999999786950866109691560268402099609375,"lon":139.693569999999994024619809351861476898193359375,"poi_name":"Tochigi-shi","parent_id":"1850310","long":139.693569999999994024619809351861476898193359375},"16":{"id":"1849052","label":"Utsunomiya-shi","value":"1849052","lat":36.59687999999999874489731155335903167724609375,"lon":139.8865700000000060754246078431606292724609375,"poi_name":"Utsunomiya-shi","parent_id":"1850310","long":139.8865700000000060754246078431606292724609375},"17":{"id":"1848775","label":"Yaita-shi","value":"1848775","lat":36.827460000000002082742867060005664825439453125,"lon":139.898089999999996280166669748723506927490234375,"poi_name":"Yaita-shi","parent_id":"1850310","long":139.898089999999996280166669748723506927490234375},"18":{"id":"2111324","label":"\u014ctawara-shi","value":"2111324","lat":36.86128999999999678038875572383403778076171875,"lon":140.11914999999999054125510156154632568359375,"poi_name":"\u014ctawara-shi","parent_id":"1850310","long":140.11914999999999054125510156154632568359375}}