{"success":true,"remaining_lookups":8823,"0":{"id":"1864413","label":"Dait\u014d Shi","value":"1864413","lat":34.712839999999999918145476840436458587646484375,"lon":135.6357600000000047657522372901439666748046875,"poi_name":"Dait\u014d Shi","parent_id":"1853904","long":135.6357600000000047657522372901439666748046875},"1":{"id":"1864125","label":"Fujiidera-shi","value":"1864125","lat":34.574219999999996844053384847939014434814453125,"lon":135.597299999999989950083545409142971038818359375,"poi_name":"Fujiidera-shi","parent_id":"1853904","long":135.597299999999989950083545409142971038818359375},"2":{"id":"1863476","label":"Habikino-shi","value":"1863476","lat":34.55774999999999863575794734060764312744140625,"lon":135.6063100000000076761352829635143280029296875,"poi_name":"Habikino-shi","parent_id":"1853904","long":135.6063100000000076761352829635143280029296875},"3":{"id":"1863185","label":"Hannan Shi","value":"1863185","lat":34.33115000000000094360075308941304683685302734375,"lon":135.23520999999999503415892831981182098388671875,"poi_name":"Hannan Shi","parent_id":"1853904","long":135.23520999999999503415892831981182098388671875},"4":{"id":"1862751","label":"Higashi\u014dsaka Shi","value":"1862751","lat":34.671120000000001937223714776337146759033203125,"lon":135.617600000000010140865924768149852752685546875,"poi_name":"Higashi\u014dsaka Shi","parent_id":"1853904","long":135.617600000000010140865924768149852752685546875},"5":{"id":"1862538","label":"Hirakata Shi","value":"1862538","lat":34.81761999999999801502781338058412075042724609375,"lon":135.68171000000000958607415668666362762451171875,"poi_name":"Hirakata Shi","parent_id":"1853904","long":135.68171000000000958607415668666362762451171875},"6":{"id":"1862032","label":"Ibaraki Shi","value":"1862032","lat":34.8558799999999990859578247182071208953857421875,"lon":135.549980000000005020410753786563873291015625,"poi_name":"Ibaraki Shi","parent_id":"1853904","long":135.549980000000005020410753786563873291015625},"7":{"id":"1861785","label":"Ikeda Shi","value":"1861785","lat":34.8344299999999975625541992485523223876953125,"lon":135.438250000000010686562745831906795501708984375,"poi_name":"Ikeda Shi","parent_id":"1853904","long":135.438250000000010686562745831906795501708984375},"8":{"id":"1861089","label":"Izumi Shi","value":"1861089","lat":34.43135000000000189857018995098769664764404296875,"lon":135.471640000000007830749382264912128448486328125,"poi_name":"Izumi Shi","parent_id":"1853904","long":135.471640000000007830749382264912128448486328125},"9":{"id":"7391698","label":"Izumisano Shi","value":"7391698","lat":34.3739800000000030877345125190913677215576171875,"lon":135.33681999999998879502527415752410888671875,"poi_name":"Izumisano Shi","parent_id":"1853904","long":135.33681999999998879502527415752410888671875},"10":{"id":"1861094","label":"Izumi\u014dtsu Shi","value":"1861094","lat":34.50647000000000019781509763561189174652099609375,"lon":135.404619999999994206518749706447124481201171875,"poi_name":"Izumi\u014dtsu Shi","parent_id":"1853904","long":135.404619999999994206518749706447124481201171875},"11":{"id":"1860870","label":"Kadoma Shi","value":"1860870","lat":34.73214999999999719193510827608406543731689453125,"lon":135.599349999999986948751029558479785919189453125,"poi_name":"Kadoma Shi","parent_id":"1853904","long":135.599349999999986948751029558479785919189453125},"12":{"id":"1860764","label":"Kaizuka Shi","value":"1860764","lat":34.40104999999999790816218592226505279541015625,"lon":135.385099999999994224708643741905689239501953125,"poi_name":"Kaizuka Shi","parent_id":"1853904","long":135.385099999999994224708643741905689239501953125},"13":{"id":"1859912","label":"Kashiwara-shi","value":"1859912","lat":34.5792000000000001591615728102624416351318359375,"lon":135.62866999999999961801222525537014007568359375,"poi_name":"Kashiwara-shi","parent_id":"1853904","long":135.62866999999999961801222525537014007568359375},"14":{"id":"1859848","label":"Katano Shi","value":"1859848","lat":34.77215000000000344471118296496570110321044921875,"lon":135.686929999999989604475558735430240631103515625,"poi_name":"Katano Shi","parent_id":"1853904","long":135.686929999999989604475558735430240631103515625},"15":{"id":"1859747","label":"Kawachi-nagano Shi","value":"1859747","lat":34.40547000000000110730979940854012966156005859375,"lon":135.566920000000010304574971087276935577392578125,"poi_name":"Kawachi-nagano Shi","parent_id":"1853904","long":135.566920000000010304574971087276935577392578125},"16":{"id":"1859382","label":"Kishiwada Shi","value":"1859382","lat":34.427469999999999572537490166723728179931640625,"lon":135.416050000000012687451089732348918914794921875,"poi_name":"Kishiwada Shi","parent_id":"1853904","long":135.416050000000012687451089732348918914794921875},"17":{"id":"1857563","label":"Matsubara-shi","value":"1857563","lat":34.57726000000000254885890171863138675689697265625,"lon":135.552060000000011541487765498459339141845703125,"poi_name":"Matsubara-shi","parent_id":"1853904","long":135.552060000000011541487765498459339141845703125},"18":{"id":"1857170","label":"Minamikawachi-gun","value":"1857170","lat":34.46860000000000212594386539421975612640380859375,"lon":135.648670000000009849827620200812816619873046875,"poi_name":"Minamikawachi-gun","parent_id":"1853904","long":135.648670000000009849827620200812816619873046875},"19":{"id":"1857043","label":"Minoo Shi","value":"1857043","lat":34.85589999999999832880348549224436283111572265625,"lon":135.47926000000001067746779881417751312255859375,"poi_name":"Minoo Shi","parent_id":"1853904","long":135.47926000000001067746779881417751312255859375},"20":{"id":"1856974","label":"Mishima-gun","value":"1856974","lat":34.8988700000000022782842279411852359771728515625,"lon":135.65325000000001409716787748038768768310546875,"poi_name":"Mishima-gun","parent_id":"1853904","long":135.65325000000001409716787748038768768310546875},"21":{"id":"8300631","label":"Moriguchi Shi","value":"8300631","lat":34.7444100000000020145307644270360469818115234375,"lon":135.5694799999999986539478413760662078857421875,"poi_name":"Moriguchi Shi","parent_id":"1853904","long":135.5694799999999986539478413760662078857421875},"22":{"id":"1855493","label":"Neyagawa Shi","value":"1855493","lat":34.765389999999996462065610103309154510498046875,"lon":135.62695999999999685314833186566829681396484375,"poi_name":"Neyagawa Shi","parent_id":"1853904","long":135.62695999999999685314833186566829681396484375},"23":{"id":"1853897","label":"Osaka-shi","value":"1853897","lat":34.69373999999999824694896233268082141876220703125,"lon":135.502199999999987767296261154115200042724609375,"poi_name":"Osaka-shi","parent_id":"1853904","long":135.502199999999987767296261154115200042724609375},"24":{"id":"1853167","label":"Sakai Shi","value":"1853167","lat":34.5316600000000022419044398702681064605712890625,"lon":135.494599999999991268850862979888916015625,"poi_name":"Sakai Shi","parent_id":"1853904","long":135.494599999999991268850862979888916015625},"25":{"id":"7391703","label":"Senboku-gun","value":"7391703","lat":34.4924400000000019872459233738481998443603515625,"lon":135.392419999999987112460075877606868743896484375,"poi_name":"Senboku-gun","parent_id":"1853904","long":135.392419999999987112460075877606868743896484375},"26":{"id":"7391700","label":"Sennan Shi","value":"7391700","lat":34.351640000000003283275873400270938873291015625,"lon":135.29176000000001067746779881417751312255859375,"poi_name":"Sennan Shi","parent_id":"1853904","long":135.29176000000001067746779881417751312255859375},"27":{"id":"1852716","label":"Sennan-gun","value":"1852716","lat":34.3068700000000035288394428789615631103515625,"lon":135.1571500000000014551915228366851806640625,"poi_name":"Sennan-gun","parent_id":"1853904","long":135.1571500000000014551915228366851806640625},"28":{"id":"1852642","label":"Settsu Shi","value":"1852642","lat":34.7721999999999979991116560995578765869140625,"lon":135.56824000000000296495272777974605560302734375,"poi_name":"Settsu Shi","parent_id":"1853904","long":135.56824000000000296495272777974605560302734375},"29":{"id":"1852523","label":"Shijonawate Shi","value":"1852523","lat":34.73241999999999762849256512708961963653564453125,"lon":135.66784000000001242369762621819972991943359375,"poi_name":"Shijonawate Shi","parent_id":"1853904","long":135.66784000000001242369762621819972991943359375},"30":{"id":"1851482","label":"Suita Shi","value":"1851482","lat":34.78555999999999670535544282756745815277099609375,"lon":135.519090000000005602487362921237945556640625,"poi_name":"Suita Shi","parent_id":"1853904","long":135.519090000000005602487362921237945556640625},"31":{"id":"1851123","label":"Takaishi Shi","value":"1851123","lat":34.52868000000000137106326292268931865692138671875,"lon":135.42957999999998719431459903717041015625,"poi_name":"Takaishi Shi","parent_id":"1853904","long":135.42957999999998719431459903717041015625},"32":{"id":"1850907","label":"Takatsuki Shi","value":"1850907","lat":34.88078999999999751935320091433823108673095703125,"lon":135.607920000000007121343514882028102874755859375,"poi_name":"Takatsuki Shi","parent_id":"1853904","long":135.607920000000007121343514882028102874755859375},"33":{"id":"1850033","label":"Tondabayashi Shi","value":"1850033","lat":34.48881999999999692363417125307023525238037109375,"lon":135.59431000000000722138793207705020904541015625,"poi_name":"Tondabayashi Shi","parent_id":"1853904","long":135.59431000000000722138793207705020904541015625},"34":{"id":"7391701","label":"Toyonaka Shi","value":"7391701","lat":34.78191000000000343561623594723641872406005859375,"lon":135.4727599999999938518158160150051116943359375,"poi_name":"Toyonaka Shi","parent_id":"1853904","long":135.4727599999999938518158160150051116943359375},"35":{"id":"8714934","label":"Toyono Gun","value":"8714934","lat":34.9631600000000020145307644270360469818115234375,"lon":135.4311999999999898136593401432037353515625,"poi_name":"Toyono Gun","parent_id":"1853904","long":135.4311999999999898136593401432037353515625},"36":{"id":"1848519","label":"Yao-shi","value":"1848519","lat":34.6262899999999973488229443319141864776611328125,"lon":135.600989999999995916368789039552211761474609375,"poi_name":"Yao-shi","parent_id":"1853904","long":135.600989999999995916368789039552211761474609375},"37":{"id":"7391699","label":"\u014csaka-sayama Shi","value":"7391699","lat":34.49645000000000294448909698985517024993896484375,"lon":135.548939999999987549017532728612422943115234375,"poi_name":"\u014csaka-sayama Shi","parent_id":"1853904","long":135.548939999999987549017532728612422943115234375}}