{"success":true,"remaining_lookups":8843,"0":{"id":"7418804","label":"Got\u014d Shi","value":"7418804","lat":32.6989200000000010959411156363785266876220703125,"lon":128.76870999999999867213773541152477264404296875,"poi_name":"Got\u014d Shi","parent_id":"1856156","long":128.76870999999999867213773541152477264404296875},"1":{"id":"1862734","label":"Higashisonigi-gun","value":"1862734","lat":33.07938999999999651890902896411716938018798828125,"lon":129.918939999999992096491041593253612518310546875,"poi_name":"Higashisonigi-gun","parent_id":"1856156","long":129.918939999999992096491041593253612518310546875},"2":{"id":"7418805","label":"Hirado Shi","value":"7418805","lat":33.31595999999999690999175072647631168365478515625,"lon":129.486880000000013524186215363442897796630859375,"poi_name":"Hirado Shi","parent_id":"1856156","long":129.486880000000013524186215363442897796630859375},"3":{"id":"1861758","label":"Iki Shi","value":"1861758","lat":33.785539999999997462509782053530216217041015625,"lon":129.71670000000000300133251585066318511962890625,"poi_name":"Iki Shi","parent_id":"1856156","long":129.71670000000000300133251585066318511962890625},"4":{"id":"8301120","label":"Isahaya-shi","value":"8301120","lat":32.86912000000000233512764680199325084686279296875,"lon":130.06369000000000824002199806272983551025390625,"poi_name":"Isahaya-shi","parent_id":"1856156","long":130.06369000000000824002199806272983551025390625},"5":{"id":"1859301","label":"Kitamatsuura-gun","value":"1859301","lat":33.238709999999997535269358195364475250244140625,"lon":129.657859999999999445208231918513774871826171875,"poi_name":"Kitamatsuura-gun","parent_id":"1856156","long":129.657859999999999445208231918513774871826171875},"6":{"id":"1857466","label":"Matsuura Shi","value":"1857466","lat":33.3533400000000028740032576024532318115234375,"lon":129.735039999999997917257132939994335174560546875,"poi_name":"Matsuura Shi","parent_id":"1856156","long":129.735039999999997917257132939994335174560546875},"7":{"id":"1857159","label":"Minamimatsuura Gun","value":"1857159","lat":32.953000000000002955857780762016773223876953125,"lon":129.068549999999987676346790976822376251220703125,"poi_name":"Minamimatsuura Gun","parent_id":"1856156","long":129.068549999999987676346790976822376251220703125},"8":{"id":"7418806","label":"Minamishimabara-shi","value":"7418806","lat":32.67564999999999741930878371931612491607666015625,"lon":130.256949999999989131538313813507556915283203125,"poi_name":"Minamishimabara-shi","parent_id":"1856156","long":130.256949999999989131538313813507556915283203125},"9":{"id":"1856152","label":"Nagasaki-shi","value":"1856152","lat":32.78206000000000130967237055301666259765625,"lon":129.827149999999988949639373458921909332275390625,"poi_name":"Nagasaki-shi","parent_id":"1856156","long":129.827149999999988949639373458921909332275390625},"10":{"id":"1855163","label":"Nishisonogi-gun","value":"1855163","lat":32.83438000000000300815372611396014690399169921875,"lon":129.8601899999999886858859099447727203369140625,"poi_name":"Nishisonogi-gun","parent_id":"1856156","long":129.8601899999999886858859099447727203369140625},"11":{"id":"7418808","label":"Saikai-shi","value":"7418808","lat":32.99258999999999986130205797962844371795654296875,"lon":129.681999999999987949195201508700847625732421875,"poi_name":"Saikai-shi","parent_id":"1856156","long":129.681999999999987949195201508700847625732421875},"12":{"id":"1852895","label":"Sasebo Shi","value":"1852895","lat":33.189920000000000754880602471530437469482421875,"lon":129.689600000000012869350030086934566497802734375,"poi_name":"Sasebo Shi","parent_id":"1856156","long":129.689600000000012869350030086934566497802734375},"13":{"id":"7418809","label":"Shimabara-shi","value":"7418809","lat":32.79428999999999660985849914140999317169189453125,"lon":130.329250000000001818989403545856475830078125,"poi_name":"Shimabara-shi","parent_id":"1856156","long":130.329250000000001818989403545856475830078125},"14":{"id":"7418810","label":"Tsushima Shi","value":"7418810","lat":34.4084500000000019781509763561189174652099609375,"lon":129.32598999999999023202690295875072479248046875,"poi_name":"Tsushima Shi","parent_id":"1856156","long":129.32598999999999023202690295875072479248046875},"15":{"id":"7418811","label":"Unzen-shi","value":"7418811","lat":32.7839000000000027057467377744615077972412109375,"lon":130.228280000000012250893632881343364715576171875,"poi_name":"Unzen-shi","parent_id":"1856156","long":130.228280000000012250893632881343364715576171875},"16":{"id":"7418807","label":"\u014cmura-shi","value":"7418807","lat":32.9397799999999989495336194522678852081298828125,"lon":129.992970000000013897079043090343475341796875,"poi_name":"\u014cmura-shi","parent_id":"1856156","long":129.992970000000013897079043090343475341796875}}