{"success":true,"remaining_lookups":8847,"0":{"id":"1861901","label":"Iga-shi","value":"1861901","lat":34.76854999999999762394509161822497844696044921875,"lon":136.13013000000000829459168016910552978515625,"poi_name":"Iga-shi","parent_id":"1857352","long":136.13013000000000829459168016910552978515625},"1":{"id":"7417702","label":"Inabe-gun","value":"7417702","lat":35.0789299999999997226041159592568874359130859375,"lon":136.590990000000005011315806768834590911865234375,"poi_name":"Inabe-gun","parent_id":"1857352","long":136.590990000000005011315806768834590911865234375},"2":{"id":"7417710","label":"Inabe-shi","value":"7417710","lat":35.16060999999999836518327356316149234771728515625,"lon":136.5078800000000001091393642127513885498046875,"poi_name":"Inabe-shi","parent_id":"1857352","long":136.5078800000000001091393642127513885498046875},"3":{"id":"1861434","label":"Ise-shi","value":"1861434","lat":34.46739999999999781721271574497222900390625,"lon":136.71584999999998899511410854756832122802734375,"poi_name":"Ise-shi","parent_id":"1857352","long":136.71584999999998899511410854756832122802734375},"4":{"id":"7417711","label":"Kameyama Shi","value":"7417711","lat":34.86865999999999843339537619613111019134521484375,"lon":136.393450000000001409716787748038768768310546875,"poi_name":"Kameyama Shi","parent_id":"1857352","long":136.393450000000001409716787748038768768310546875},"5":{"id":"1859297","label":"Kitamuro-gun","value":"1859297","lat":34.1759899999999987585397320799529552459716796875,"lon":136.2368999999999914507498033344745635986328125,"poi_name":"Kitamuro-gun","parent_id":"1857352","long":136.2368999999999914507498033344745635986328125},"6":{"id":"1858408","label":"Kumano-shi","value":"1858408","lat":33.922899999999998499333742074668407440185546875,"lon":136.02645999999998593921191059052944183349609375,"poi_name":"Kumano-shi","parent_id":"1857352","long":136.02645999999998593921191059052944183349609375},"7":{"id":"1857966","label":"Kuwana-gun","value":"1857966","lat":35.06564999999999798774297232739627361297607421875,"lon":136.741479999999995698090060614049434661865234375,"poi_name":"Kuwana-gun","parent_id":"1857352","long":136.741479999999995698090060614049434661865234375},"8":{"id":"1857965","label":"Kuwana-shi","value":"1857965","lat":35.06175999999999959300112095661461353302001953125,"lon":136.683480000000002974047674797475337982177734375,"poi_name":"Kuwana-shi","parent_id":"1857352","long":136.683480000000002974047674797475337982177734375},"9":{"id":"1857496","label":"Matsuzaka-shi","value":"1857496","lat":34.5666700000000020054358174093067646026611328125,"lon":136.533330000000006521077011711895465850830078125,"poi_name":"Matsuzaka-shi","parent_id":"1857352","long":136.533330000000006521077011711895465850830078125},"10":{"id":"1857355","label":"Mie-gun","value":"1857355","lat":35.04352000000000089130480773746967315673828125,"lon":136.509099999999989449861459434032440185546875,"poi_name":"Mie-gun","parent_id":"1857352","long":136.509099999999989449861459434032440185546875},"11":{"id":"7417703","label":"Minamimuro-gun","value":"7417703","lat":33.81304999999999694182406528852880001068115234375,"lon":135.991250000000007958078640513122081756591796875,"poi_name":"Minamimuro-gun","parent_id":"1857352","long":135.991250000000007958078640513122081756591796875},"12":{"id":"1856290","label":"Nabari-shi","value":"1856290","lat":34.626429999999999154169927351176738739013671875,"lon":136.108249999999998181010596454143524169921875,"poi_name":"Nabari-shi","parent_id":"1857352","long":136.108249999999998181010596454143524169921875},"13":{"id":"1853513","label":"Owase Shi","value":"1853513","lat":34.03690999999999888814272708259522914886474609375,"lon":136.183079999999989695425028912723064422607421875,"poi_name":"Owase Shi","parent_id":"1857352","long":136.183079999999989695425028912723064422607421875},"14":{"id":"1852464","label":"Shima-shi","value":"1852464","lat":34.33794999999999930651028989814221858978271484375,"lon":136.8133599999999887586454860866069793701171875,"poi_name":"Shima-shi","parent_id":"1857352","long":136.8133599999999887586454860866069793701171875},"15":{"id":"1851345","label":"Suzuka-shi","value":"1851345","lat":34.8811400000000020327206584624946117401123046875,"lon":136.5844299999999975625541992485523223876953125,"poi_name":"Suzuka-shi","parent_id":"1857352","long":136.5844299999999975625541992485523223876953125},"16":{"id":"7417704","label":"Taki-gun","value":"7417704","lat":34.36852999999999980218490236438810825347900390625,"lon":136.338699999999988676790962927043437957763671875,"poi_name":"Taki-gun","parent_id":"1857352","long":136.338699999999988676790962927043437957763671875},"17":{"id":"1850342","label":"Toba-shi","value":"1850342","lat":34.48333000000000225782059715129435062408447265625,"lon":136.83332999999998946805135346949100494384765625,"poi_name":"Toba-shi","parent_id":"1857352","long":136.83332999999998946805135346949100494384765625},"18":{"id":"1849544","label":"Tsu-shi","value":"1849544","lat":34.71705999999999647798176738433539867401123046875,"lon":136.506159999999994170138961635529994964599609375,"poi_name":"Tsu-shi","parent_id":"1857352","long":136.506159999999994170138961635529994964599609375},"19":{"id":"1848873","label":"Watarai-gun","value":"1848873","lat":34.3397599999999982856024871580302715301513671875,"lon":136.52681000000001176886144094169139862060546875,"poi_name":"Watarai-gun","parent_id":"1857352","long":136.52681000000001176886144094169139862060546875},"20":{"id":"1848370","label":"Yokkaichi-shi","value":"1848370","lat":34.96475000000000221689333557151257991790771484375,"lon":136.624429999999989604475558735430240631103515625,"poi_name":"Yokkaichi-shi","parent_id":"1857352","long":136.624429999999989604475558735430240631103515625}}