{"success":true,"remaining_lookups":8852,"0":{"id":"1865649","label":"Aira Gun","value":"1865649","lat":31.96497000000000099362296168692409992218017578125,"lon":130.728710000000006630216375924646854400634765625,"poi_name":"Aira Gun","parent_id":"1860825","long":130.728710000000006630216375924646854400634765625},"1":{"id":"1865650","label":"Aira Shi","value":"1865650","lat":31.784600000000001074340616469271481037139892578125,"lon":130.606680000000011432348401285707950592041015625,"poi_name":"Aira Shi","parent_id":"1860825","long":130.606680000000011432348401285707950592041015625},"2":{"id":"1865399","label":"Akune Shi","value":"1865399","lat":32.025159999999999627107172273099422454833984375,"lon":130.197679999999991196091286838054656982421875,"poi_name":"Akune Shi","parent_id":"1860825","long":130.197679999999991196091286838054656982421875},"3":{"id":"7383987","label":"Amami Shi","value":"7383987","lat":28.345420000000000726458893041126430034637451171875,"lon":129.5022099999999909414327703416347503662109375,"poi_name":"Amami Shi","parent_id":"1860825","long":129.5022099999999909414327703416347503662109375},"4":{"id":"7383988","label":"Hioki Shi","value":"7383988","lat":31.599289999999999878355083637870848178863525390625,"lon":130.382080000000001973603502847254276275634765625,"poi_name":"Hioki Shi","parent_id":"1860825","long":130.382080000000001973603502847254276275634765625},"5":{"id":"1862007","label":"Ibusuki Shi","value":"1862007","lat":31.229620000000000601403371547348797321319580078125,"lon":130.580600000000004001776687800884246826171875,"poi_name":"Ibusuki Shi","parent_id":"1860825","long":130.580600000000004001776687800884246826171875},"6":{"id":"7383990","label":"Ichikikushikino Shi","value":"7383990","lat":31.732810000000000627551344223320484161376953125,"lon":130.28892999999999346982804127037525177001953125,"poi_name":"Ichikikushikino Shi","parent_id":"1860825","long":130.28892999999999346982804127037525177001953125},"7":{"id":"7383991","label":"Isa Shi","value":"7383991","lat":32.05834999999999723740984336473047733306884765625,"lon":130.60104000000001178705133497714996337890625,"poi_name":"Isa Shi","parent_id":"1860825","long":130.60104000000001178705133497714996337890625},"8":{"id":"1861090","label":"Izumi Shi","value":"1861090","lat":32.0641200000000026193447411060333251953125,"lon":130.36097000000000889485818333923816680908203125,"poi_name":"Izumi Shi","parent_id":"1860825","long":130.36097000000000889485818333923816680908203125},"9":{"id":"7383997","label":"Izumi-gun","value":"7383997","lat":32.18746999999999758301783003844320774078369140625,"lon":130.163010000000014088072930462658405303955078125,"poi_name":"Izumi-gun","parent_id":"1860825","long":130.163010000000014088072930462658405303955078125},"10":{"id":"1860823","label":"Kagoshima Shi","value":"1860823","lat":31.58003000000000071167960413731634616851806640625,"lon":130.528060000000010631993063725531101226806640625,"poi_name":"Kagoshima Shi","parent_id":"1860825","long":130.528060000000010631993063725531101226806640625},"11":{"id":"7383998","label":"Kagoshima-gun","value":"7383998","lat":29.96148000000000166664904099889099597930908203125,"lon":129.921300000000002228262019343674182891845703125,"poi_name":"Kagoshima-gun","parent_id":"1860825","long":129.921300000000002228262019343674182891845703125},"12":{"id":"8300556","label":"Kanoya Shi","value":"8300556","lat":31.42663999999999902001945883966982364654541015625,"lon":130.86734999999998763087205588817596435546875,"poi_name":"Kanoya Shi","parent_id":"1860825","long":130.86734999999998763087205588817596435546875},"13":{"id":"7383999","label":"Kimotsuki Gun","value":"7383999","lat":31.21609000000000122554411063902080059051513671875,"lon":130.893769999999989295247360132634639739990234375,"poi_name":"Kimotsuki Gun","parent_id":"1860825","long":130.893769999999989295247360132634639739990234375},"14":{"id":"7383992","label":"Kirishima Shi","value":"7383992","lat":31.80557999999999907458914094604551792144775390625,"lon":130.781640000000010104486136697232723236083984375,"poi_name":"Kirishima Shi","parent_id":"1860825","long":130.781640000000010104486136697232723236083984375},"15":{"id":"8714932","label":"Kumage-gun","value":"8714932","lat":30.38871999999999928832039586268365383148193359375,"lon":130.637339999999994688550941646099090576171875,"poi_name":"Kumage-gun","parent_id":"1860825","long":130.637339999999994688550941646099090576171875},"16":{"id":"1857710","label":"Makurazaki Shi","value":"1857710","lat":31.29138999999999981582732289098203182220458984375,"lon":130.306810000000012905729818157851696014404296875,"poi_name":"Makurazaki Shi","parent_id":"1860825","long":130.306810000000012905729818157851696014404296875},"17":{"id":"7383993","label":"Minamikyushu Shi","value":"7383993","lat":31.340379999999999682813722756691277027130126953125,"lon":130.436769999999995661710272543132305145263671875,"poi_name":"Minamikyushu Shi","parent_id":"1860825","long":130.436769999999995661710272543132305145263671875},"18":{"id":"7383994","label":"Minamisatsuma Shi","value":"7383994","lat":31.387930000000000774207364884205162525177001953125,"lon":130.26961000000000012732925824820995330810546875,"poi_name":"Minamisatsuma Shi","parent_id":"1860825","long":130.26961000000000012732925824820995330810546875},"19":{"id":"1855201","label":"Nishinoomote Shi","value":"1855201","lat":30.7053599999999988767740433104336261749267578125,"lon":131.015209999999996171027305535972118377685546875,"poi_name":"Nishinoomote Shi","parent_id":"1860825","long":131.015209999999996171027305535972118377685546875},"20":{"id":"1852852","label":"Satsuma Gun","value":"1852852","lat":31.940000000000001278976924368180334568023681640625,"lon":130.476480000000009340510587207973003387451171875,"poi_name":"Satsuma Gun","parent_id":"1860825","long":130.476480000000009340510587207973003387451171875},"21":{"id":"7383995","label":"Satsumasendai Shi","value":"7383995","lat":31.82376000000000004774847184307873249053955078125,"lon":130.258990000000011377778719179332256317138671875,"poi_name":"Satsumasendai Shi","parent_id":"1860825","long":130.258990000000011377778719179332256317138671875},"22":{"id":"1852587","label":"Shibushi-shi","value":"1852587","lat":31.483329999999998705106918350793421268463134765625,"lon":131.099999999999994315658113919198513031005859375,"poi_name":"Shibushi-shi","parent_id":"1860825","long":131.099999999999994315658113919198513031005859375},"23":{"id":"1851576","label":"Soo Gun","value":"1851576","lat":31.451830000000001064108801074326038360595703125,"lon":130.97205999999999903593561612069606781005859375,"poi_name":"Soo Gun","parent_id":"1860825","long":130.97205999999999903593561612069606781005859375},"24":{"id":"7383996","label":"Soo Shi","value":"7383996","lat":31.656150000000000233058017329312860965728759765625,"lon":130.974700000000012778400559909641742706298828125,"poi_name":"Soo Shi","parent_id":"1860825","long":130.974700000000012778400559909641742706298828125},"25":{"id":"1850587","label":"Tarumizu Shi","value":"1850587","lat":31.51583000000000112095221993513405323028564453125,"lon":130.760459999999994806785252876579761505126953125,"poi_name":"Tarumizu Shi","parent_id":"1860825","long":130.760459999999994806785252876579761505126953125},"26":{"id":"1853737","label":"\u014cshima-gun","value":"1853737","lat":28.247640000000000526370058651082217693328857421875,"lon":129.246610000000003992681740783154964447021484375,"poi_name":"\u014cshima-gun","parent_id":"1860825","long":129.246610000000003992681740783154964447021484375}}