{"success":true,"remaining_lookups":8855,"0":{"id":"7467838","label":"Hakui Gun","value":"7467838","lat":37.00459000000000031604940886609256267547607421875,"lon":136.78115999999999985448084771633148193359375,"poi_name":"Hakui Gun","parent_id":"1861387","long":136.78115999999999985448084771633148193359375},"1":{"id":"1863340","label":"Hakui Shi","value":"1863340","lat":36.91136000000000194631866179406642913818359375,"lon":136.81625999999999976353137753903865814208984375,"poi_name":"Hakui Shi","parent_id":"1861387","long":136.81625999999999976353137753903865814208984375},"2":{"id":"7467881","label":"Hakusan Shi","value":"7467881","lat":36.27557999999999793772076372988522052764892578125,"lon":136.669659999999993260644259862601757049560546875,"poi_name":"Hakusan Shi","parent_id":"1861387","long":136.669659999999993260644259862601757049560546875},"3":{"id":"7467839","label":"H\u014dsu Gun","value":"7467839","lat":37.2941000000000002501110429875552654266357421875,"lon":137.0310699999999997089616954326629638671875,"poi_name":"H\u014dsu Gun","parent_id":"1861387","long":137.0310699999999997089616954326629638671875},"4":{"id":"1860845","label":"Kaga Shi","value":"1860845","lat":36.25502999999999786950866109691560268402099609375,"lon":136.379629999999991696313372813165187835693359375,"poi_name":"Kaga Shi","parent_id":"1861387","long":136.379629999999991696313372813165187835693359375},"5":{"id":"1860811","label":"Kahoku Gun","value":"1860811","lat":36.6903300000000029967850423417985439300537109375,"lon":136.74898999999999205101630650460720062255859375,"poi_name":"Kahoku Gun","parent_id":"1861387","long":136.74898999999999205101630650460720062255859375},"6":{"id":"7467880","label":"Kahoku Shi","value":"7467880","lat":36.7436500000000023646862246096134185791015625,"lon":136.73273000000000365616870112717151641845703125,"poi_name":"Kahoku Shi","parent_id":"1861387","long":136.73273000000000365616870112717151641845703125},"7":{"id":"1860240","label":"Kanazawa-shi","value":"1860240","lat":36.51919000000000181671566679142415523529052734375,"lon":136.708359999999998990460881032049655914306640625,"poi_name":"Kanazawa-shi","parent_id":"1861387","long":136.708359999999998990460881032049655914306640625},"8":{"id":"7467840","label":"Kashima Gun","value":"7467840","lat":36.9766699999999985948306857608258724212646484375,"lon":136.894689999999997098711901344358921051025390625,"poi_name":"Kashima Gun","parent_id":"1861387","long":136.894689999999997098711901344358921051025390625},"9":{"id":"1858904","label":"Komatsu Shi","value":"1858904","lat":36.3110599999999976716935634613037109375,"lon":136.498410000000006903064786456525325775146484375,"poi_name":"Komatsu Shi","parent_id":"1861387","long":136.498410000000006903064786456525325775146484375},"10":{"id":"7467879","label":"Nanao Shi","value":"7467879","lat":37.078440000000000509317032992839813232421875,"lon":136.928599999999988767740433104336261749267578125,"poi_name":"Nanao Shi","parent_id":"1861387","long":136.928599999999988767740433104336261749267578125},"11":{"id":"1855000","label":"Nomi Gun","value":"1855000","lat":36.46921999999999997044142219237983226776123046875,"lon":136.5366099999999960346031002700328826904296875,"poi_name":"Nomi Gun","parent_id":"1861387","long":136.5366099999999960346031002700328826904296875},"12":{"id":"7467882","label":"Nomi Shi","value":"7467882","lat":36.4359299999999990404830896295607089996337890625,"lon":136.54455999999998994098859839141368865966796875,"poi_name":"Nomi Shi","parent_id":"1861387","long":136.54455999999998994098859839141368865966796875},"13":{"id":"1854977","label":"Nonoichi-shi","value":"1854977","lat":36.5228800000000006775735528208315372467041015625,"lon":136.60588999999998804923961870372295379638671875,"poi_name":"Nonoichi-shi","parent_id":"1861387","long":136.60588999999998804923961870372295379638671875},"14":{"id":"1851337","label":"Suzu Shi","value":"1851337","lat":37.45532999999999645979187334887683391571044921875,"lon":137.225869999999986248440109193325042724609375,"poi_name":"Suzu Shi","parent_id":"1861387","long":137.225869999999986248440109193325042724609375},"15":{"id":"1848973","label":"Wajima Shi","value":"1848973","lat":37.3375300000000009958966984413564205169677734375,"lon":136.887570000000010850271792151033878326416015625,"poi_name":"Wajima Shi","parent_id":"1861387","long":136.887570000000010850271792151033878326416015625}}