{"success":true,"remaining_lookups":8865,"0":{"id":"1926135","label":"Imabari-shi","value":"1926135","lat":34.0666700000000020054358174093067646026611328125,"lon":132.99790999999999030478647910058498382568359375,"poi_name":"Imabari-shi","parent_id":"1864226","long":132.99790999999999030478647910058498382568359375},"1":{"id":"1861141","label":"Iyo-gun","value":"1861141","lat":33.7109200000000015506884665228426456451416015625,"lon":132.779050000000012232703738845884799957275390625,"poi_name":"Iyo-gun","parent_id":"1864226","long":132.779050000000012232703738845884799957275390625},"2":{"id":"1861143","label":"Iyo-shi","value":"1861143","lat":33.68493000000000137106326292268931865692138671875,"lon":132.689089999999993096935213543474674224853515625,"poi_name":"Iyo-shi","parent_id":"1864226","long":132.689089999999993096935213543474674224853515625},"3":{"id":"6691622","label":"Kamiukena-gun","value":"6691622","lat":33.636629999999996698534232564270496368408203125,"lon":132.98331999999999197825673036277294158935546875,"poi_name":"Kamiukena-gun","parent_id":"1864226","long":132.98331999999999197825673036277294158935546875},"4":{"id":"1859338","label":"Kita-gun","value":"1859338","lat":33.57001000000000345835360349155962467193603515625,"lon":132.75569999999999026840669102966785430908203125,"poi_name":"Kita-gun","parent_id":"1864226","long":132.75569999999999026840669102966785430908203125},"5":{"id":"1859256","label":"Kitauwa-gun","value":"1859256","lat":33.27335000000000064801497501321136951446533203125,"lon":132.738329999999990604919730685651302337646484375,"poi_name":"Kitauwa-gun","parent_id":"1864226","long":132.738329999999990604919730685651302337646484375},"6":{"id":"1857456","label":"Matsuyama-shi","value":"1857456","lat":33.83568000000000353111317963339388370513916015625,"lon":132.762239999999991368895280174911022186279296875,"poi_name":"Matsuyama-shi","parent_id":"1864226","long":132.762239999999991368895280174911022186279296875},"7":{"id":"1857121","label":"Minamiuwa-gun","value":"1857121","lat":32.98850999999999800138539285399019718170166015625,"lon":132.582490000000007057678885757923126220703125,"poi_name":"Minamiuwa-gun","parent_id":"1864226","long":132.582490000000007057678885757923126220703125},"8":{"id":"1855422","label":"Niihama-shi","value":"1855422","lat":33.90670000000000072759576141834259033203125,"lon":133.332500000000010231815394945442676544189453125,"poi_name":"Niihama-shi","parent_id":"1864226","long":133.332500000000010231815394945442676544189453125},"9":{"id":"1855138","label":"Nishiuwa-gun","value":"1855138","lat":33.4345900000000000318323145620524883270263671875,"lon":132.21255999999999630745151080191135406494140625,"poi_name":"Nishiuwa-gun","parent_id":"1864226","long":132.21255999999999630745151080191135406494140625},"10":{"id":"1854782","label":"Ochi-gun","value":"1854782","lat":34.25348000000000325826476910151541233062744140625,"lon":133.209820000000007667040335945785045623779296875,"poi_name":"Ochi-gun","parent_id":"1864226","long":133.209820000000007667040335945785045623779296875},"11":{"id":"1853240","label":"Saij\u014d-shi","value":"1853240","lat":33.86099999999999710098563809879124164581298828125,"lon":133.10831999999999197825673036277294158935546875,"poi_name":"Saij\u014d-shi","parent_id":"1864226","long":133.10831999999999197825673036277294158935546875},"12":{"id":"10861187","label":"Seiyo-shi","value":"10861187","lat":33.394080000000002428350853733718395233154296875,"lon":132.632620000000002846718416549265384674072265625,"poi_name":"Seiyo-shi","parent_id":"1864226","long":132.632620000000002846718416549265384674072265625},"13":{"id":"7406319","label":"Shikoku-ch\u016b\u014d Shi","value":"7406319","lat":33.93538000000000209865902434103190898895263671875,"lon":133.536219999999985930116963572800159454345703125,"poi_name":"Shikoku-ch\u016b\u014d Shi","parent_id":"1864226","long":133.536219999999985930116963572800159454345703125},"14":{"id":"6691620","label":"T\u014don-shi","value":"6691620","lat":33.79099000000000074805939220823347568511962890625,"lon":132.8723400000000083309714682400226593017578125,"poi_name":"T\u014don-shi","parent_id":"1864226","long":132.8723400000000083309714682400226593017578125},"15":{"id":"1849041","label":"Uwajima-shi","value":"1849041","lat":33.22325000000000017053025658242404460906982421875,"lon":132.560689999999993915480445139110088348388671875,"poi_name":"Uwajima-shi","parent_id":"1864226","long":132.560689999999993915480445139110088348388671875},"16":{"id":"1926017","label":"Yawatahama-shi","value":"1926017","lat":33.463020000000000209183781407773494720458984375,"lon":132.423360000000002401066012680530548095703125,"poi_name":"Yawatahama-shi","parent_id":"1864226","long":132.423360000000002401066012680530548095703125},"17":{"id":"1853424","label":"\u014czu-shi","value":"1853424","lat":33.50618999999999658712113159708678722381591796875,"lon":132.544299999999992678567650727927684783935546875,"poi_name":"\u014czu-shi","parent_id":"1864226","long":132.544299999999992678567650727927684783935546875}}