{"success":true,"remaining_lookups":8858,"0":{"id":"2130736","label":"Abashiri Shi","value":"2130736","lat":43.98564999999999969304553815163671970367431640625,"lon":144.2105099999999993087840266525745391845703125,"poi_name":"Abashiri Shi","parent_id":"2130037","long":144.2105099999999993087840266525745391845703125},"1":{"id":"7428076","label":"Abashiri-gun","value":"7428076","lat":43.689300000000002910383045673370361328125,"lon":144.098080000000010159055818803608417510986328125,"poi_name":"Abashiri-gun","parent_id":"2130037","long":144.098080000000010159055818803608417510986328125},"2":{"id":"2130724","label":"Abuta-gun","value":"2130724","lat":42.79675999999999902456693234853446483612060546875,"lon":140.81150999999999839928932487964630126953125,"poi_name":"Abuta-gun","parent_id":"2130037","long":140.81150999999999839928932487964630126953125},"3":{"id":"2130704","label":"Akabira-shi","value":"2130704","lat":43.56790000000000162572177941910922527313232421875,"lon":142.0628100000000131331034936010837554931640625,"poi_name":"Akabira-shi","parent_id":"2130037","long":142.0628100000000131331034936010837554931640625},"4":{"id":"7428077","label":"Akan-gun","value":"7428077","lat":43.25554000000000343106876243837177753448486328125,"lon":144.2899400000000014188117347657680511474609375,"poi_name":"Akan-gun","parent_id":"2130037","long":144.2899400000000014188117347657680511474609375},"5":{"id":"7428078","label":"Akkeshi-gun","value":"7428078","lat":43.15543999999999869032762944698333740234375,"lon":144.907209999999992078301147557795047760009765625,"poi_name":"Akkeshi-gun","parent_id":"2130037","long":144.907209999999992078301147557795047760009765625},"6":{"id":"2130628","label":"Asahikawa-shi","value":"2130628","lat":43.77065999999999945657691569067537784576416015625,"lon":142.364730000000008658389560878276824951171875,"poi_name":"Asahikawa-shi","parent_id":"2130037","long":142.364730000000008658389560878276824951171875},"7":{"id":"2130609","label":"Ashibetsu-shi","value":"2130609","lat":43.425420000000002573870006017386913299560546875,"lon":142.201609999999988076524459756910800933837890625,"poi_name":"Ashibetsu-shi","parent_id":"2130037","long":142.201609999999988076524459756910800933837890625},"8":{"id":"7428079","label":"Ashoro-gun","value":"7428079","lat":43.40568999999999988403942552395164966583251953125,"lon":143.614270000000004756657290272414684295654296875,"poi_name":"Ashoro-gun","parent_id":"2130037","long":143.614270000000004756657290272414684295654296875},"9":{"id":"2130533","label":"Bibai-shi","value":"2130533","lat":43.33805000000000262616595136933028697967529296875,"lon":141.881840000000011059455573558807373046875,"poi_name":"Bibai-shi","parent_id":"2130037","long":141.881840000000011059455573558807373046875},"10":{"id":"2130449","label":"Chitose Shi","value":"2130449","lat":42.80048000000000030240698833949863910675048828125,"lon":141.509510000000005902620614506304264068603515625,"poi_name":"Chitose Shi","parent_id":"2130037","long":141.509510000000005902620614506304264068603515625},"11":{"id":"2130419","label":"Date-shi","value":"2130419","lat":42.493369999999998753992258571088314056396484375,"lon":140.891420000000010759322321973741054534912109375,"poi_name":"Date-shi","parent_id":"2130037","long":140.891420000000010759322321973741054534912109375},"12":{"id":"2130402","label":"Ebetsu-shi","value":"2130402","lat":43.10728999999999899728209129534661769866943359375,"lon":141.543910000000010995790944434702396392822265625,"poi_name":"Ebetsu-shi","parent_id":"2130037","long":141.543910000000010995790944434702396392822265625},"13":{"id":"2130385","label":"Eniwa-shi","value":"2130385","lat":42.8833300000000008367351256310939788818359375,"lon":141.56666999999998779458110220730304718017578125,"poi_name":"Eniwa-shi","parent_id":"2130037","long":141.56666999999998779458110220730304718017578125},"14":{"id":"7428080","label":"Esashi Gun","value":"7428080","lat":44.8654599999999987858245731331408023834228515625,"lon":142.43810999999999467036104761064052581787109375,"poi_name":"Esashi Gun","parent_id":"2130037","long":142.43810999999999467036104761064052581787109375},"15":{"id":"2130331","label":"Fukagawa-shi","value":"2130331","lat":43.79334000000000060026650317013263702392578125,"lon":142.099230000000005702531780116260051727294921875,"poi_name":"Fukagawa-shi","parent_id":"2130037","long":142.099230000000005702531780116260051727294921875},"16":{"id":"2130304","label":"Furano-shi","value":"2130304","lat":43.28182000000000329009708366356790065765380859375,"lon":142.473489999999998190105543471872806549072265625,"poi_name":"Furano-shi","parent_id":"2130037","long":142.473489999999998190105543471872806549072265625},"17":{"id":"2130287","label":"Furubira-gun","value":"2130287","lat":43.19715000000000060254023992456495761871337890625,"lon":140.611320000000006302798283286392688751220703125,"poi_name":"Furubira-gun","parent_id":"2130037","long":140.611320000000006302798283286392688751220703125},"18":{"id":"7428081","label":"Furuu-gun","value":"7428081","lat":43.163780000000002701199264265596866607666015625,"lon":140.461170000000009849827620200812816619873046875,"poi_name":"Furuu-gun","parent_id":"2130037","long":140.461170000000009849827620200812816619873046875},"19":{"id":"7428082","label":"Futami-gun","value":"7428082","lat":42.1878200000000020963852875865995883941650390625,"lon":140.194240000000007739799912087619304656982421875,"poi_name":"Futami-gun","parent_id":"2130037","long":140.194240000000007739799912087619304656982421875},"20":{"id":"2130184","label":"Hakodate-shi","value":"2130184","lat":41.83753999999999706460585002787411212921142578125,"lon":140.925970000000006621121428906917572021484375,"poi_name":"Hakodate-shi","parent_id":"2130037","long":140.925970000000006621121428906917572021484375},"21":{"id":"7428083","label":"Hidaka-gun","value":"7428083","lat":42.421390000000002373781171627342700958251953125,"lon":142.63830999999998994098859839141368865966796875,"poi_name":"Hidaka-gun","parent_id":"2130037","long":142.63830999999998994098859839141368865966796875},"22":{"id":"2130058","label":"Hiroo-gun","value":"2130058","lat":42.42972999999999927922544884495437145233154296875,"lon":143.180509999999998171915649436414241790771484375,"poi_name":"Hiroo-gun","parent_id":"2130037","long":143.180509999999998171915649436414241790771484375},"23":{"id":"2130044","label":"Hiyama-gun","value":"2130044","lat":41.8124499999999983401721692644059658050537109375,"lon":140.244290000000006557456799782812595367431640625,"poi_name":"Hiyama-gun","parent_id":"2130037","long":140.244290000000006557456799782812595367431640625},"24":{"id":"7429513","label":"Hokuto-shi","value":"7429513","lat":41.8641099999999966030372888781130313873291015625,"lon":140.55423999999999296051100827753543853759765625,"poi_name":"Hokuto-shi","parent_id":"2130037","long":140.55423999999999296051100827753543853759765625},"25":{"id":"7428084","label":"Horoizumi-gun","value":"7428084","lat":42.06269999999999953388396534137427806854248046875,"lon":143.2222199999999929787009023129940032958984375,"poi_name":"Horoizumi-gun","parent_id":"2130037","long":143.2222199999999929787009023129940032958984375},"26":{"id":"7428085","label":"Ishikari-gun","value":"7428085","lat":43.3389600000000001500666257925331592559814453125,"lon":141.570590000000009922587196342647075653076171875,"poi_name":"Ishikari-gun","parent_id":"2130037","long":141.570590000000009922587196342647075653076171875},"27":{"id":"7429514","label":"Ishikari-shi","value":"7429514","lat":43.46596000000000259433363680727779865264892578125,"lon":141.442980000000005702531780116260051727294921875,"poi_name":"Ishikari-shi","parent_id":"2130037","long":141.442980000000005702531780116260051727294921875},"28":{"id":"7428086","label":"Isoya-gun","value":"7428086","lat":42.80510000000000303543856716714799404144287109375,"lon":140.49452999999999747160472907125949859619140625,"poi_name":"Isoya-gun","parent_id":"2130037","long":140.49452999999999747160472907125949859619140625},"29":{"id":"2129869","label":"Iwamizawa-shi","value":"2129869","lat":43.18086000000000268528310698457062244415283203125,"lon":141.79743999999999459760147146880626678466796875,"poi_name":"Iwamizawa-shi","parent_id":"2130037","long":141.79743999999999459760147146880626678466796875},"30":{"id":"2129864","label":"Iwanai-gun","value":"2129864","lat":42.98333000000000225782059715129435062408447265625,"lon":140.6333300000000008367351256310939788818359375,"poi_name":"Iwanai-gun","parent_id":"2130037","long":140.6333300000000008367351256310939788818359375},"31":{"id":"7428087","label":"Kabato-gun","value":"7428087","lat":43.530810000000002446540747769176959991455078125,"lon":141.72908000000001038642949424684047698974609375,"poi_name":"Kabato-gun","parent_id":"2130037","long":141.72908000000001038642949424684047698974609375},"32":{"id":"2129779","label":"Kameda-gun","value":"2129779","lat":41.95425999999999788769855513237416744232177734375,"lon":140.703069999999996753103914670646190643310546875,"poi_name":"Kameda-gun","parent_id":"2130037","long":140.703069999999996753103914670646190643310546875},"33":{"id":"2129763","label":"Kamiiso-gun","value":"2129763","lat":41.6789899999999988722265698015689849853515625,"lon":140.3777499999999918145476840436458587646484375,"poi_name":"Kamiiso-gun","parent_id":"2130037","long":140.3777499999999918145476840436458587646484375},"34":{"id":"2129758","label":"Kamikawa-gun","value":"2129758","lat":43.59432000000000329009708366356790065765380859375,"lon":142.837369999999992842276697047054767608642578125,"poi_name":"Kamikawa-gun","parent_id":"2130037","long":142.837369999999992842276697047054767608642578125},"35":{"id":"11497558","label":"Kamikawa-gun","value":"11497558","lat":43.01218000000000074578565545380115509033203125,"lon":142.873079999999987421688274480402469635009765625,"poi_name":"Kamikawa-gun","parent_id":"2130037","long":142.873079999999987421688274480402469635009765625},"36":{"id":"11497755","label":"Kamikawa-gun (Teshio no kuni)","value":"11497755","lat":44.0560100000000005593392415903508663177490234375,"lon":142.3814399999999977808329276740550994873046875,"poi_name":"Kamikawa-gun (Teshio no kuni)","parent_id":"2130037","long":142.3814399999999977808329276740550994873046875},"37":{"id":"7428088","label":"Kasai-gun","value":"7428088","lat":42.6462599999999980582288117147982120513916015625,"lon":143.1508000000000038198777474462985992431640625,"poi_name":"Kasai-gun","parent_id":"2130037","long":143.1508000000000038198777474462985992431640625},"38":{"id":"7428089","label":"Kat\u014d-gun","value":"7428089","lat":43.2388600000000025147528504021465778350830078125,"lon":143.163829999999990150172379799187183380126953125,"poi_name":"Kat\u014d-gun","parent_id":"2130037","long":143.163829999999990150172379799187183380126953125},"39":{"id":"7428090","label":"Kawakami-gun","value":"7428090","lat":43.40568999999999988403942552395164966583251953125,"lon":144.490129999999993515302776359021663665771484375,"poi_name":"Kawakami-gun","parent_id":"2130037","long":144.490129999999993515302776359021663665771484375},"40":{"id":"2129597","label":"Kayabe-gun","value":"2129597","lat":42.07104000000000354475560015998780727386474609375,"lon":140.611320000000006302798283286392688751220703125,"poi_name":"Kayabe-gun","parent_id":"2130037","long":140.611320000000006302798283286392688751220703125},"41":{"id":"9072585","label":"Kitahiroshima-shi","value":"9072585","lat":42.9858100000000007412381819449365139007568359375,"lon":141.5567800000000033833202905952930450439453125,"poi_name":"Kitahiroshima-shi","parent_id":"2130037","long":141.5567800000000033833202905952930450439453125},"42":{"id":"2129532","label":"Ktiami Shi","value":"2129532","lat":43.85159999999999769215719425119459629058837890625,"lon":143.715200000000010049916454590857028961181640625,"poi_name":"Ktiami Shi","parent_id":"2130037","long":143.715200000000010049916454590857028961181640625},"43":{"id":"7428091","label":"Kud\u014d-gun","value":"7428091","lat":42.3963600000000013778844731859862804412841796875,"lon":139.89393999999998641214915551245212554931640625,"poi_name":"Kud\u014d-gun","parent_id":"2130037","long":139.89393999999998641214915551245212554931640625},"44":{"id":"2129370","label":"Kushiro Shi","value":"2129370","lat":43.15910000000000223963070311583578586578369140625,"lon":144.066470000000009576979209668934345245361328125,"poi_name":"Kushiro Shi","parent_id":"2130037","long":144.066470000000009576979209668934345245361328125},"45":{"id":"2129373","label":"Kushiro-gun","value":"2129373","lat":43.0303200000000032332536648027598857879638671875,"lon":144.5318399999999883220880292356014251708984375,"poi_name":"Kushiro-gun","parent_id":"2130037","long":144.5318399999999883220880292356014251708984375},"46":{"id":"7428092","label":"Mashike-gun","value":"7428092","lat":43.7894000000000005456968210637569427490234375,"lon":141.537229999999993879100657068192958831787109375,"poi_name":"Mashike-gun","parent_id":"2130037","long":141.537229999999993879100657068192958831787109375},"47":{"id":"7428093","label":"Matsumae-gun","value":"7428093","lat":41.52884000000000241925590671598911285400390625,"lon":140.144190000000008922143024392426013946533203125,"poi_name":"Matsumae-gun","parent_id":"2130037","long":140.144190000000008922143024392426013946533203125},"48":{"id":"7428094","label":"Menashi-gun","value":"7428094","lat":44.047989999999998644852894358336925506591796875,"lon":145.140770000000003392415237613022327423095703125,"poi_name":"Menashi-gun","parent_id":"2130037","long":145.140770000000003392415237613022327423095703125},"49":{"id":"8301405","label":"Mikasa-shi","value":"8301405","lat":43.23975999999999686451701563782989978790283203125,"lon":141.99272999999999456122168339788913726806640625,"poi_name":"Mikasa-shi","parent_id":"2130037","long":141.99272999999999456122168339788913726806640625},"50":{"id":"7428095","label":"Monbetsu Gun","value":"7428095","lat":44.19384000000000156660462380386888980865478515625,"lon":143.031059999999996534825186245143413543701171875,"poi_name":"Monbetsu Gun","parent_id":"2130037","long":143.031059999999996534825186245143413543701171875},"51":{"id":"7429515","label":"Monbetsu Shi","value":"7429515","lat":44.20322999999999780129655846394598484039306640625,"lon":143.29293000000001256921677850186824798583984375,"poi_name":"Monbetsu Shi","parent_id":"2130037","long":143.29293000000001256921677850186824798583984375},"52":{"id":"2129098","label":"Muroran-shi","value":"2129098","lat":42.366590000000002191882231272757053375244140625,"lon":140.98845000000000027284841053187847137451171875,"poi_name":"Muroran-shi","parent_id":"2130037","long":140.98845000000000027284841053187847137451171875},"53":{"id":"7428096","label":"Nakagawa Gun","value":"7428096","lat":44.64023999999999858800947549752891063690185546875,"lon":142.254600000000010595613275654613971710205078125,"poi_name":"Nakagawa Gun","parent_id":"2130037","long":142.254600000000010595613275654613971710205078125},"54":{"id":"7428097","label":"Nakagawa-gun","value":"7428097","lat":42.888509999999996580299921333789825439453125,"lon":143.447440000000000281943357549607753753662109375,"poi_name":"Nakagawa-gun","parent_id":"2130037","long":143.447440000000000281943357549607753753662109375},"55":{"id":"7429516","label":"Nayoro Shi","value":"7429516","lat":44.33950999999999709189069108106195926666259765625,"lon":142.45931999999999106876202858984470367431640625,"poi_name":"Nayoro Shi","parent_id":"2130037","long":142.45931999999999106876202858984470367431640625},"56":{"id":"2128971","label":"Nemuro-shi","value":"2128971","lat":43.33332999999999657347871107049286365509033203125,"lon":145.6166699999999991632648743689060211181640625,"poi_name":"Nemuro-shi","parent_id":"2130037","long":145.6166699999999991632648743689060211181640625},"57":{"id":"7428098","label":"Niikappu-gun","value":"7428098","lat":42.5465099999999978308551362715661525726318359375,"lon":142.471480000000013887984096072614192962646484375,"poi_name":"Niikappu-gun","parent_id":"2130037","long":142.471480000000013887984096072614192962646484375},"58":{"id":"7428099","label":"Nishi-gun","value":"7428099","lat":42.03768000000000171212377608753740787506103515625,"lon":140.177559999999999718056642450392246246337890625,"poi_name":"Nishi-gun","parent_id":"2130037","long":140.177559999999999718056642450392246246337890625},"59":{"id":"2128892","label":"Noboribetsu-shi","value":"2128892","lat":42.4656499999999965666575008071959018707275390625,"lon":141.0757800000000088402885012328624725341796875,"poi_name":"Noboribetsu-shi","parent_id":"2130037","long":141.0757800000000088402885012328624725341796875},"60":{"id":"7428100","label":"Notsuke-gun","value":"7428100","lat":43.38900000000000289901436190120875835418701171875,"lon":145.023989999999997735358192585408687591552734375,"poi_name":"Notsuke-gun","parent_id":"2130037","long":145.023989999999997735358192585408687591552734375},"61":{"id":"2128812","label":"Obihiro Shi","value":"2128812","lat":42.75735999999999847887011128477752208709716796875,"lon":143.030609999999995807229424826800823211669921875,"poi_name":"Obihiro Shi","parent_id":"2130037","long":143.030609999999995807229424826800823211669921875},"62":{"id":"2038726","label":"Okushiri-gun","value":"2038726","lat":42.16667000000000342652128892950713634490966796875,"lon":139.483329999999995152393239550292491912841796875,"poi_name":"Okushiri-gun","parent_id":"2130037","long":139.483329999999995152393239550292491912841796875},"63":{"id":"2128570","label":"Otaru-shi","value":"2128570","lat":43.15628000000000241698216996155679225921630859375,"lon":141.025720000000006848495104350149631500244140625,"poi_name":"Otaru-shi","parent_id":"2130037","long":141.025720000000006848495104350149631500244140625},"64":{"id":"2128418","label":"Rebun Gun","value":"2128418","lat":45.38262999999999891542756813578307628631591796875,"lon":141.02839000000000169166014529764652252197265625,"poi_name":"Rebun Gun","parent_id":"2130037","long":141.02839000000000169166014529764652252197265625},"65":{"id":"2128405","label":"Rishiri Gun","value":"2128405","lat":45.1824399999999997135091689415276050567626953125,"lon":141.22858999999999696228769607841968536376953125,"poi_name":"Rishiri Gun","parent_id":"2130037","long":141.22858999999999696228769607841968536376953125},"66":{"id":"7428101","label":"Rumoi Gun","value":"7428101","lat":44.06466999999999956116880639456212520599365234375,"lon":141.837520000000012032614904455840587615966796875,"poi_name":"Rumoi Gun","parent_id":"2130037","long":141.837520000000012032614904455840587615966796875},"67":{"id":"2128378","label":"Rumoi-shi","value":"2128378","lat":43.8855999999999966121322358958423137664794921875,"lon":141.75567000000000916770659387111663818359375,"poi_name":"Rumoi-shi","parent_id":"2130037","long":141.75567000000000916770659387111663818359375},"68":{"id":"7428102","label":"Samani-gun","value":"7428102","lat":42.154460000000000263753463514149188995361328125,"lon":143.0470500000000129148247651755809783935546875,"poi_name":"Samani-gun","parent_id":"2130037","long":143.0470500000000129148247651755809783935546875},"69":{"id":"2128291","label":"Sapporo-shi","value":"2128291","lat":43.0666700000000020054358174093067646026611328125,"lon":141.349999999999994315658113919198513031005859375,"poi_name":"Sapporo-shi","parent_id":"2130037","long":141.349999999999994315658113919198513031005859375},"70":{"id":"7428103","label":"Saru-gun","value":"7428103","lat":42.738370000000003301465767435729503631591796875,"lon":142.39641000000000303771230392158031463623046875,"poi_name":"Saru-gun","parent_id":"2130037","long":142.39641000000000303771230392158031463623046875},"71":{"id":"7428104","label":"Setana-gun","value":"7428104","lat":42.4464100000000001955413608811795711517333984375,"lon":140.094140000000010104486136697232723236083984375,"poi_name":"Setana-gun","parent_id":"2130037","long":140.094140000000010104486136697232723236083984375},"72":{"id":"7428105","label":"Shakotan-gun","value":"7428105","lat":43.29724999999999823785401531495153903961181640625,"lon":140.4695100000000138606992550194263458251953125,"poi_name":"Shakotan-gun","parent_id":"2130037","long":140.4695100000000138606992550194263458251953125},"73":{"id":"7428106","label":"Shari-gun","value":"7428106","lat":43.88116000000000127556631923653185367584228515625,"lon":144.732040000000012014425010420382022857666015625,"poi_name":"Shari-gun","parent_id":"2130037","long":144.732040000000012014425010420382022857666015625},"74":{"id":"2128201","label":"Shibetsu Shi","value":"2128201","lat":44.11522000000000076624928624369204044342041015625,"lon":142.540539999999992915036273188889026641845703125,"poi_name":"Shibetsu Shi","parent_id":"2130037","long":142.540539999999992915036273188889026641845703125},"75":{"id":"7428107","label":"Shibetsu-gun","value":"7428107","lat":43.66427999999999798319549881853163242340087890625,"lon":144.8988699999999880674295127391815185546875,"poi_name":"Shibetsu-gun","parent_id":"2130037","long":144.8988699999999880674295127391815185546875},"76":{"id":"7428108","label":"Shimamaki-gun","value":"7428108","lat":42.6549499999999994770405464805662631988525390625,"lon":140.06076999999999088686308823525905609130859375,"poi_name":"Shimamaki-gun","parent_id":"2130037","long":140.06076999999999088686308823525905609130859375},"77":{"id":"7428109","label":"Shiranuka-gun","value":"7428109","lat":43.13875999999999777401171741075813770294189453125,"lon":143.964619999999996480255504138767719268798828125,"poi_name":"Shiranuka-gun","parent_id":"2130037","long":143.964619999999996480255504138767719268798828125},"78":{"id":"7428110","label":"Shiraoi-gun","value":"7428110","lat":42.5965599999999966485120239667594432830810546875,"lon":141.2452700000000049840309657156467437744140625,"poi_name":"Shiraoi-gun","parent_id":"2130037","long":141.2452700000000049840309657156467437744140625},"79":{"id":"7428111","label":"Sorachi-gun","value":"7428111","lat":43.429519999999996571204974316060543060302734375,"lon":141.954620000000005575202521868050098419189453125,"poi_name":"Sorachi-gun","parent_id":"2130037","long":141.954620000000005575202521868050098419189453125},"80":{"id":"2127954","label":"Sunagawa-shi","value":"2127954","lat":43.50327999999999661895344615913927555084228515625,"lon":141.932739999999995461621438153088092803955078125,"poi_name":"Sunagawa-shi","parent_id":"2130037","long":141.932739999999995461621438153088092803955078125},"81":{"id":"7428113","label":"Suttsu-gun","value":"7428113","lat":42.7049999999999982946974341757595539093017578125,"lon":140.344390000000004192770575173199176788330078125,"poi_name":"Suttsu-gun","parent_id":"2130037","long":140.344390000000004192770575173199176788330078125},"82":{"id":"7428112","label":"S\u014dya Gun","value":"7428112","lat":45.2408300000000025420376914553344249725341796875,"lon":142.121139999999996916812960989773273468017578125,"poi_name":"S\u014dya Gun","parent_id":"2130037","long":142.121139999999996916812960989773273468017578125},"83":{"id":"2127895","label":"Takikawa-shi","value":"2127895","lat":43.60837000000000074351191869936883449554443359375,"lon":141.9498800000000073850969783961772918701171875,"poi_name":"Takikawa-shi","parent_id":"2130037","long":141.9498800000000073850969783961772918701171875},"84":{"id":"2127817","label":"Teshio Gun","value":"2127817","lat":44.909999999999996589394868351519107818603515625,"lon":141.887570000000010850271792151033878326416015625,"poi_name":"Teshio Gun","parent_id":"2130037","long":141.887570000000010850271792151033878326416015625},"85":{"id":"7428114","label":"Tokachi-gun","value":"7428114","lat":42.9218800000000015870682545937597751617431640625,"lon":143.681000000000011596057447604835033416748046875,"poi_name":"Tokachi-gun","parent_id":"2130037","long":143.681000000000011596057447604835033416748046875},"86":{"id":"7428115","label":"Tokoro-gun","value":"7428115","lat":43.64498999999999995225152815692126750946044921875,"lon":143.581109999999995352482073940336704254150390625,"poi_name":"Tokoro-gun","parent_id":"2130037","long":143.581109999999995352482073940336704254150390625},"87":{"id":"2127732","label":"Tomakomai Shi","value":"2127732","lat":42.6822599999999994224708643741905689239501953125,"lon":141.5794799999999895590008236467838287353515625,"poi_name":"Tomakomai Shi","parent_id":"2130037","long":141.5794799999999895590008236467838287353515625},"88":{"id":"2127730","label":"Tomamae Gun","value":"2127730","lat":44.32325999999999766032487968914210796356201171875,"lon":141.854209999999994806785252876579761505126953125,"poi_name":"Tomamae Gun","parent_id":"2130037","long":141.854209999999994806785252876579761505126953125},"89":{"id":"7428116","label":"Urukawa-gun","value":"7428116","lat":42.304609999999996716724126599729061126708984375,"lon":142.880210000000005265974323265254497528076171875,"poi_name":"Urukawa-gun","parent_id":"2130037","long":142.880210000000005265974323265254497528076171875},"90":{"id":"7428117","label":"Ury\u016b Gun","value":"7428117","lat":43.8101300000000009049472282640635967254638671875,"lon":141.9067400000000134241417981684207916259765625,"poi_name":"Ury\u016b Gun","parent_id":"2130037","long":141.9067400000000134241417981684207916259765625},"91":{"id":"7428118","label":"Usu-gun","value":"7428118","lat":42.579880000000002837623469531536102294921875,"lon":140.953319999999990841388353146612644195556640625,"poi_name":"Usu-gun","parent_id":"2130037","long":140.953319999999990841388353146612644195556640625},"92":{"id":"2127544","label":"Utashinai-shi","value":"2127544","lat":43.49365999999999843339537619613111019134521484375,"lon":142.038780000000002701199264265596866607666015625,"poi_name":"Utashinai-shi","parent_id":"2130037","long":142.038780000000002701199264265596866607666015625},"93":{"id":"2127513","label":"Wakkanai Shi","value":"2127513","lat":45.3324300000000022237145458348095417022705078125,"lon":141.8283099999999876672518439590930938720703125,"poi_name":"Wakkanai Shi","parent_id":"2130037","long":141.8283099999999876672518439590930938720703125},"94":{"id":"7428119","label":"Yamakoshi-gun","value":"7428119","lat":42.52982999999999691453922423534095287322998046875,"lon":140.302680000000009385985322296619415283203125,"poi_name":"Yamakoshi-gun","parent_id":"2130037","long":140.302680000000009385985322296619415283203125},"95":{"id":"2127440","label":"Yoichi-gun","value":"2127440","lat":43.09705000000000296722646453417837619781494140625,"lon":140.828200000000009595169103704392910003662109375,"poi_name":"Yoichi-gun","parent_id":"2130037","long":140.828200000000009595169103704392910003662109375},"96":{"id":"7428120","label":"Y\u016bbari-gun","value":"7428120","lat":42.98861000000000132104105432517826557159423828125,"lon":141.8125,"poi_name":"Y\u016bbari-gun","parent_id":"2130037","long":141.8125},"97":{"id":"2127415","label":"Y\u016bbari-shi","value":"2127415","lat":43.04335999999999984311216394416987895965576171875,"lon":142.110649999999992587618180550634860992431640625,"poi_name":"Y\u016bbari-shi","parent_id":"2130037","long":142.110649999999992587618180550634860992431640625},"98":{"id":"7428121","label":"Y\u016bfutsu-gun","value":"7428121","lat":42.83845999999999776264303363859653472900390625,"lon":142.162839999999988549461704678833484649658203125,"poi_name":"Y\u016bfutsu-gun","parent_id":"2130037","long":142.162839999999988549461704678833484649658203125}}