{"success":true,"remaining_lookups":8867,"0":{"id":"2130654","label":"Aomori Shi","value":"2130654","lat":40.7700099999999991950971889309585094451904296875,"lon":140.75423000000000683940015733242034912109375,"poi_name":"Aomori Shi","parent_id":"2130656","long":140.75423000000000683940015733242034912109375},"1":{"id":"2130225","label":"Goshogawara Shi","value":"2130225","lat":40.91657000000000010686562745831906795501708984375,"lon":140.469979999999992514858604408800601959228515625,"poi_name":"Goshogawara Shi","parent_id":"2130656","long":140.469979999999992514858604408800601959228515625},"2":{"id":"2130200","label":"Hachinohe Shi","value":"2130200","lat":40.4738899999999972578734741546213626861572265625,"lon":141.48124999999998863131622783839702606201171875,"poi_name":"Hachinohe Shi","parent_id":"2130656","long":141.48124999999998863131622783839702606201171875},"3":{"id":"2130088","label":"Higashitsugaru-gun","value":"2130088","lat":40.90874000000000165755409398116171360015869140625,"lon":140.96413000000001147782313637435436248779296875,"poi_name":"Higashitsugaru-gun","parent_id":"2130656","long":140.96413000000001147782313637435436248779296875},"4":{"id":"7439934","label":"Hirakawa Shi","value":"7439934","lat":40.5183200000000027785063139162957668304443359375,"lon":140.700479999999998881321516819298267364501953125,"poi_name":"Hirakawa Shi","parent_id":"2130656","long":140.700479999999998881321516819298267364501953125},"5":{"id":"2130056","label":"Hirosaki Shi","value":"2130056","lat":40.60511999999999943611328490078449249267578125,"lon":140.384600000000006048139766789972782135009765625,"poi_name":"Hirosaki Shi","parent_id":"2130656","long":140.384600000000006048139766789972782135009765625},"6":{"id":"2129754","label":"Kamikita-gun","value":"2129754","lat":40.82260000000000133013600134290754795074462890625,"lon":141.225969999999989568095770664513111114501953125,"poi_name":"Kamikita-gun","parent_id":"2130656","long":141.225969999999989568095770664513111114501953125},"7":{"id":"2129525","label":"Kitatsugaru Gun","value":"2129525","lat":40.9600200000000000954969436861574649810791015625,"lon":140.42703000000000201907823793590068817138671875,"poi_name":"Kitatsugaru Gun","parent_id":"2130656","long":140.42703000000000201907823793590068817138671875},"8":{"id":"2129393","label":"Kuroishi Shi","value":"2129393","lat":40.61708999999999747387846582569181919097900390625,"lon":140.704669999999993024175637401640415191650390625,"poi_name":"Kuroishi Shi","parent_id":"2130656","long":140.704669999999993024175637401640415191650390625},"9":{"id":"2129224","label":"Minamitsugaru Gun","value":"2129224","lat":40.53376999999999696910890634171664714813232421875,"lon":140.541159999999990759533829987049102783203125,"poi_name":"Minamitsugaru Gun","parent_id":"2130656","long":140.541159999999990759533829987049102783203125},"10":{"id":"7439937","label":"Misawa Shi","value":"7439937","lat":40.7464700000000021873347577638924121856689453125,"lon":141.38123999999999114152160473167896270751953125,"poi_name":"Misawa Shi","parent_id":"2130656","long":141.38123999999999114152160473167896270751953125},"11":{"id":"2129089","label":"Mutsu-shi","value":"2129089","lat":41.29090000000000060254023992456495761871337890625,"lon":141.033269999999987476257956586778163909912109375,"poi_name":"Mutsu-shi","parent_id":"2130656","long":141.033269999999987476257956586778163909912109375},"12":{"id":"7439929","label":"Nakatsugaru Gun","value":"7439929","lat":40.512799999999998590283212251961231231689453125,"lon":140.233699999999998908606357872486114501953125,"poi_name":"Nakatsugaru Gun","parent_id":"2130656","long":140.233699999999998908606357872486114501953125},"13":{"id":"8534376","label":"Nishitsugaru-gun","value":"8534376","lat":40.62926999999999821966412127949297428131103515625,"lon":140.0869500000000016370904631912708282470703125,"poi_name":"Nishitsugaru-gun","parent_id":"2130656","long":140.0869500000000016370904631912708282470703125},"14":{"id":"2128302","label":"Sannohe Gun","value":"2128302","lat":40.4056599999999974670572555623948574066162109375,"lon":141.221309999999988349372870288789272308349609375,"poi_name":"Sannohe Gun","parent_id":"2130656","long":141.221309999999988349372870288789272308349609375},"15":{"id":"2128134","label":"Shimokita-gun","value":"2128134","lat":41.27477999999999980218490236438810825347900390625,"lon":141.333570000000008803908713161945343017578125,"poi_name":"Shimokita-gun","parent_id":"2130656","long":141.333570000000008803908713161945343017578125},"16":{"id":"2127674","label":"Towada Shi","value":"2127674","lat":40.56736000000000075260686571709811687469482421875,"lon":141.057940000000002100932761095464229583740234375,"poi_name":"Towada Shi","parent_id":"2130656","long":141.057940000000002100932761095464229583740234375},"17":{"id":"7439944","label":"Tsugaru Shi","value":"7439944","lat":40.86988000000000198497218661941587924957275390625,"lon":140.34962999999999055944499559700489044189453125,"poi_name":"Tsugaru Shi","parent_id":"2130656","long":140.34962999999999055944499559700489044189453125}}