{"success":true,"remaining_lookups":7800,"0":{"id":"8986283","label":"Okres Bratislava I","value":"8986283","lat":48.1465299999999984947862685658037662506103515625,"lon":17.10584000000000060026650317013263702392578125,"poi_name":"Okres Bratislava I","parent_id":"3343955","long":17.10584000000000060026650317013263702392578125},"1":{"id":"8986339","label":"Okres Bratislava II","value":"8986339","lat":48.1527999999999991587174008600413799285888671875,"lon":17.177640000000000242152964347042143344879150390625,"poi_name":"Okres Bratislava II","parent_id":"3343955","long":17.177640000000000242152964347042143344879150390625},"2":{"id":"8986340","label":"Okres Bratislava III","value":"8986340","lat":48.18542999999999665305949747562408447265625,"lon":17.137899999999998357225194922648370265960693359375,"poi_name":"Okres Bratislava III","parent_id":"3343955","long":17.137899999999998357225194922648370265960693359375},"3":{"id":"8986341","label":"Okres Bratislava IV","value":"8986341","lat":48.22787000000000290356183541007339954376220703125,"lon":16.997219999999998663042788393795490264892578125,"poi_name":"Okres Bratislava IV","parent_id":"3343955","long":16.997219999999998663042788393795490264892578125},"4":{"id":"8986342","label":"Okres Bratislava V","value":"8986342","lat":48.111220000000002983142621815204620361328125,"lon":17.09443999999999874717104830779135227203369140625,"poi_name":"Okres Bratislava V","parent_id":"3343955","long":17.09443999999999874717104830779135227203369140625},"5":{"id":"8986291","label":"Okres Malacky","value":"8986291","lat":48.4345799999999968576958053745329380035400390625,"lon":17.021660000000000678710421198047697544097900390625,"poi_name":"Okres Malacky","parent_id":"3343955","long":17.021660000000000678710421198047697544097900390625},"6":{"id":"8986294","label":"Okres Pezinok","value":"8986294","lat":48.28784999999999882902557146735489368438720703125,"lon":17.267990000000001060698195942677557468414306640625,"poi_name":"Okres Pezinok","parent_id":"3343955","long":17.267990000000001060698195942677557468414306640625},"7":{"id":"8986302","label":"Okres Senec","value":"8986302","lat":48.22187000000000267618815996684134006500244140625,"lon":17.403279999999998750581653439439833164215087890625,"poi_name":"Okres Senec","parent_id":"3343955","long":17.403279999999998750581653439439833164215087890625}}