{"success":true,"remaining_lookups":7795,"0":{"id":"3060307","label":"Okres Dunajsk\u00e1 Streda","value":"3060307","lat":47.99634999999999962483343551866710186004638671875,"lon":17.6093699999999984129317454062402248382568359375,"poi_name":"Okres Dunajsk\u00e1 Streda","parent_id":"3343958","long":17.6093699999999984129317454062402248382568359375},"1":{"id":"3060218","label":"Okres Galanta","value":"3060218","lat":48.2000000000000028421709430404007434844970703125,"lon":17.71667000000000058435034588910639286041259765625,"poi_name":"Okres Galanta","parent_id":"3343958","long":17.71667000000000058435034588910639286041259765625},"2":{"id":"3060093","label":"Okres Hlohovec","value":"3060093","lat":48.41667000000000342652128892950713634490966796875,"lon":17.75,"poi_name":"Okres Hlohovec","parent_id":"3343958","long":17.75},"3":{"id":"8986295","label":"Okres Pie\u0161\u0165any","value":"8986295","lat":48.59064000000000049794834922067821025848388671875,"lon":17.826789999999999025703800725750625133514404296875,"poi_name":"Okres Pie\u0161\u0165any","parent_id":"3343958","long":17.826789999999999025703800725750625133514404296875},"4":{"id":"3057689","label":"Okres Senica","value":"3057689","lat":48.6833299999999979945641825906932353973388671875,"lon":17.3666699999999991632648743689060211181640625,"poi_name":"Okres Senica","parent_id":"3343958","long":17.3666699999999991632648743689060211181640625},"5":{"id":"3057629","label":"Okres Skalica","value":"3057629","lat":48.75,"lon":17.166669999999999873807610129006206989288330078125,"poi_name":"Okres Skalica","parent_id":"3343958","long":17.166669999999999873807610129006206989288330078125},"6":{"id":"3057122","label":"Okres Trnava","value":"3057122","lat":48.3666699999999991632648743689060211181640625,"lon":17.60000000000000142108547152020037174224853515625,"poi_name":"Okres Trnava","parent_id":"3343958","long":17.60000000000000142108547152020037174224853515625}}