{"success":true,"remaining_lookups":9962,"0":{"id":"3041809","label":"Ecker\u00f6","value":"3041809","lat":60.22294000000000124828147818334400653839111328125,"lon":19.5549800000000004729372449219226837158203125,"poi_name":"Ecker\u00f6","parent_id":"9611692","long":19.5549800000000004729372449219226837158203125},"1":{"id":"3041799","label":"Finstr\u00f6m","value":"3041799","lat":60.25,"lon":19.916669999999999873807610129006206989288330078125,"poi_name":"Finstr\u00f6m","parent_id":"9611692","long":19.916669999999999873807610129006206989288330078125},"2":{"id":"3041793","label":"Geta","value":"3041793","lat":60.41667000000000342652128892950713634490966796875,"lon":19.833330000000000126192389870993793010711669921875,"poi_name":"Geta","parent_id":"9611692","long":19.833330000000000126192389870993793010711669921875},"3":{"id":"3041777","label":"Hammarland","value":"3041777","lat":60.25,"lon":19.75,"poi_name":"Hammarland","parent_id":"9611692","long":19.75},"4":{"id":"3041761","label":"Jomala","value":"3041761","lat":60.16667000000000342652128892950713634490966796875,"lon":19.916669999999999873807610129006206989288330078125,"poi_name":"Jomala","parent_id":"9611692","long":19.916669999999999873807610129006206989288330078125},"5":{"id":"648384","label":"Lemland","value":"648384","lat":60.08332999999999657347871107049286365509033203125,"lon":20.083330000000000126192389870993793010711669921875,"poi_name":"Lemland","parent_id":"9611692","long":20.083330000000000126192389870993793010711669921875},"6":{"id":"647457","label":"Lumparland","value":"647457","lat":60.1166699999999991632648743689060211181640625,"lon":20.25,"poi_name":"Lumparland","parent_id":"9611692","long":20.25},"7":{"id":"637880","label":"Saltvik","value":"637880","lat":60.33332999999999657347871107049286365509033203125,"lon":20.1166699999999991632648743689060211181640625,"poi_name":"Saltvik","parent_id":"9611692","long":20.1166699999999991632648743689060211181640625},"8":{"id":"635817","label":"Sund","value":"635817","lat":60.25,"lon":20.166669999999999873807610129006206989288330078125,"poi_name":"Sund","parent_id":"9611692","long":20.166669999999999873807610129006206989288330078125}}