{"success":true,"remaining_lookups":9062,"0":{"id":"9644171","label":"Keszthelyi J\u00e1r\u00e1s","value":"9644171","lat":46.78356000000000136651578941382467746734619140625,"lon":17.2238100000000002864908310584723949432373046875,"poi_name":"Keszthelyi J\u00e1r\u00e1s","parent_id":"3042613","long":17.2238100000000002864908310584723949432373046875},"1":{"id":"9644168","label":"Lenti J\u00e1r\u00e1s","value":"9644168","lat":46.65648999999999801957528688944876194000244140625,"lon":16.57442999999999955207385937683284282684326171875,"poi_name":"Lenti J\u00e1r\u00e1s","parent_id":"3042613","long":16.57442999999999955207385937683284282684326171875},"2":{"id":"9644169","label":"Letenyei J\u00e1r\u00e1s","value":"9644169","lat":46.50551999999999708279574406333267688751220703125,"lon":16.765029999999999432702679769136011600494384765625,"poi_name":"Letenyei J\u00e1r\u00e1s","parent_id":"3042613","long":16.765029999999999432702679769136011600494384765625},"3":{"id":"9644172","label":"Nagykanizsai J\u00e1r\u00e1s","value":"9644172","lat":46.51872999999999791498339618556201457977294921875,"lon":17.044329999999998648263499489985406398773193359375,"poi_name":"Nagykanizsai J\u00e1r\u00e1s","parent_id":"3042613","long":17.044329999999998648263499489985406398773193359375},"4":{"id":"9644167","label":"Zalaegerszegi J\u00e1r\u00e1s","value":"9644167","lat":46.7999999999999971578290569595992565155029296875,"lon":16.8299999999999982946974341757595539093017578125,"poi_name":"Zalaegerszegi J\u00e1r\u00e1s","parent_id":"3042613","long":16.8299999999999982946974341757595539093017578125},"5":{"id":"9644170","label":"Zalaszentgr\u00f3ti J\u00e1r\u00e1s","value":"9644170","lat":46.9206999999999965211827657185494899749755859375,"lon":17.100950000000000983391146291978657245635986328125,"poi_name":"Zalaszentgr\u00f3ti J\u00e1r\u00e1s","parent_id":"3042613","long":17.100950000000000983391146291978657245635986328125}}