{"success":true,"remaining_lookups":9063,"0":{"id":"9644757","label":"Ajkai J\u00e1r\u00e1s","value":"9644757","lat":47.079880000000002837623469531536102294921875,"lon":17.563749999999998863131622783839702606201171875,"poi_name":"Ajkai J\u00e1r\u00e1s","parent_id":"3042925","long":17.563749999999998863131622783839702606201171875},"1":{"id":"9644753","label":"Balatonalm\u00e1di J\u00e1r\u00e1s","value":"9644753","lat":47.04173999999999722376742283813655376434326171875,"lon":18.096170000000000754880602471530437469482421875,"poi_name":"Balatonalm\u00e1di J\u00e1r\u00e1s","parent_id":"3042925","long":18.096170000000000754880602471530437469482421875},"2":{"id":"9644754","label":"Balatonf\u00fcredi J\u00e1r\u00e1s","value":"9644754","lat":46.9395200000000016871126717887818813323974609375,"lon":17.794109999999999871533873374573886394500732421875,"poi_name":"Balatonf\u00fcredi J\u00e1r\u00e1s","parent_id":"3042925","long":17.794109999999999871533873374573886394500732421875},"3":{"id":"9644758","label":"Devecseri J\u00e1r\u00e1s","value":"9644758","lat":47.16835999999999984311216394416987895965576171875,"lon":17.322710000000000718500814400613307952880859375,"poi_name":"Devecseri J\u00e1r\u00e1s","parent_id":"3042925","long":17.322710000000000718500814400613307952880859375},"4":{"id":"9644750","label":"P\u00e1pai J\u00e1r\u00e1s","value":"9644750","lat":47.33769000000000204408934223465621471405029296875,"lon":17.496629999999999682813722756691277027130126953125,"poi_name":"P\u00e1pai J\u00e1r\u00e1s","parent_id":"3042925","long":17.496629999999999682813722756691277027130126953125},"5":{"id":"9644756","label":"S\u00fcmegi J\u00e1r\u00e1s","value":"9644756","lat":47.02647999999999939291228656657040119171142578125,"lon":17.267790000000001526814230601303279399871826171875,"poi_name":"S\u00fcmegi J\u00e1r\u00e1s","parent_id":"3042925","long":17.267790000000001526814230601303279399871826171875},"6":{"id":"9644755","label":"Tapolcai J\u00e1r\u00e1s","value":"9644755","lat":46.8983300000000014051693142391741275787353515625,"lon":17.49510000000000076170181273482739925384521484375,"poi_name":"Tapolcai J\u00e1r\u00e1s","parent_id":"3042925","long":17.49510000000000076170181273482739925384521484375},"7":{"id":"9644759","label":"Veszpr\u00e9mi J\u00e1r\u00e1s","value":"9644759","lat":47.0966599999999999681676854379475116729736328125,"lon":17.82157000000000124373400467447936534881591796875,"poi_name":"Veszpr\u00e9mi J\u00e1r\u00e1s","parent_id":"3042925","long":17.82157000000000124373400467447936534881591796875},"8":{"id":"9644752","label":"V\u00e1rpalotai J\u00e1r\u00e1s","value":"9644752","lat":47.18513999999999697365637985058128833770751953125,"lon":18.12210999999999927467797533608973026275634765625,"poi_name":"V\u00e1rpalotai J\u00e1r\u00e1s","parent_id":"3042925","long":18.12210999999999927467797533608973026275634765625},"9":{"id":"9644751","label":"Zirci J\u00e1r\u00e1s","value":"9644751","lat":47.28582999999999714191289967857301235198974609375,"lon":17.884119999999999350848156609572470188140869140625,"poi_name":"Zirci J\u00e1r\u00e1s","parent_id":"3042925","long":17.884119999999999350848156609572470188140869140625}}