{"success":true,"remaining_lookups":9067,"0":{"id":"9644177","label":"Barcsi J\u00e1r\u00e1s","value":"9644177","lat":46.03687000000000040245140553452074527740478515625,"lon":17.474340000000001538182914373464882373809814453125,"poi_name":"Barcsi J\u00e1r\u00e1s","parent_id":"3045226","long":17.474340000000001538182914373464882373809814453125},"1":{"id":"9644179","label":"Csurg\u00f3i J\u00e1r\u00e1s","value":"9644179","lat":46.29502000000000094814822659827768802642822265625,"lon":17.100210000000000576392267248593270778656005859375,"poi_name":"Csurg\u00f3i J\u00e1r\u00e1s","parent_id":"3045226","long":17.100210000000000576392267248593270778656005859375},"2":{"id":"9644182","label":"Fony\u00f3di J\u00e1r\u00e1s","value":"9644182","lat":46.67289000000000243062459048815071582794189453125,"lon":17.699999999999999289457264239899814128875732421875,"poi_name":"Fony\u00f3di J\u00e1r\u00e1s","parent_id":"3045226","long":17.699999999999999289457264239899814128875732421875},"3":{"id":"9644180","label":"Kaposv\u00e1ri J\u00e1r\u00e1s","value":"9644180","lat":46.39791000000000309455572278238832950592041015625,"lon":17.76989999999999980673237587325274944305419921875,"poi_name":"Kaposv\u00e1ri J\u00e1r\u00e1s","parent_id":"3045226","long":17.76989999999999980673237587325274944305419921875},"4":{"id":"9644181","label":"Marcali J\u00e1r\u00e1s","value":"9644181","lat":46.5438199999999966394170769490301609039306640625,"lon":17.39202999999999832425601198337972164154052734375,"poi_name":"Marcali J\u00e1r\u00e1s","parent_id":"3045226","long":17.39202999999999832425601198337972164154052734375},"5":{"id":"9644178","label":"Nagyat\u00e1di J\u00e1r\u00e1s","value":"9644178","lat":46.25200000000000244426701101474463939666748046875,"lon":17.37519999999999953388396534137427806854248046875,"poi_name":"Nagyat\u00e1di J\u00e1r\u00e1s","parent_id":"3045226","long":17.37519999999999953388396534137427806854248046875},"6":{"id":"9644187","label":"Si\u00f3foki J\u00e1r\u00e1s","value":"9644187","lat":46.8506000000000000227373675443232059478759765625,"lon":17.996249999999999857891452847979962825775146484375,"poi_name":"Si\u00f3foki J\u00e1r\u00e1s","parent_id":"3045226","long":17.996249999999999857891452847979962825775146484375},"7":{"id":"9644188","label":"Tabi J\u00e1r\u00e1s","value":"9644188","lat":46.68037000000000347199602401815354824066162109375,"lon":18.0056000000000011596057447604835033416748046875,"poi_name":"Tabi J\u00e1r\u00e1s","parent_id":"3045226","long":18.0056000000000011596057447604835033416748046875}}