{"success":true,"remaining_lookups":9068,"0":{"id":"9644348","label":"Asz\u00f3di J\u00e1r\u00e1s","value":"9644348","lat":47.6473799999999982901499606668949127197265625,"lon":19.5424000000000006593836587853729724884033203125,"poi_name":"Asz\u00f3di J\u00e1r\u00e1s","parent_id":"3046431","long":19.5424000000000006593836587853729724884033203125},"1":{"id":"9644349","label":"Budakeszi J\u00e1r\u00e1s","value":"9644349","lat":47.49788000000000209865902434103190898895263671875,"lon":18.849799999999998334487827378325164318084716796875,"poi_name":"Budakeszi J\u00e1r\u00e1s","parent_id":"3046431","long":18.849799999999998334487827378325164318084716796875},"2":{"id":"9644350","label":"Cegl\u00e9di J\u00e1r\u00e1s","value":"9644350","lat":47.2000000000000028421709430404007434844970703125,"lon":19.8246299999999990859578247182071208953857421875,"poi_name":"Cegl\u00e9di J\u00e1r\u00e1s","parent_id":"3046431","long":19.8246299999999990859578247182071208953857421875},"3":{"id":"9644351","label":"Dabasi J\u00e1r\u00e1s","value":"9644351","lat":47.18999999999999772626324556767940521240234375,"lon":19.3299999999999982946974341757595539093017578125,"poi_name":"Dabasi J\u00e1r\u00e1s","parent_id":"3046431","long":19.3299999999999982946974341757595539093017578125},"4":{"id":"9644352","label":"Dunakeszi J\u00e1r\u00e1s","value":"9644352","lat":47.6336500000000029331204132176935672760009765625,"lon":19.16253999999999990677679306827485561370849609375,"poi_name":"Dunakeszi J\u00e1r\u00e1s","parent_id":"3046431","long":19.16253999999999990677679306827485561370849609375},"5":{"id":"9644355","label":"Gy\u00e1li J\u00e1r\u00e1s","value":"9644355","lat":47.36820999999999770579961477778851985931396484375,"lon":19.275430000000000063664629124104976654052734375,"poi_name":"Gy\u00e1li J\u00e1r\u00e1s","parent_id":"3046431","long":19.275430000000000063664629124104976654052734375},"6":{"id":"9644354","label":"G\u00f6d\u00f6ll\u0151i J\u00e1r\u00e1s","value":"9644354","lat":47.5512700000000023692336981184780597686767578125,"lon":19.395949999999999135980033315718173980712890625,"poi_name":"G\u00f6d\u00f6ll\u0151i J\u00e1r\u00e1s","parent_id":"3046431","long":19.395949999999999135980033315718173980712890625},"7":{"id":"9644356","label":"Monori J\u00e1r\u00e1s","value":"9644356","lat":47.34989999999999810142981004901230335235595703125,"lon":19.476800000000000778754838393069803714752197265625,"poi_name":"Monori J\u00e1r\u00e1s","parent_id":"3046431","long":19.476800000000000778754838393069803714752197265625},"8":{"id":"9644735","label":"Nagyk\u00e1tai J\u00e1r\u00e1s","value":"9644735","lat":47.39108999999999838337316759862005710601806640625,"lon":19.739200000000000301270119962282478809356689453125,"poi_name":"Nagyk\u00e1tai J\u00e1r\u00e1s","parent_id":"3046431","long":19.739200000000000301270119962282478809356689453125},"9":{"id":"9644742","label":"Nagyk\u0151r\u00f6si J\u00e1r\u00e1s","value":"9644742","lat":47.035629999999997608028934337198734283447265625,"lon":19.792590000000000571844793739728629589080810546875,"poi_name":"Nagyk\u0151r\u00f6si J\u00e1r\u00e1s","parent_id":"3046431","long":19.792590000000000571844793739728629589080810546875},"10":{"id":"9644739","label":"Pilisv\u00f6r\u00f6sv\u00e1ri J\u00e1r\u00e1s","value":"9644739","lat":47.609250000000002955857780762016773223876953125,"lon":18.8665799999999990177457220852375030517578125,"poi_name":"Pilisv\u00f6r\u00f6sv\u00e1ri J\u00e1r\u00e1s","parent_id":"3046431","long":18.8665799999999990177457220852375030517578125},"11":{"id":"9644737","label":"R\u00e1ckevei J\u00e1r\u00e1s","value":"9644737","lat":47.15158000000000271256794803775846958160400390625,"lon":19.014559999999999462261257576756179332733154296875,"poi_name":"R\u00e1ckevei J\u00e1r\u00e1s","parent_id":"3046431","long":19.014559999999999462261257576756179332733154296875},"12":{"id":"9644738","label":"Szentendrei J\u00e1r\u00e1s","value":"9644738","lat":47.7114600000000024238033802248537540435791015625,"lon":19.025240000000000151203494169749319553375244140625,"poi_name":"Szentendrei J\u00e1r\u00e1s","parent_id":"3046431","long":19.025240000000000151203494169749319553375244140625},"13":{"id":"9644736","label":"Szigetszentmikl\u00f3si J\u00e1r\u00e1s","value":"9644736","lat":47.3056600000000031513991416431963443756103515625,"lon":19.028289999999998372004483826458454132080078125,"poi_name":"Szigetszentmikl\u00f3si J\u00e1r\u00e1s","parent_id":"3046431","long":19.028289999999998372004483826458454132080078125},"14":{"id":"9644740","label":"Szobi J\u00e1r\u00e1s","value":"9644740","lat":47.93419000000000096406438387930393218994140625,"lon":18.85437999999999902911440585739910602569580078125,"poi_name":"Szobi J\u00e1r\u00e1s","parent_id":"3046431","long":18.85437999999999902911440585739910602569580078125},"15":{"id":"9644741","label":"Vecs\u00e9si J\u00e1r\u00e1s","value":"9644741","lat":47.42922999999999689180185669101774692535400390625,"lon":19.301359999999998962039171601645648479461669921875,"poi_name":"Vecs\u00e9si J\u00e1r\u00e1s","parent_id":"3046431","long":19.301359999999998962039171601645648479461669921875},"16":{"id":"9644347","label":"V\u00e1ci J\u00e1r\u00e1s","value":"9644347","lat":47.78316000000000229874785873107612133026123046875,"lon":19.238820000000000476347850053571164608001708984375,"poi_name":"V\u00e1ci J\u00e1r\u00e1s","parent_id":"3046431","long":19.238820000000000476347850053571164608001708984375},"17":{"id":"9644353","label":"\u00c9rdi J\u00e1r\u00e1s","value":"9644353","lat":47.35600000000000164845914696343243122100830078125,"lon":18.901669999999999305373421520926058292388916015625,"poi_name":"\u00c9rdi J\u00e1r\u00e1s","parent_id":"3046431","long":18.901669999999999305373421520926058292388916015625}}