{"success":true,"remaining_lookups":9074,"0":{"id":"9644149","label":"Csornai J\u00e1r\u00e1s","value":"9644149","lat":47.5840299999999984947862685658037662506103515625,"lon":17.26041000000000025238477974198758602142333984375,"poi_name":"Csornai J\u00e1r\u00e1s","parent_id":"3051977","long":17.26041000000000025238477974198758602142333984375},"1":{"id":"9644151","label":"Gy\u0151ri J\u00e1r\u00e1s","value":"9644151","lat":47.672730000000001382431946694850921630859375,"lon":17.679359999999999075726009323261678218841552734375,"poi_name":"Gy\u0151ri J\u00e1r\u00e1s","parent_id":"3051977","long":17.679359999999999075726009323261678218841552734375},"2":{"id":"9644148","label":"Kapuv\u00e1ri J\u00e1r\u00e1s","value":"9644148","lat":47.56705000000000183035808731801807880401611328125,"lon":17.040559999999999263309291563928127288818359375,"poi_name":"Kapuv\u00e1ri J\u00e1r\u00e1s","parent_id":"3051977","long":17.040559999999999263309291563928127288818359375},"3":{"id":"9644150","label":"Mosonmagyar\u00f3v\u00e1ri J\u00e1r\u00e1s","value":"9644150","lat":47.8576699999999988222043612040579319000244140625,"lon":17.28211999999999903820935287512838840484619140625,"poi_name":"Mosonmagyar\u00f3v\u00e1ri J\u00e1r\u00e1s","parent_id":"3051977","long":17.28211999999999903820935287512838840484619140625},"4":{"id":"9644153","label":"Pannonhalmi J\u00e1r\u00e1s","value":"9644153","lat":47.45571000000000339014150085859000682830810546875,"lon":17.8133499999999997953636921010911464691162109375,"poi_name":"Pannonhalmi J\u00e1r\u00e1s","parent_id":"3051977","long":17.8133499999999997953636921010911464691162109375},"5":{"id":"9644140","label":"Soproni J\u00e1r\u00e1s","value":"9644140","lat":47.60385000000000133013600134290754795074462890625,"lon":16.756540000000001100488589145243167877197265625,"poi_name":"Soproni J\u00e1r\u00e1s","parent_id":"3051977","long":16.756540000000001100488589145243167877197265625},"6":{"id":"9644152","label":"T\u00e9ti J\u00e1r\u00e1s","value":"9644152","lat":47.51514999999999844249032321386039257049560546875,"lon":17.516120000000000800355337560176849365234375,"poi_name":"T\u00e9ti J\u00e1r\u00e1s","parent_id":"3051977","long":17.516120000000000800355337560176849365234375}}