{"success":true,"remaining_lookups":9072,"0":{"id":"9644333","label":"B\u00e9lap\u00e1tfalvai J\u00e1r\u00e1s","value":"9644333","lat":48.06385999999999825149643584154546260833740234375,"lon":20.361630000000001672333382884971797466278076171875,"poi_name":"B\u00e9lap\u00e1tfalvai J\u00e1r\u00e1s","parent_id":"720002","long":20.361630000000001672333382884971797466278076171875},"1":{"id":"9644334","label":"Egri J\u00e1r\u00e1s","value":"9644334","lat":47.929609999999996716724126599729061126708984375,"lon":20.373830000000001660964699112810194492340087890625,"poi_name":"Egri J\u00e1r\u00e1s","parent_id":"720002","long":20.373830000000001660964699112810194492340087890625},"2":{"id":"9644335","label":"F\u00fczesabonyi J\u00e1r\u00e1s","value":"9644335","lat":47.726709999999997080522007308900356292724609375,"lon":20.42875000000000085265128291212022304534912109375,"poi_name":"F\u00fczesabonyi J\u00e1r\u00e1s","parent_id":"720002","long":20.42875000000000085265128291212022304534912109375},"3":{"id":"9644336","label":"Gy\u00f6ngy\u00f6si J\u00e1r\u00e1s","value":"9644336","lat":47.7907900000000012141754268668591976165771484375,"lon":19.954299999999999926103555480949580669403076171875,"poi_name":"Gy\u00f6ngy\u00f6si J\u00e1r\u00e1s","parent_id":"720002","long":19.954299999999999926103555480949580669403076171875},"4":{"id":"9644337","label":"Hatvani J\u00e1r\u00e1s","value":"9644337","lat":47.69467999999999818783180671744048595428466796875,"lon":19.728519999999999612327883369289338588714599609375,"poi_name":"Hatvani J\u00e1r\u00e1s","parent_id":"720002","long":19.728519999999999612327883369289338588714599609375},"5":{"id":"9644338","label":"Hevesi J\u00e1r\u00e1s","value":"9644338","lat":47.61534999999999939745976007543504238128662109375,"lon":20.317389999999999616875356878153979778289794921875,"poi_name":"Hevesi J\u00e1r\u00e1s","parent_id":"720002","long":20.317389999999999616875356878153979778289794921875},"6":{"id":"9644339","label":"P\u00e9terv\u00e1s\u00e1rai J\u00e1r\u00e1s","value":"9644339","lat":48.00589000000000083900886238552629947662353515625,"lon":20.094660000000001076614353223703801631927490234375,"poi_name":"P\u00e9terv\u00e1s\u00e1rai J\u00e1r\u00e1s","parent_id":"720002","long":20.094660000000001076614353223703801631927490234375}}