{"success":true,"remaining_lookups":9653,"0":{"id":"9253814","label":"Bati","value":"9253814","lat":11.27289999999999992041921359486877918243408203125,"lon":104.822239999999993642632034607231616973876953125,"poi_name":"Bati","parent_id":"1821939","long":104.822239999999993642632034607231616973876953125},"1":{"id":"9253815","label":"Kiri Vong","value":"9253815","lat":10.63880999999999943383954814635217189788818359375,"lon":104.798360000000002401066012680530548095703125,"poi_name":"Kiri Vong","parent_id":"1821939","long":104.798360000000002401066012680530548095703125},"2":{"id":"8405707","label":"Kr\u014fng Doun Kaev","value":"8405707","lat":10.9945900000000005292122295941226184368133544921875,"lon":104.79550000000000409272615797817707061767578125,"poi_name":"Kr\u014fng Doun Kaev","parent_id":"1821939","long":104.79550000000000409272615797817707061767578125},"3":{"id":"9253816","label":"Prey Kabbas","value":"9253816","lat":11.1436399999999995458210833021439611911773681640625,"lon":104.9326400000000063528204918839037418365478515625,"poi_name":"Prey Kabbas","parent_id":"1821939","long":104.9326400000000063528204918839037418365478515625},"4":{"id":"8405262","label":"Sr\u014fk Borei Cholsar","value":"8405262","lat":10.8141400000000000858335624798201024532318115234375,"lon":104.9899400000000042609826778061687946319580078125,"poi_name":"Sr\u014fk Borei Cholsar","parent_id":"1821939","long":104.9899400000000042609826778061687946319580078125},"5":{"id":"8405261","label":"Sr\u014fk \u00c2ngk\u00f4r Borei","value":"8405261","lat":10.9929100000000001813305061659775674343109130859375,"lon":104.9517699999999962301444611512124538421630859375,"poi_name":"Sr\u014fk \u00c2ngk\u00f4r Borei","parent_id":"1821939","long":104.9517699999999962301444611512124538421630859375},"6":{"id":"9253818","label":"Tram Kak","value":"9253818","lat":11.0099800000000005439915184979327023029327392578125,"lon":104.6082099999999996953192749060690402984619140625,"poi_name":"Tram Kak","parent_id":"1821939","long":104.6082099999999996953192749060690402984619140625},"7":{"id":"9253819","label":"Treang","value":"9253819","lat":10.8813399999999997902477844036184251308441162109375,"lon":104.805080000000003792592906393110752105712890625,"poi_name":"Treang","parent_id":"1821939","long":104.805080000000003792592906393110752105712890625}}