{"success":true,"remaining_lookups":9674,"0":{"id":"7647214","label":"Moung Ruessei","value":"7647214","lat":12.7799999999999993605115378159098327159881591796875,"lon":103.4200000000000017053025658242404460906982421875,"poi_name":"Moung Ruessei","parent_id":"1821310","long":103.4200000000000017053025658242404460906982421875},"1":{"id":"7647213","label":"Sangkae","value":"7647213","lat":13.0600000000000004973799150320701301097869873046875,"lon":103.4200000000000017053025658242404460906982421875,"poi_name":"Sangkae","parent_id":"1821310","long":103.4200000000000017053025658242404460906982421875},"2":{"id":"8541388","label":"Sr\u014fk Ban\u0103n","value":"8541388","lat":12.9706700000000001438138497178442776203155517578125,"lon":103.0474200000000024601831682957708835601806640625,"poi_name":"Sr\u014fk Ban\u0103n","parent_id":"1821310","long":103.0474200000000024601831682957708835601806640625},"3":{"id":"8403576","label":"Sr\u014fk B\u00e2v\u012dl","value":"8403576","lat":13.23601000000000027512214728631079196929931640625,"lon":102.8290999999999968395059113390743732452392578125,"poi_name":"Sr\u014fk B\u00e2v\u012dl","parent_id":"1821310","long":102.8290999999999968395059113390743732452392578125},"4":{"id":"8403582","label":"Sr\u014fk Rotanak Mondol","value":"8403582","lat":12.8404799999999994497557054273784160614013671875,"lon":102.88700000000000045474735088646411895751953125,"poi_name":"Sr\u014fk Rotanak Mondol","parent_id":"1821310","long":102.88700000000000045474735088646411895751953125},"5":{"id":"8403643","label":"Sr\u014fk S\u00e2mlot","value":"8403643","lat":12.5829299999999992820676197879947721958160400390625,"lon":102.859970000000004120010999031364917755126953125,"poi_name":"Sr\u014fk S\u00e2mlot","parent_id":"1821310","long":102.859970000000004120010999031364917755126953125},"6":{"id":"8403559","label":"Sr\u014fk Thm\u00e2 Ko\u016dl","value":"8403559","lat":13.2777399999999996538235791376791894435882568359375,"lon":103.0954100000000011050360626541078090667724609375,"poi_name":"Sr\u014fk Thm\u00e2 Ko\u016dl","parent_id":"1821310","long":103.0954100000000011050360626541078090667724609375},"7":{"id":"8541389","label":"Sr\u014fk \u00c2k Phn\u016dm","value":"8541389","lat":13.236209999999999809006112627685070037841796875,"lon":103.4589399999999983492671162821352481842041015625,"poi_name":"Sr\u014fk \u00c2k Phn\u016dm","parent_id":"1821310","long":103.4589399999999983492671162821352481842041015625},"8":{"id":"7647212","label":"Svay Pao","value":"7647212","lat":13.08500000000000085265128291212022304534912109375,"lon":103.18000000000000682121026329696178436279296875,"poi_name":"Svay Pao","parent_id":"1821310","long":103.18000000000000682121026329696178436279296875}}