{"success":true,"remaining_lookups":9659,"0":{"id":"7647215","label":"Bakan","value":"7647215","lat":12.7799999999999993605115378159098327159881591796875,"lon":103.7900000000000062527760746888816356658935546875,"poi_name":"Bakan","parent_id":"1821301","long":103.7900000000000062527760746888816356658935546875},"1":{"id":"7647217","label":"Krakor","value":"7647217","lat":12.480000000000000426325641456060111522674560546875,"lon":104.18999999999999772626324556767940521240234375,"poi_name":"Krakor","parent_id":"1821301","long":104.18999999999999772626324556767940521240234375},"2":{"id":"8405252","label":"Kr\u014fng Po\u016dth\u012ds\u0103t","value":"8405252","lat":12.52750999999999947931428323499858379364013671875,"lon":103.9181300000000049976733862422406673431396484375,"poi_name":"Kr\u014fng Po\u016dth\u012ds\u0103t","parent_id":"1821301","long":103.9181300000000049976733862422406673431396484375},"3":{"id":"9253798","label":"Phnum Kravanh","value":"9253798","lat":12.176320000000000476347850053571164608001708984375,"lon":103.8261399999999952115103951655328273773193359375,"poi_name":"Phnum Kravanh","parent_id":"1821301","long":103.8261399999999952115103951655328273773193359375},"4":{"id":"7647216","label":"Sampov Meas","value":"7647216","lat":12.470549999999999357669366872869431972503662109375,"lon":103.918170000000003483364707790315151214599609375,"poi_name":"Sampov Meas","parent_id":"1821301","long":103.918170000000003483364707790315151214599609375},"5":{"id":"8405251","label":"Sr\u014fk K\u00e2ndi\u0115ng","value":"8405251","lat":12.712450000000000471800376544706523418426513671875,"lon":104.0259199999999992769517120905220508575439453125,"poi_name":"Sr\u014fk K\u00e2ndi\u0115ng","parent_id":"1821301","long":104.0259199999999992769517120905220508575439453125},"6":{"id":"8405253","label":"Sr\u014fk V\u00e9al V\u00eang","value":"8405253","lat":12.2423000000000001818989403545856475830078125,"lon":103.1344399999999978945197653956711292266845703125,"poi_name":"Sr\u014fk V\u00e9al V\u00eang","parent_id":"1821301","long":103.1344399999999978945197653956711292266845703125}}