{"success":true,"remaining_lookups":9654,"0":{"id":"9253811","label":"Chantrea","value":"9253811","lat":10.9456299999999995264943208894692361354827880859375,"lon":106.1145900000000068530425778590142726898193359375,"poi_name":"Chantrea","parent_id":"1821992","long":106.1145900000000068530425778590142726898193359375},"1":{"id":"9253820","label":"Kampong Rou","value":"9253820","lat":10.943049999999999499777914024889469146728515625,"lon":105.94125999999999976353137753903865814208984375,"poi_name":"Kampong Rou","parent_id":"1821992","long":105.94125999999999976353137753903865814208984375},"2":{"id":"8406206","label":"Kr\u014fng Bav\u0115t","value":"8406206","lat":11.0649899999999998811972545809112489223480224609375,"lon":106.09188000000000329237082041800022125244140625,"poi_name":"Kr\u014fng Bav\u0115t","parent_id":"1821992","long":106.09188000000000329237082041800022125244140625},"3":{"id":"9253812","label":"Romeas Haek","value":"9253812","lat":11.4232600000000008577671906095929443836212158203125,"lon":105.77231000000000449290382675826549530029296875,"poi_name":"Romeas Haek","parent_id":"1821992","long":105.77231000000000449290382675826549530029296875},"4":{"id":"9253813","label":"Rumduol","value":"9253813","lat":11.2216100000000000846966941026039421558380126953125,"lon":105.829779999999999517967808060348033905029296875,"poi_name":"Rumduol","parent_id":"1821992","long":105.829779999999999517967808060348033905029296875},"5":{"id":"8403503","label":"Sr\u014fk Svay Chr\u016dm","value":"8403503","lat":11.111599999999999255351212923415005207061767578125,"lon":105.698139999999995097823557443916797637939453125,"poi_name":"Sr\u014fk Svay Chr\u016dm","parent_id":"1821992","long":105.698139999999995097823557443916797637939453125}}