{"success":true,"remaining_lookups":9658,"0":{"id":"9253799","label":"Lumphat","value":"9253799","lat":13.42305999999999954752638586796820163726806640625,"lon":107.0846499999999963392838253639638423919677734375,"poi_name":"Lumphat","parent_id":"1822449","long":107.0846499999999963392838253639638423919677734375},"1":{"id":"8405026","label":"Sr\u014fk Ban L\u016dng","value":"8405026","lat":13.6820000000000003836930773104541003704071044921875,"lon":107.030249999999995225152815692126750946044921875,"poi_name":"Sr\u014fk Ban L\u016dng","parent_id":"1822449","long":107.030249999999995225152815692126750946044921875},"2":{"id":"8405027","label":"Sr\u014fk B\u00e2 K\u00eav","value":"8405027","lat":13.70748999999999995225152815692126750946044921875,"lon":107.1944199999999938199835014529526233673095703125,"poi_name":"Sr\u014fk B\u00e2 K\u00eav","parent_id":"1822449","long":107.1944199999999938199835014529526233673095703125},"3":{"id":"8405028","label":"Sr\u014fk Koun Mom","value":"8405028","lat":13.517720000000000624140739091672003269195556640625,"lon":106.75141999999999598003341816365718841552734375,"poi_name":"Sr\u014fk Koun Mom","parent_id":"1822449","long":106.75141999999999598003341816365718841552734375},"4":{"id":"8405029","label":"Sr\u014fk Ou Chum","value":"8405029","lat":13.8406900000000003814193405560217797756195068359375,"lon":107.0346899999999976671460899524390697479248046875,"poi_name":"Sr\u014fk Ou Chum","parent_id":"1822449","long":107.0346899999999976671460899524390697479248046875},"5":{"id":"8405030","label":"Sr\u014fk Ou Ya Dav","value":"8405030","lat":13.543279999999999319015842047519981861114501953125,"lon":107.446359999999998535713530145585536956787109375,"poi_name":"Sr\u014fk Ou Ya Dav","parent_id":"1822449","long":107.446359999999998535713530145585536956787109375},"6":{"id":"8405031","label":"Sr\u014fk Ta V\u00eang","value":"8405031","lat":14.2919199999999992911625668057240545749664306640625,"lon":107.240309999999993806341080926358699798583984375,"poi_name":"Sr\u014fk Ta V\u00eang","parent_id":"1822449","long":107.240309999999993806341080926358699798583984375},"7":{"id":"8405025","label":"Sr\u014fk \u00c2ndong M\u00e9as","value":"8405025","lat":13.9335199999999996833821569452993571758270263671875,"lon":107.3115499999999968849806464277207851409912109375,"poi_name":"Sr\u014fk \u00c2ndong M\u00e9as","parent_id":"1822449","long":107.3115499999999968849806464277207851409912109375},"8":{"id":"9253800","label":"Veun Sai","value":"9253800","lat":14.050200000000000244426701101474463939666748046875,"lon":106.8589099999999945111994748003780841827392578125,"poi_name":"Veun Sai","parent_id":"1822449","long":106.8589099999999945111994748003780841827392578125}}