{"success":true,"remaining_lookups":9660,"0":{"id":"9253789","label":"Ba Phnum","value":"9253789","lat":11.2801700000000000301270119962282478809356689453125,"lon":105.4244900000000058071236708201467990875244140625,"poi_name":"Ba Phnum","parent_id":"1822609","long":105.4244900000000058071236708201467990875244140625},"1":{"id":"9253790","label":"Kamchay Mear","value":"9253790","lat":11.58697000000000087993612396530807018280029296875,"lon":105.6445700000000016416379367001354694366455078125,"poi_name":"Kamchay Mear","parent_id":"1822609","long":105.6445700000000016416379367001354694366455078125},"2":{"id":"9253791","label":"Kampong Trabaek","value":"9253791","lat":11.09467000000000069803718361072242259979248046875,"lon":105.537769999999994752215570770204067230224609375,"poi_name":"Kampong Trabaek","parent_id":"1822609","long":105.537769999999994752215570770204067230224609375},"3":{"id":"9253792","label":"Kanhchriech","value":"9253792","lat":11.6839899999999996538235791376791894435882568359375,"lon":105.562399999999996680344338528811931610107421875,"poi_name":"Kanhchriech","parent_id":"1822609","long":105.562399999999996680344338528811931610107421875},"4":{"id":"9253770","label":"Lvea Aem","value":"9253770","lat":11.52195999999999997953636921010911464691162109375,"lon":105.12479999999999336068867705762386322021484375,"poi_name":"Lvea Aem","parent_id":"1822609","long":105.12479999999999336068867705762386322021484375},"5":{"id":"10627327","label":"Me Sang","value":"10627327","lat":11.300000000000000710542735760100185871124267578125,"lon":105.5499999999999971578290569595992565155029296875,"poi_name":"Me Sang","parent_id":"1822609","long":105.5499999999999971578290569595992565155029296875},"6":{"id":"9253793","label":"Pea Reang","value":"9253793","lat":11.651939999999999741930878371931612491607666015625,"lon":105.2390299999999996316546457819640636444091796875,"poi_name":"Pea Reang","parent_id":"1822609","long":105.2390299999999996316546457819640636444091796875},"7":{"id":"9253795","label":"Peam Chor","value":"9253795","lat":11.0104799999999993787014318513683974742889404296875,"lon":105.271019999999992933226167224347591400146484375,"poi_name":"Peam Chor","parent_id":"1822609","long":105.271019999999992933226167224347591400146484375},"8":{"id":"9253796","label":"Peam Ro","value":"9253796","lat":11.3505500000000001392663762089796364307403564453125,"lon":105.3196899999999942565409583039581775665283203125,"poi_name":"Peam Ro","parent_id":"1822609","long":105.3196899999999942565409583039581775665283203125},"9":{"id":"9253797","label":"Sithor Kandal","value":"9253797","lat":11.771190000000000708268999005667865276336669921875,"lon":105.3654800000000051340975915081799030303955078125,"poi_name":"Sithor Kandal","parent_id":"1822609","long":105.3654800000000051340975915081799030303955078125},"10":{"id":"8406197","label":"Sr\u014fk K\u00e2mp\u00f3ng L\u00e9av","value":"8406197","lat":11.5097000000000004860112312599085271358489990234375,"lon":105.3011000000000052523319027386605739593505859375,"poi_name":"Sr\u014fk K\u00e2mp\u00f3ng L\u00e9av","parent_id":"1822609","long":105.3011000000000052523319027386605739593505859375},"11":{"id":"8406192","label":"Sr\u014fk M\u00e9sang","value":"8406192","lat":11.35528000000000048430592869408428668975830078125,"lon":105.572350000000000136424205265939235687255859375,"poi_name":"Sr\u014fk M\u00e9sang","parent_id":"1822609","long":105.572350000000000136424205265939235687255859375},"12":{"id":"8406195","label":"Sr\u014fk Pre\u0103h Sd\u00e9ch","value":"8406195","lat":11.0868999999999999772626324556767940521240234375,"lon":105.3749700000000046884451876394450664520263671875,"poi_name":"Sr\u014fk Pre\u0103h Sd\u00e9ch","parent_id":"1822609","long":105.3749700000000046884451876394450664520263671875},"13":{"id":"8406203","label":"Sr\u014fk Svay \u00c2nt\u00f4r","value":"8406203","lat":11.5383700000000004592948243953287601470947265625,"lon":105.4376500000000049794834922067821025848388671875,"poi_name":"Sr\u014fk Svay \u00c2nt\u00f4r","parent_id":"1822609","long":105.4376500000000049794834922067821025848388671875}}