{"success":true,"remaining_lookups":9665,"0":{"id":"9253777","label":"Chhloung","value":"9253777","lat":12.1772299999999997766053638770245015621185302734375,"lon":106.115579999999994242898537777364253997802734375,"poi_name":"Chhloung","parent_id":"1830563","long":106.115579999999994242898537777364253997802734375},"1":{"id":"7647220","label":"Kracheh","value":"7647220","lat":12.57000000000000028421709430404007434844970703125,"lon":106.2000000000000028421709430404007434844970703125,"poi_name":"Kracheh","parent_id":"1830563","long":106.2000000000000028421709430404007434844970703125},"2":{"id":"9253778","label":"Preaek Prasab","value":"9253778","lat":12.4720099999999991524646247853524982929229736328125,"lon":105.87830999999999903593561612069606781005859375,"poi_name":"Preaek Prasab","parent_id":"1830563","long":105.87830999999999903593561612069606781005859375},"3":{"id":"9253779","label":"Sambour","value":"9253779","lat":12.982549999999999812416717759333550930023193359375,"lon":106.092569999999994934114511124789714813232421875,"poi_name":"Sambour","parent_id":"1830563","long":106.092569999999994934114511124789714813232421875},"4":{"id":"9253780","label":"Snuol","value":"9253780","lat":12.1937300000000004018829713459126651287078857421875,"lon":106.4736099999999936471795081160962581634521484375,"poi_name":"Snuol","parent_id":"1830563","long":106.4736099999999936471795081160962581634521484375},"5":{"id":"8405250","label":"Sr\u014fk Ch\u0115t B\u016dri","value":"8405250","lat":12.5669799999999991513277564081363379955291748046875,"lon":106.1942599999999998772182152606546878814697265625,"poi_name":"Sr\u014fk Ch\u0115t B\u016dri","parent_id":"1830563","long":106.1942599999999998772182152606546878814697265625}}