{"success":true,"remaining_lookups":9669,"0":{"id":"9072881","label":"Angkor Chey","value":"9072881","lat":10.7666699999999995185362422489561140537261962890625,"lon":104.650000000000005684341886080801486968994140625,"poi_name":"Angkor Chey","parent_id":"1831111","long":104.650000000000005684341886080801486968994140625},"1":{"id":"9034994","label":"Banteay Meas","value":"9034994","lat":10.6166699999999991632648743689060211181640625,"lon":104.533330000000006521077011711895465850830078125,"poi_name":"Banteay Meas","parent_id":"1831111","long":104.533330000000006521077011711895465850830078125},"2":{"id":"9072882","label":"Chhouk District","value":"9072882","lat":10.8166700000000002290789780090562999248504638671875,"lon":104.4500000000000028421709430404007434844970703125,"poi_name":"Chhouk District","parent_id":"1831111","long":104.4500000000000028421709430404007434844970703125},"3":{"id":"9034950","label":"Kampong Bay","value":"9034950","lat":10.595539999999999736246536485850811004638671875,"lon":104.1713600000000070622263592667877674102783203125,"poi_name":"Kampong Bay","parent_id":"1831111","long":104.1713600000000070622263592667877674102783203125},"4":{"id":"9034991","label":"Kampong Tranch","value":"9034991","lat":10.550000000000000710542735760100185871124267578125,"lon":104.466669999999993478922988288104534149169921875,"poi_name":"Kampong Tranch","parent_id":"1831111","long":104.466669999999993478922988288104534149169921875},"5":{"id":"8740325","label":"Mittakpheap District","value":"8740325","lat":10.624829999999999330384525819681584835052490234375,"lon":103.531080000000002883098204620182514190673828125,"poi_name":"Mittakpheap District","parent_id":"1831111","long":103.531080000000002883098204620182514190673828125},"6":{"id":"9253787","label":"Prey Nob","value":"9253787","lat":10.687039999999999650981408194638788700103759765625,"lon":103.7885299999999944020601105876266956329345703125,"poi_name":"Prey Nob","parent_id":"1831111","long":103.7885299999999944020601105876266956329345703125},"7":{"id":"8405990","label":"Srok Tuek Chhou","value":"8405990","lat":10.7455700000000007321432349272072315216064453125,"lon":104.110129999999998062776285223662853240966796875,"poi_name":"Srok Tuek Chhou","parent_id":"1831111","long":104.110129999999998062776285223662853240966796875},"8":{"id":"8405988","label":"Sr\u014fk Ch\u016dm Kiri","value":"8405988","lat":11.0053999999999998493649400188587605953216552734375,"lon":104.44207000000000107320374809205532073974609375,"poi_name":"Sr\u014fk Ch\u016dm Kiri","parent_id":"1831111","long":104.44207000000000107320374809205532073974609375},"9":{"id":"8405989","label":"Sr\u014fk D\u00e2ngt\u00f3ng","value":"8405989","lat":10.7073300000000006804157237638719379901885986328125,"lon":104.422290000000003828972694464027881622314453125,"poi_name":"Sr\u014fk D\u00e2ngt\u00f3ng","parent_id":"1831111","long":104.422290000000003828972694464027881622314453125}}