{"success":true,"remaining_lookups":7314,"0":{"id":"713388","label":"Andrushivs\u2019kyy Rayon","value":"713388","lat":50.01709000000000315822035190649330615997314453125,"lon":29.0321500000000014551915228366851806640625,"poi_name":"Andrushivs\u2019kyy Rayon","parent_id":"686966","long":29.0321500000000014551915228366851806640625},"1":{"id":"9640807","label":"Berdychivs\u2019ka Mis\u2019krada","value":"9640807","lat":49.8967499999999972715158946812152862548828125,"lon":28.59722000000000008412825991399586200714111328125,"poi_name":"Berdychivs\u2019ka Mis\u2019krada","parent_id":"686966","long":28.59722000000000008412825991399586200714111328125},"2":{"id":"9642483","label":"Brusylivs\u2019kyy Rayon","value":"9642483","lat":50.25638000000000005229594535194337368011474609375,"lon":29.4874200000000001864464138634502887725830078125,"poi_name":"Brusylivs\u2019kyy Rayon","parent_id":"686966","long":29.4874200000000001864464138634502887725830078125},"3":{"id":"9640829","label":"Korostens\u2019ka Mis\u2019krada","value":"9640829","lat":50.95839000000000140744305099360644817352294921875,"lon":28.63110999999999961573848850093781948089599609375,"poi_name":"Korostens\u2019ka Mis\u2019krada","parent_id":"686966","long":28.63110999999999961573848850093781948089599609375},"4":{"id":"9640830","label":"Malyns\u2019ka Mis\u2019krada","value":"9640830","lat":50.7743899999999968031261232681572437286376953125,"lon":29.232169999999999987494447850622236728668212890625,"poi_name":"Malyns\u2019ka Mis\u2019krada","parent_id":"686966","long":29.232169999999999987494447850622236728668212890625},"5":{"id":"702091","label":"Malyns\u2019kyy Rayon","value":"702091","lat":50.83084000000000202135197469033300876617431640625,"lon":29.199259999999998882458385196514427661895751953125,"poi_name":"Malyns\u2019kyy Rayon","parent_id":"686966","long":29.199259999999998882458385196514427661895751953125},"6":{"id":"9640803","label":"Novohrad-Volyns\u2019ka Mis\u2019krada","value":"9640803","lat":50.59203999999999723513610661029815673828125,"lon":27.62765999999999877445588936097919940948486328125,"poi_name":"Novohrad-Volyns\u2019ka Mis\u2019krada","parent_id":"686966","long":27.62765999999999877445588936097919940948486328125},"7":{"id":"696556","label":"Popilnia Raion","value":"696556","lat":49.91667000000000342652128892950713634490966796875,"lon":29.5,"poi_name":"Popilnia Raion","parent_id":"686966","long":29.5},"8":{"id":"9640806","label":"Zhytomyrs\u2019ka Mis\u2019krada","value":"9640806","lat":50.2649899999999973942976794205605983734130859375,"lon":28.673179999999998557314029312692582607269287109375,"poi_name":"Zhytomyrs\u2019ka Mis\u2019krada","parent_id":"686966","long":28.673179999999998557314029312692582607269287109375}}