{"success":true,"remaining_lookups":7324,"0":{"id":"713497","label":"Anan\u2019yivs\u2019kyy Rayon","value":"713497","lat":47.6618799999999964711605571210384368896484375,"lon":29.96394000000000090722096501849591732025146484375,"poi_name":"Anan\u2019yivs\u2019kyy Rayon","parent_id":"698738","long":29.96394000000000090722096501849591732025146484375},"1":{"id":"713164","label":"Artsyz\u2019kyy Rayon","value":"713164","lat":45.93572999999999950659912428818643093109130859375,"lon":29.310649999999998982502802391536533832550048828125,"poi_name":"Artsyz\u2019kyy Rayon","parent_id":"698738","long":29.310649999999998982502802391536533832550048828125},"2":{"id":"712882","label":"Balts\u2019kyy Rayon","value":"712882","lat":47.99828000000000116642695502378046512603759765625,"lon":29.64835000000000064801497501321136951446533203125,"poi_name":"Balts\u2019kyy Rayon","parent_id":"698738","long":29.64835000000000064801497501321136951446533203125},"3":{"id":"712271","label":"Berezivs\u2019kyy Rayon","value":"712271","lat":47.1670299999999969031705404631793498992919921875,"lon":30.893249999999998323119143606163561344146728515625,"poi_name":"Berezivs\u2019kyy Rayon","parent_id":"698738","long":30.893249999999998323119143606163561344146728515625},"4":{"id":"9819414","label":"Bilhorod-Dnistrovs\u2019ka Mis\u2019krada","value":"9819414","lat":46.1889699999999976398612488992512226104736328125,"lon":30.360130000000001615489964024163782596588134765625,"poi_name":"Bilhorod-Dnistrovs\u2019ka Mis\u2019krada","parent_id":"698738","long":30.360130000000001615489964024163782596588134765625},"5":{"id":"712634","label":"Bilhorod-Dnistrovs\u2019kyy Rayon","value":"712634","lat":46.17246999999999701458364143036305904388427734375,"lon":30.134080000000000865156835061497986316680908203125,"poi_name":"Bilhorod-Dnistrovs\u2019kyy Rayon","parent_id":"698738","long":30.134080000000000865156835061497986316680908203125},"6":{"id":"712482","label":"Bilyayivs\u2019kyy Rayon","value":"712482","lat":46.55973000000000183717929758131504058837890625,"lon":30.3300100000000014688339433632791042327880859375,"poi_name":"Bilyayivs\u2019kyy Rayon","parent_id":"698738","long":30.3300100000000014688339433632791042327880859375},"7":{"id":"711842","label":"Bolhrads\u2019kyy Rayon","value":"711842","lat":45.7430499999999966576069709844887256622314453125,"lon":28.800450000000001438138497178442776203155517578125,"poi_name":"Bolhrads\u2019kyy Rayon","parent_id":"698738","long":28.800450000000001438138497178442776203155517578125},"8":{"id":"9821202","label":"Illichivs\u2019ka Mis\u2019krada","value":"9821202","lat":46.2992100000000021964297047816216945648193359375,"lon":30.65565000000000139834810397587716579437255859375,"poi_name":"Illichivs\u2019ka Mis\u2019krada","parent_id":"698738","long":30.65565000000000139834810397587716579437255859375},"9":{"id":"707352","label":"Ivanivs\u2019kyy Rayon","value":"707352","lat":46.952719999999999345163814723491668701171875,"lon":30.521570000000000533191268914379179477691650390625,"poi_name":"Ivanivs\u2019kyy Rayon","parent_id":"698738","long":30.521570000000000533191268914379179477691650390625},"10":{"id":"707309","label":"Izmail\u2019skiy Rayon","value":"707309","lat":45.5,"lon":29,"poi_name":"Izmail\u2019skiy Rayon","parent_id":"698738","long":29},"11":{"id":"9820090","label":"Izmayil\u2019s\u2019ka Mis\u2019krada","value":"9820090","lat":45.35833000000000225782059715129435062408447265625,"lon":28.846170000000000754880602471530437469482421875,"poi_name":"Izmayil\u2019s\u2019ka Mis\u2019krada","parent_id":"698738","long":28.846170000000000754880602471530437469482421875},"12":{"id":"705882","label":"Kiliys\u2019kyy Rayon","value":"705882","lat":45.523020000000002482920535840094089508056640625,"lon":29.4214300000000008594724931754171848297119140625,"poi_name":"Kiliys\u2019kyy Rayon","parent_id":"698738","long":29.4214300000000008594724931754171848297119140625},"13":{"id":"705489","label":"Kodyms\u2019kyy Rayon","value":"705489","lat":48.022840000000002191882231272757053375244140625,"lon":29.140100000000000335376171278767287731170654296875,"poi_name":"Kodyms\u2019kyy Rayon","parent_id":"698738","long":29.140100000000000335376171278767287731170654296875},"14":{"id":"9819573","label":"Kotovs\u2019ka Mis\u2019krada","value":"9819573","lat":47.74703000000000230329533223994076251983642578125,"lon":29.53564000000000078216544352471828460693359375,"poi_name":"Kotovs\u2019ka Mis\u2019krada","parent_id":"698738","long":29.53564000000000078216544352471828460693359375},"15":{"id":"704677","label":"Kotovs\u2019kyy Rayon","value":"704677","lat":47.716419999999999390638549812138080596923828125,"lon":29.545089999999998298108039307408034801483154296875,"poi_name":"Kotovs\u2019kyy Rayon","parent_id":"698738","long":29.545089999999998298108039307408034801483154296875},"16":{"id":"705223","label":"Lyman Raion","value":"705223","lat":46.75,"lon":31,"poi_name":"Lyman Raion","parent_id":"698738","long":31},"17":{"id":"702479","label":"Lyubashivs\u2019kyy Rayon","value":"702479","lat":47.79438999999999992951416061259806156158447265625,"lon":30.204809999999998382236299221403896808624267578125,"poi_name":"Lyubashivs\u2019kyy Rayon","parent_id":"698738","long":30.204809999999998382236299221403896808624267578125},"18":{"id":"700083","label":"Mykolayivs\u2019kyy Rayon","value":"700083","lat":47.46719999999999828332875040359795093536376953125,"lon":30.602830000000000865156835061497986316680908203125,"poi_name":"Mykolayivs\u2019kyy Rayon","parent_id":"698738","long":30.602830000000000865156835061497986316680908203125},"19":{"id":"9819571","label":"Odes\u2019ka Mis\u2019krada","value":"9819571","lat":46.48543000000000091631591203622519969940185546875,"lon":30.744150000000001199396137963049113750457763671875,"poi_name":"Odes\u2019ka Mis\u2019krada","parent_id":"698738","long":30.744150000000001199396137963049113750457763671875},"20":{"id":"704367","label":"Okny Raion","value":"704367","lat":47.5,"lon":29.333330000000000126192389870993793010711669921875,"poi_name":"Okny Raion","parent_id":"698738","long":29.333330000000000126192389870993793010711669921875},"21":{"id":"698136","label":"Ovidiopol\u2019s\u2019kyy Rayon","value":"698136","lat":46.32441000000000030922819860279560089111328125,"lon":30.493770000000001374473868054337799549102783203125,"poi_name":"Ovidiopol\u2019s\u2019kyy Rayon","parent_id":"698738","long":30.493770000000001374473868054337799549102783203125},"22":{"id":"9821222","label":"Reniys\u2019kyy Rayon","value":"9821222","lat":45.4030800000000027694113668985664844512939453125,"lon":28.49376000000000175305103766731917858123779296875,"poi_name":"Reniys\u2019kyy Rayon","parent_id":"698738","long":28.49376000000000175305103766731917858123779296875},"23":{"id":"695745","label":"Rozdil\u2019nyans\u2019kyy Rayon","value":"695745","lat":46.8067199999999985493559506721794605255126953125,"lon":30.175290000000000389945853385142982006072998046875,"poi_name":"Rozdil\u2019nyans\u2019kyy Rayon","parent_id":"698738","long":30.175290000000000389945853385142982006072998046875},"24":{"id":"694810","label":"Sarats\u2019kyy Rayon","value":"694810","lat":46.13591000000000263980837189592421054840087890625,"lon":29.729769999999998475459506153129041194915771484375,"poi_name":"Sarats\u2019kyy Rayon","parent_id":"698738","long":29.729769999999998475459506153129041194915771484375},"25":{"id":"694744","label":"Savrans\u2019kyy Rayon","value":"694744","lat":48.0834899999999976216713548637926578521728515625,"lon":30.0486700000000013233147910796105861663818359375,"poi_name":"Savrans\u2019kyy Rayon","parent_id":"698738","long":30.0486700000000013233147910796105861663818359375},"26":{"id":"694015","label":"Shyryayivs\u2019kyy Rayon","value":"694015","lat":47.331310000000001991793396882712841033935546875,"lon":30.229230000000001155058271251618862152099609375,"poi_name":"Shyryayivs\u2019kyy Rayon","parent_id":"698738","long":30.229230000000001155058271251618862152099609375},"27":{"id":"691821","label":"Tarutyns\u2019kyy Rayon","value":"691821","lat":46.26798999999999750798451714217662811279296875,"lon":29.212599999999998345856511150486767292022705078125,"poi_name":"Tarutyns\u2019kyy Rayon","parent_id":"698738","long":29.212599999999998345856511150486767292022705078125},"28":{"id":"691804","label":"Tatarbunars\u2019kyy Rayon","value":"691804","lat":45.811610000000001718944986350834369659423828125,"lon":29.73962999999999823330654180608689785003662109375,"poi_name":"Tatarbunars\u2019kyy Rayon","parent_id":"698738","long":29.73962999999999823330654180608689785003662109375},"29":{"id":"9821213","label":"Teplodars\u2019ka Mis\u2019krada","value":"9821213","lat":46.5054999999999978399500832892954349517822265625,"lon":30.326499999999999346300683100707828998565673828125,"poi_name":"Teplodars\u2019ka Mis\u2019krada","parent_id":"698738","long":30.326499999999999346300683100707828998565673828125},"30":{"id":"690076","label":"Velykomykhaylivs\u2019kyy Rayon","value":"690076","lat":47.07433999999999940655470709316432476043701171875,"lon":29.901869999999998839257386862300336360931396484375,"poi_name":"Velykomykhaylivs\u2019kyy Rayon","parent_id":"698738","long":29.901869999999998839257386862300336360931396484375},"31":{"id":"9821216","label":"Yuznens\u2019ka Mis\u2019krada","value":"9821216","lat":46.6254899999999992132870829664170742034912109375,"lon":31.0975600000000014233592082746326923370361328125,"poi_name":"Yuznens\u2019ka Mis\u2019krada","parent_id":"698738","long":31.0975600000000014233592082746326923370361328125},"32":{"id":"709070","label":"Zakharivka Raion","value":"709070","lat":47.33332999999999657347871107049286365509033203125,"lon":29.666669999999999873807610129006206989288330078125,"poi_name":"Zakharivka Raion","parent_id":"698738","long":29.666669999999999873807610129006206989288330078125}}