{"success":true,"remaining_lookups":7331,"0":{"id":"712584","label":"Bilohirs\u2019kyy Rayon","value":"712584","lat":50.01955000000000239879227592609822750091552734375,"lon":26.3663099999999985811882652342319488525390625,"poi_name":"Bilohirs\u2019kyy Rayon","parent_id":"706370","long":26.3663099999999985811882652342319488525390625},"1":{"id":"710863","label":"Chemerovets\u2019kyy Rayon","value":"710863","lat":48.96166000000000195768734556622803211212158203125,"lon":26.363189999999999457713784067891538143157958984375,"poi_name":"Chemerovets\u2019kyy Rayon","parent_id":"706370","long":26.363189999999999457713784067891538143157958984375},"2":{"id":"710128","label":"Derazhnyans\u2019kyy Rayon","value":"710128","lat":49.2267599999999987403498380444943904876708984375,"lon":27.466029999999999944293449516408145427703857421875,"poi_name":"Derazhnyans\u2019kyy Rayon","parent_id":"706370","long":27.466029999999999944293449516408145427703857421875},"3":{"id":"709432","label":"Dunayevets\u2019kyy Rayon","value":"709432","lat":48.89811999999999869714883971028029918670654296875,"lon":26.849070000000001101625457522459328174591064453125,"poi_name":"Dunayevets\u2019kyy Rayon","parent_id":"706370","long":26.849070000000001101625457522459328174591064453125},"4":{"id":"707751","label":"Horodots\u2019kyy Rayon","value":"707751","lat":49.21652000000000271029421128332614898681640625,"lon":26.488589999999998525481714750640094280242919921875,"poi_name":"Horodots\u2019kyy Rayon","parent_id":"706370","long":26.488589999999998525481714750640094280242919921875},"5":{"id":"707294","label":"Izyaslavs\u2019kyy Rayon","value":"707294","lat":50.10204999999999841975295566953718662261962890625,"lon":26.700179999999999580495568807236850261688232421875,"poi_name":"Izyaslavs\u2019kyy Rayon","parent_id":"706370","long":26.700179999999999580495568807236850261688232421875},"6":{"id":"9532892","label":"Kam\u201dyanets\u2019-Podil\u2019s\u2019ka Mis\u2019krada","value":"9532892","lat":48.68912999999999868805389269255101680755615234375,"lon":26.58867000000000047066350816749036312103271484375,"poi_name":"Kam\u201dyanets\u2019-Podil\u2019s\u2019ka Mis\u2019krada","parent_id":"706370","long":26.58867000000000047066350816749036312103271484375},"7":{"id":"9532774","label":"Khmel\u2019nyts\u2019ka Mis\u2019krada","value":"9532774","lat":49.41230999999999795591065776534378528594970703125,"lon":26.997440000000000992486093309707939624786376953125,"poi_name":"Khmel\u2019nyts\u2019ka Mis\u2019krada","parent_id":"706370","long":26.997440000000000992486093309707939624786376953125},"8":{"id":"706375","label":"Khmel\u2019nyts\u2019kyy Rayon","value":"706375","lat":49.4451099999999996725819073617458343505859375,"lon":26.932680000000001285798134631477296352386474609375,"poi_name":"Khmel\u2019nyts\u2019kyy Rayon","parent_id":"706370","long":26.932680000000001285798134631477296352386474609375},"9":{"id":"704483","label":"Krasylivs\u2019kyy Rayon","value":"704483","lat":49.7215800000000029967850423417985439300537109375,"lon":26.871469999999998634621078963391482830047607421875,"poi_name":"Krasylivs\u2019kyy Rayon","parent_id":"706370","long":26.871469999999998634621078963391482830047607421875},"10":{"id":"703141","label":"Letychivs\u2019kyy Rayon","value":"703141","lat":49.407769999999999299689079634845256805419921875,"lon":27.569880000000001274429450859315693378448486328125,"poi_name":"Letychivs\u2019kyy Rayon","parent_id":"706370","long":27.569880000000001274429450859315693378448486328125},"11":{"id":"9532955","label":"Netishyns\u2019ka Mis\u2019krada","value":"9532955","lat":50.32916999999999774217940284870564937591552734375,"lon":26.63049000000000177124093170277774333953857421875,"poi_name":"Netishyns\u2019ka Mis\u2019krada","parent_id":"706370","long":26.63049000000000177124093170277774333953857421875},"12":{"id":"9532888","label":"Shepetivs\u2019ka Mis\u2019krada","value":"9532888","lat":50.1817800000000033833202905952930450439453125,"lon":27.064119999999999066631062305532395839691162109375,"poi_name":"Shepetivs\u2019ka Mis\u2019krada","parent_id":"706370","long":27.064119999999999066631062305532395839691162109375},"13":{"id":"9532860","label":"Slavuts\u2019ka Mis\u2019krada","value":"9532860","lat":50.29856000000000193494997802190482616424560546875,"lon":26.8719099999999997407940099947154521942138671875,"poi_name":"Slavuts\u2019ka Mis\u2019krada","parent_id":"706370","long":26.8719099999999997407940099947154521942138671875},"14":{"id":"9532887","label":"Starokostyantynivs\u2019ka Mis\u2019krada","value":"9532887","lat":49.75059999999999860165189602412283420562744140625,"lon":27.215740000000000264890331891365349292755126953125,"poi_name":"Starokostyantynivs\u2019ka Mis\u2019krada","parent_id":"706370","long":27.215740000000000264890331891365349292755126953125},"15":{"id":"691713","label":"Teofipol\u2019s\u2019kyy Rayon","value":"691713","lat":49.80955999999999761485014460049569606781005859375,"lon":26.44227000000000060708771343342959880828857421875,"poi_name":"Teofipol\u2019s\u2019kyy Rayon","parent_id":"706370","long":26.44227000000000060708771343342959880828857421875}}