{"success":true,"remaining_lookups":7334,"0":{"id":"711888","label":"Bohorodchans\u2019kyy Rayon","value":"711888","lat":48.72278000000000020008883439004421234130859375,"lon":24.3804200000000008685674401931464672088623046875,"poi_name":"Bohorodchans\u2019kyy Rayon","parent_id":"707470","long":24.3804200000000008685674401931464672088623046875},"1":{"id":"9524095","label":"Bolekhivs\u2019ka Mis\u2019krada","value":"9524095","lat":49.0625500000000016598278307355940341949462890625,"lon":23.843389999999999417923390865325927734375,"poi_name":"Bolekhivs\u2019ka Mis\u2019krada","parent_id":"707470","long":23.843389999999999417923390865325927734375},"2":{"id":"711580","label":"Borshchevskiy Rayon","value":"711580","lat":48.75,"lon":26,"poi_name":"Borshchevskiy Rayon","parent_id":"707470","long":26},"3":{"id":"9524109","label":"Burshtyns\u2019ka Mis\u2019krada","value":"9524109","lat":49.25216999999999956116880639456212520599365234375,"lon":24.633199999999998652810972998850047588348388671875,"poi_name":"Burshtyns\u2019ka Mis\u2019krada","parent_id":"707470","long":24.633199999999998652810972998850047588348388671875},"4":{"id":"709779","label":"Dolyns\u2019kyy Rayon","value":"709779","lat":48.891480000000001382431946694850921630859375,"lon":23.843430000000001456328391213901340961456298828125,"poi_name":"Dolyns\u2019kyy Rayon","parent_id":"707470","long":23.843430000000001456328391213901340961456298828125},"5":{"id":"709029","label":"Halyts\u2019kyy Rayon","value":"709029","lat":49.16169000000000011141310096718370914459228515625,"lon":24.71797000000000110730979940854012966156005859375,"poi_name":"Halyts\u2019kyy Rayon","parent_id":"707470","long":24.71797000000000110730979940854012966156005859375},"6":{"id":"708378","label":"Horodenkivs\u2019kyy Rayon","value":"708378","lat":48.7061700000000001864464138634502887725830078125,"lon":25.4200799999999986766852089203894138336181640625,"poi_name":"Horodenkivs\u2019kyy Rayon","parent_id":"707470","long":25.4200799999999986766852089203894138336181640625},"7":{"id":"9523736","label":"Ivano-Frankivs\u2019ka Mis\u2019krada","value":"9523736","lat":48.91176999999999708279574406333267688751220703125,"lon":24.72831000000000045702108764089643955230712890625,"poi_name":"Ivano-Frankivs\u2019ka Mis\u2019krada","parent_id":"707470","long":24.72831000000000045702108764089643955230712890625},"8":{"id":"9522667","label":"Kalus\u2019ka Mis\u2019krada","value":"9522667","lat":49.04037000000000290356183541007339954376220703125,"lon":24.35979999999999989768184605054557323455810546875,"poi_name":"Kalus\u2019ka Mis\u2019krada","parent_id":"707470","long":24.35979999999999989768184605054557323455810546875},"9":{"id":"707098","label":"Kalus\u2019kyy Rayon","value":"707098","lat":49.0608799999999973806552588939666748046875,"lon":24.387660000000000337649908033199608325958251953125,"poi_name":"Kalus\u2019kyy Rayon","parent_id":"707470","long":24.387660000000000337649908033199608325958251953125},"10":{"id":"705389","label":"Kolomyys\u2019kyy Rayon","value":"705389","lat":48.585859999999996716724126599729061126708984375,"lon":24.992999999999998550492819049395620822906494140625,"poi_name":"Kolomyys\u2019kyy Rayon","parent_id":"707470","long":24.992999999999998550492819049395620822906494140625},"11":{"id":"704755","label":"Kosivs\u2019kyy Rayon","value":"704755","lat":48.32569000000000158934199134819209575653076171875,"lon":24.98640999999999934289007796905934810638427734375,"poi_name":"Kosivs\u2019kyy Rayon","parent_id":"707470","long":24.98640999999999934289007796905934810638427734375},"12":{"id":"700505","label":"Nadvirnyans\u2019kyy Rayon","value":"700505","lat":48.5538700000000034151526051573455333709716796875,"lon":24.5038100000000014233592082746326923370361328125,"poi_name":"Nadvirnyans\u2019kyy Rayon","parent_id":"707470","long":24.5038100000000014233592082746326923370361328125},"13":{"id":"695558","label":"Rohatyns\u2019kyy Rayon","value":"695558","lat":49.38024999999999664623828721232712268829345703125,"lon":24.571110000000000894715412869118154048919677734375,"poi_name":"Rohatyns\u2019kyy Rayon","parent_id":"707470","long":24.571110000000000894715412869118154048919677734375},"14":{"id":"695312","label":"Rozhnyativs\u2019kyy Rayon","value":"695312","lat":48.7588999999999970214048516936600208282470703125,"lon":24.075880000000001501803126302547752857208251953125,"poi_name":"Rozhnyativs\u2019kyy Rayon","parent_id":"707470","long":24.075880000000001501803126302547752857208251953125},"15":{"id":"693362","label":"Snyatyns\u2019kyy Rayon","value":"693362","lat":48.47673999999999949750417727045714855194091796875,"lon":25.411529999999999063220457173883914947509765625,"poi_name":"Snyatyns\u2019kyy Rayon","parent_id":"707470","long":25.411529999999999063220457173883914947509765625},"16":{"id":"691495","label":"Tlumats\u2019kyy Rayon","value":"691495","lat":48.829239999999998644852894358336925506591796875,"lon":25.09055000000000035242919693700969219207763671875,"poi_name":"Tlumats\u2019kyy Rayon","parent_id":"707470","long":25.09055000000000035242919693700969219207763671875},"17":{"id":"690871","label":"Tysmenyts\u2019kyy Rayon","value":"690871","lat":48.922460000000000945874489843845367431640625,"lon":24.744859999999999189412847044877707958221435546875,"poi_name":"Tysmenyts\u2019kyy Rayon","parent_id":"707470","long":24.744859999999999189412847044877707958221435546875},"18":{"id":"9524094","label":"Yaremchans\u2019ks Mis\u2019krada","value":"9524094","lat":48.3323400000000020781953935511410236358642578125,"lon":24.574259999999998882458385196514427661895751953125,"poi_name":"Yaremchans\u2019ks Mis\u2019krada","parent_id":"707470","long":24.574259999999998882458385196514427661895751953125}}