{"success":true,"remaining_lookups":7339,"0":{"id":"9806316","label":"Chernihivs\u2019ka Mis\u2019krada","value":"9806316","lat":51.4992299999999971760189509950578212738037109375,"lon":31.2880499999999983629095368087291717529296875,"poi_name":"Chernihivs\u2019ka Mis\u2019krada","parent_id":"710734","long":31.2880499999999983629095368087291717529296875},"1":{"id":"701354","label":"Mens\u2019kyy Rayon","value":"701354","lat":51.5214799999999968349584378302097320556640625,"lon":32.0216599999999971259967423975467681884765625,"poi_name":"Mens\u2019kyy Rayon","parent_id":"710734","long":32.0216599999999971259967423975467681884765625},"2":{"id":"9806344","label":"Nizhyns\u2019ka Mis\u2019krada","value":"9806344","lat":51.046750000000002955857780762016773223876953125,"lon":31.881080000000000751469997339881956577301025390625,"poi_name":"Nizhyns\u2019ka Mis\u2019krada","parent_id":"710734","long":31.881080000000000751469997339881956577301025390625},"3":{"id":"9806345","label":"Novhorod-Sivers\u2019ka Mis\u2019krada","value":"9806345","lat":52.01279000000000252157406066544353961944580078125,"lon":33.2539799999999985402610036544501781463623046875,"poi_name":"Novhorod-Sivers\u2019ka Mis\u2019krada","parent_id":"710734","long":33.2539799999999985402610036544501781463623046875},"4":{"id":"9806494","label":"Pryluts\u2019ka Mis\u2019krada","value":"9806494","lat":50.5860899999999986675902619026601314544677734375,"lon":32.37639999999999673718775738961994647979736328125,"poi_name":"Pryluts\u2019ka Mis\u2019krada","parent_id":"710734","long":32.37639999999999673718775738961994647979736328125},"5":{"id":"696294","label":"Pryluts\u2019kyy Rayon","value":"696294","lat":50.578360000000003537934389896690845489501953125,"lon":32.301929999999998699422576464712619781494140625,"poi_name":"Pryluts\u2019kyy Rayon","parent_id":"710734","long":32.301929999999998699422576464712619781494140625},"6":{"id":"690435","label":"Varvyns\u2019kyy Rayon","value":"690435","lat":50.45094000000000278305378742516040802001953125,"lon":32.74591000000000207137418328784406185150146484375,"poi_name":"Varvyns\u2019kyy Rayon","parent_id":"710734","long":32.74591000000000207137418328784406185150146484375}}