{"success":true,"remaining_lookups":7773,"0":{"id":"9179684","label":"Afgooye","value":"9179684","lat":2.235469999999999846096443434362299740314483642578125,"lon":45.07701999999999742385625722818076610565185546875,"poi_name":"Afgooye","parent_id":"51966","long":45.07701999999999742385625722818076610565185546875},"1":{"id":"9179618","label":"Baraawe","value":"9179618","lat":1.1083600000000000118660636871936731040477752685546875,"lon":43.8448700000000002319211489520967006683349609375,"poi_name":"Baraawe","parent_id":"51966","long":43.8448700000000002319211489520967006683349609375},"2":{"id":"9179984","label":"Darkenley","value":"9179984","lat":2.48017000000000020776269593625329434871673583984375,"lon":45.264679999999998472048901021480560302734375,"poi_name":"Darkenley","parent_id":"51966","long":45.264679999999998472048901021480560302734375},"3":{"id":"9179622","label":"Kurtunwaarey","value":"9179622","lat":1.674609999999999931930005914182402193546295166015625,"lon":44.06694999999999851070242584683001041412353515625,"poi_name":"Kurtunwaarey","parent_id":"51966","long":44.06694999999999851070242584683001041412353515625},"4":{"id":"9179625","label":"Marka","value":"9179625","lat":1.7402200000000001001154714685981161892414093017578125,"lon":44.722340000000002646629582159221172332763671875,"poi_name":"Marka","parent_id":"51966","long":44.722340000000002646629582159221172332763671875},"5":{"id":"9179629","label":"Qoryooley","value":"9179629","lat":1.9345600000000000573407987758400849997997283935546875,"lon":44.44942999999999955207385937683284282684326171875,"poi_name":"Qoryooley","parent_id":"51966","long":44.44942999999999955207385937683284282684326171875},"6":{"id":"9179633","label":"Sablaale","value":"9179633","lat":1.38325999999999993406163412146270275115966796875,"lon":43.5205399999999968940755934454500675201416015625,"poi_name":"Sablaale","parent_id":"51966","long":43.5205399999999968940755934454500675201416015625},"7":{"id":"9179635","label":"Wanla Weyn","value":"9179635","lat":2.79164000000000012136069926782511174678802490234375,"lon":44.9064699999999987767296261154115200042724609375,"poi_name":"Wanla Weyn","parent_id":"51966","long":44.9064699999999987767296261154115200042724609375}}