{"success":true,"remaining_lookups":7782,"0":{"id":"9179986","label":"Baidoa","value":"9179986","lat":3.11667000000000005144329406903125345706939697265625,"lon":43.64999999999999857891452847979962825775146484375,"poi_name":"Baidoa","parent_id":"64538","long":43.64999999999999857891452847979962825775146484375},"1":{"id":"9179671","label":"Baydhaba","value":"9179671","lat":3.266360000000000152198253999813459813594818115234375,"lon":43.6392900000000025784174795262515544891357421875,"poi_name":"Baydhaba","parent_id":"64538","long":43.6392900000000025784174795262515544891357421875},"2":{"id":"9180028","label":"Burdhubo","value":"9180028","lat":2.483330000000000037374547900981269776821136474609375,"lon":43.3166700000000020054358174093067646026611328125,"poi_name":"Burdhubo","parent_id":"64538","long":43.3166700000000020054358174093067646026611328125},"3":{"id":"9179676","label":"Buur Hakaba","value":"9179676","lat":2.485370000000000079154460763675160706043243408203125,"lon":44.00688000000000243971953750587999820709228515625,"poi_name":"Buur Hakaba","parent_id":"64538","long":44.00688000000000243971953750587999820709228515625},"4":{"id":"9179677","label":"Diinsoor","value":"9179677","lat":2.102019999999999999573674358543939888477325439453125,"lon":42.90189000000000163481672643683850765228271484375,"poi_name":"Diinsoor","parent_id":"64538","long":42.90189000000000163481672643683850765228271484375},"5":{"id":"9179993","label":"Dinsoor District","value":"9179993","lat":2.41040000000000009805489753489382565021514892578125,"lon":42.97610999999999847887011128477752208709716796875,"poi_name":"Dinsoor District","parent_id":"64538","long":42.97610999999999847887011128477752208709716796875},"6":{"id":"9179615","label":"Qansax Dheere","value":"9179615","lat":2.815129999999999910187398199923336505889892578125,"lon":42.84011000000000279896994470618665218353271484375,"poi_name":"Qansax Dheere","parent_id":"64538","long":42.84011000000000279896994470618665218353271484375}}