{"success":true,"remaining_lookups":7783,"0":{"id":"9179981","label":"Armo","value":"9179981","lat":10.56689000000000078216544352471828460693359375,"lon":49.0612100000000026511770556680858135223388671875,"poi_name":"Armo","parent_id":"64661","long":49.0612100000000026511770556680858135223388671875},"1":{"id":"9179644","label":"Bandarbeyla","value":"9179644","lat":9.2302400000000002222577677457593381404876708984375,"lon":50.32925999999999788769855513237416744232177734375,"poi_name":"Bandarbeyla","parent_id":"64661","long":50.32925999999999788769855513237416744232177734375},"2":{"id":"9180027","label":"Bossaso","value":"9180027","lat":10.9213100000000000733280103304423391819000244140625,"lon":49.3999299999999976762410369701683521270751953125,"poi_name":"Bossaso","parent_id":"64661","long":49.3999299999999976762410369701683521270751953125},"3":{"id":"9179653","label":"Caluula","value":"9179653","lat":11.6672200000000003683453542180359363555908203125,"lon":50.79346000000000316276782541535794734954833984375,"poi_name":"Caluula","parent_id":"64661","long":50.79346000000000316276782541535794734954833984375},"4":{"id":"9179657","label":"Iskushuban","value":"9179657","lat":10.5509900000000005348965714802034199237823486328125,"lon":50.50475999999999743295120424591004848480224609375,"poi_name":"Iskushuban","parent_id":"64661","long":50.50475999999999743295120424591004848480224609375},"5":{"id":"9179662","label":"Qandala","value":"9179662","lat":11.058640000000000469526639790274202823638916015625,"lon":50.08917000000000285808710032142698764801025390625,"poi_name":"Qandala","parent_id":"64661","long":50.08917000000000285808710032142698764801025390625},"6":{"id":"9179666","label":"Qardho","value":"9179666","lat":9.5020900000000008134293238981626927852630615234375,"lon":49.5076499999999981582732289098203182220458984375,"poi_name":"Qardho","parent_id":"64661","long":49.5076499999999981582732289098203182220458984375}}