{"success":true,"remaining_lookups":7785,"0":{"id":"9179627","label":"Ceel Barde","value":"9179627","lat":4.67387999999999959044316710787825286388397216796875,"lon":43.99833000000000282625478575937449932098388671875,"poi_name":"Ceel Barde","parent_id":"64982","long":43.99833000000000282625478575937449932098388671875},"1":{"id":"9179988","label":"Hudur","value":"9179988","lat":4.12000000000000010658141036401502788066864013671875,"lon":43.88777999999999934743755147792398929595947265625,"poi_name":"Hudur","parent_id":"64982","long":43.88777999999999934743755147792398929595947265625},"2":{"id":"9179630","label":"Rab Dhuure","value":"9179630","lat":4.2432800000000003848299456876702606678009033203125,"lon":43.21162000000000347199602401815354824066162109375,"poi_name":"Rab Dhuure","parent_id":"64982","long":43.21162000000000347199602401815354824066162109375},"3":{"id":"9179634","label":"Tayeeglow","value":"9179634","lat":3.83593999999999990535570759675465524196624755859375,"lon":44.52906999999999726469468441791832447052001953125,"poi_name":"Tayeeglow","parent_id":"64982","long":44.52906999999999726469468441791832447052001953125},"4":{"id":"9179637","label":"Waajid","value":"9179637","lat":3.816450000000000120081722343456931412220001220703125,"lon":43.432850000000001955413608811795711517333984375,"poi_name":"Waajid","parent_id":"64982","long":43.432850000000001955413608811795711517333984375},"5":{"id":"9179640","label":"Xudur","value":"9179640","lat":4.18890999999999991132426657713949680328369140625,"lon":43.90621999999999758301783003844320774078369140625,"poi_name":"Xudur","parent_id":"64982","long":43.90621999999999758301783003844320774078369140625}}