{"success":true,"remaining_lookups":7280,"0":{"id":"5053853","label":"Adair County","value":"5053853","lat":40.19055999999999784222382004372775554656982421875,"lon":-92.600719999999995479811332188546657562255859375,"poi_name":"Adair County","parent_id":"4398678","long":-92.600719999999995479811332188546657562255859375},"1":{"id":"4374849","label":"Andrew County","value":"4374849","lat":39.9834900000000033060132409445941448211669921875,"lon":-94.8020499999999941564965411089360713958740234375,"poi_name":"Andrew County","parent_id":"4398678","long":-94.8020499999999941564965411089360713958740234375},"2":{"id":"5053940","label":"Atchison County","value":"5053940","lat":40.43084999999999951114659779705107212066650390625,"lon":-95.4280899999999974170350469648838043212890625,"poi_name":"Atchison County","parent_id":"4398678","long":-95.4280899999999974170350469648838043212890625},"3":{"id":"4375346","label":"Audrain County","value":"4375346","lat":39.2157600000000030604496714659035205841064453125,"lon":-91.84158999999999650754034519195556640625,"poi_name":"Audrain County","parent_id":"4398678","long":-91.84158999999999650754034519195556640625},"4":{"id":"4375882","label":"Barry County","value":"4375882","lat":36.70987000000000222144080908037722110748291015625,"lon":-93.829070000000001527951098978519439697265625,"poi_name":"Barry County","parent_id":"4398678","long":-93.829070000000001527951098978519439697265625},"5":{"id":"4375904","label":"Barton County","value":"4375904","lat":37.50229999999999819237928022630512714385986328125,"lon":-94.3471100000000006957634468562901020050048828125,"poi_name":"Barton County","parent_id":"4398678","long":-94.3471100000000006957634468562901020050048828125},"6":{"id":"4375954","label":"Bates County","value":"4375954","lat":38.2572899999999975761966197751462459564208984375,"lon":-94.340000000000003410605131648480892181396484375,"poi_name":"Bates County","parent_id":"4398678","long":-94.340000000000003410605131648480892181396484375},"7":{"id":"4376578","label":"Benton County","value":"4376578","lat":38.294849999999996725819073617458343505859375,"lon":-93.287949999999995043253875337541103363037109375,"poi_name":"Benton County","parent_id":"4398678","long":-93.287949999999995043253875337541103363037109375},"8":{"id":"4377844","label":"Bollinger County","value":"4377844","lat":37.32218999999999908823156147263944149017333984375,"lon":-90.025949999999994588506524451076984405517578125,"poi_name":"Bollinger County","parent_id":"4398678","long":-90.025949999999994588506524451076984405517578125},"9":{"id":"4377925","label":"Boone County","value":"4377925","lat":38.99061999999999983401721692644059658050537109375,"lon":-92.3096800000000001773514668457210063934326171875,"poi_name":"Boone County","parent_id":"4398678","long":-92.3096800000000001773514668457210063934326171875},"10":{"id":"4378897","label":"Buchanan County","value":"4378897","lat":39.65986000000000188947524293325841426849365234375,"lon":-94.806160000000005538822733797132968902587890625,"poi_name":"Buchanan County","parent_id":"4398678","long":-94.806160000000005538822733797132968902587890625},"11":{"id":"4379332","label":"Butler County","value":"4379332","lat":36.716419999999999390638549812138080596923828125,"lon":-90.4065599999999989222487783990800380706787109375,"poi_name":"Butler County","parent_id":"4398678","long":-90.4065599999999989222487783990800380706787109375},"12":{"id":"4379520","label":"Caldwell County","value":"4379520","lat":39.6557499999999976125764078460633754730224609375,"lon":-93.982799999999997453414835035800933837890625,"poi_name":"Caldwell County","parent_id":"4398678","long":-93.982799999999997453414835035800933837890625},"13":{"id":"4379567","label":"Callaway County","value":"4379567","lat":38.835520000000002482920535840094089508056640625,"lon":-91.9260100000000051068127504549920558929443359375,"poi_name":"Callaway County","parent_id":"4398678","long":-91.9260100000000051068127504549920558929443359375},"14":{"id":"4379625","label":"Camden County","value":"4379625","lat":38.02703999999999950887286104261875152587890625,"lon":-92.76605000000000700310920365154743194580078125,"poi_name":"Camden County","parent_id":"4398678","long":-92.76605000000000700310920365154743194580078125},"15":{"id":"4379968","label":"Cape Girardeau County","value":"4379968","lat":37.384039999999998826751834712922573089599609375,"lon":-89.684449999999998226485331542789936065673828125,"poi_name":"Cape Girardeau County","parent_id":"4398678","long":-89.684449999999998226485331542789936065673828125},"16":{"id":"4380138","label":"Carroll County","value":"4380138","lat":39.4269800000000003592504072003066539764404296875,"lon":-93.5051799999999957435647957026958465576171875,"poi_name":"Carroll County","parent_id":"4398678","long":-93.5051799999999957435647957026958465576171875},"17":{"id":"4380170","label":"Carter County","value":"4380170","lat":36.941270000000002937667886726558208465576171875,"lon":-90.9623100000000022191670723259449005126953125,"poi_name":"Carter County","parent_id":"4398678","long":-90.9623100000000022191670723259449005126953125},"18":{"id":"4380266","label":"Cass County","value":"4380266","lat":38.64699999999999846522769075818359851837158203125,"lon":-94.3548200000000036880010156892240047454833984375,"poi_name":"Cass County","parent_id":"4398678","long":-94.3548200000000036880010156892240047454833984375},"19":{"id":"4380498","label":"Cedar County","value":"4380498","lat":37.723849999999998772182152606546878814697265625,"lon":-93.8566100000000034242475521750748157501220703125,"poi_name":"Cedar County","parent_id":"4398678","long":-93.8566100000000034242475521750748157501220703125},"20":{"id":"4380961","label":"Chariton County","value":"4380961","lat":39.5150799999999975398168317042291164398193359375,"lon":-92.9626200000000011414158507250249385833740234375,"poi_name":"Chariton County","parent_id":"4398678","long":-92.9626200000000011414158507250249385833740234375},"21":{"id":"4381179","label":"Christian County","value":"4381179","lat":36.96956999999999737838152213953435420989990234375,"lon":-93.18885000000000218278728425502777099609375,"poi_name":"Christian County","parent_id":"4398678","long":-93.18885000000000218278728425502777099609375},"22":{"id":"4407084","label":"City of Saint Louis","value":"4407084","lat":38.62727000000000288082446786575019359588623046875,"lon":-90.197890000000001009539118967950344085693359375,"poi_name":"City of Saint Louis","parent_id":"4398678","long":-90.197890000000001009539118967950344085693359375},"23":{"id":"5054481","label":"Clark County","value":"5054481","lat":40.410359999999997171471477486193180084228515625,"lon":-91.7383999999999986130205797962844371795654296875,"poi_name":"Clark County","parent_id":"4398678","long":-91.7383999999999986130205797962844371795654296875},"24":{"id":"4381444","label":"Clay County","value":"4381444","lat":39.3105199999999967985786497592926025390625,"lon":-94.4208699999999936380845610983669757843017578125,"poi_name":"Clay County","parent_id":"4398678","long":-94.4208699999999936380845610983669757843017578125},"25":{"id":"4381646","label":"Clinton County","value":"4381646","lat":39.60177999999999798319549881853163242340087890625,"lon":-94.4045899999999988949639373458921909332275390625,"poi_name":"Clinton County","parent_id":"4398678","long":-94.4045899999999988949639373458921909332275390625},"26":{"id":"4381866","label":"Cole County","value":"4381866","lat":38.5054099999999976944309310056269168853759765625,"lon":-92.281599999999997407940099947154521942138671875,"poi_name":"Cole County","parent_id":"4398678","long":-92.281599999999997407940099947154521942138671875},"27":{"id":"4382297","label":"Cooper County","value":"4382297","lat":38.84353999999999729197952547110617160797119140625,"lon":-92.8101199999999977308107190765440464019775390625,"poi_name":"Cooper County","parent_id":"4398678","long":-92.8101199999999977308107190765440464019775390625},"28":{"id":"4382777","label":"Crawford County","value":"4382777","lat":37.97637999999999891542756813578307628631591796875,"lon":-91.3039600000000035606717574410140514373779296875,"poi_name":"Crawford County","parent_id":"4398678","long":-91.3039600000000035606717574410140514373779296875},"29":{"id":"4383206","label":"Dade County","value":"4383206","lat":37.432040000000000645741238258779048919677734375,"lon":-93.850290000000001100488589145243167877197265625,"poi_name":"Dade County","parent_id":"4398678","long":-93.850290000000001100488589145243167877197265625},"30":{"id":"4383238","label":"Dallas County","value":"4383238","lat":37.68041000000000195768734556622803211212158203125,"lon":-93.02366000000000667569111101329326629638671875,"poi_name":"Dallas County","parent_id":"4398678","long":-93.02366000000000667569111101329326629638671875},"31":{"id":"4383368","label":"Daviess County","value":"4383368","lat":39.96074999999999732835931354202330112457275390625,"lon":-93.9854700000000065074345911853015422821044921875,"poi_name":"Daviess County","parent_id":"4398678","long":-93.9854700000000065074345911853015422821044921875},"32":{"id":"4383515","label":"DeKalb County","value":"4383515","lat":39.893180000000000973159330897033214569091796875,"lon":-94.404709999999994352037901990115642547607421875,"poi_name":"DeKalb County","parent_id":"4398678","long":-94.404709999999994352037901990115642547607421875},"33":{"id":"4383752","label":"Dent County","value":"4383752","lat":37.60663000000000266709321294911205768585205078125,"lon":-91.5078800000000001091393642127513885498046875,"poi_name":"Dent County","parent_id":"4398678","long":-91.5078800000000001091393642127513885498046875},"34":{"id":"4384356","label":"Douglas County","value":"4384356","lat":36.93260000000000076170181273482739925384521484375,"lon":-92.4988100000000059708327171392738819122314453125,"poi_name":"Douglas County","parent_id":"4398678","long":-92.4988100000000059708327171392738819122314453125},"35":{"id":"4384778","label":"Dunklin County","value":"4384778","lat":36.1059699999999992314769770018756389617919921875,"lon":-90.165760000000005902620614506304264068603515625,"poi_name":"Dunklin County","parent_id":"4398678","long":-90.165760000000005902620614506304264068603515625},"36":{"id":"4387172","label":"Franklin County","value":"4387172","lat":38.4111400000000031695890356786549091339111328125,"lon":-91.0749899999999996680344338528811931610107421875,"poi_name":"Franklin County","parent_id":"4398678","long":-91.0749899999999996680344338528811931610107421875},"37":{"id":"4387701","label":"Gasconade County","value":"4387701","lat":38.44086999999999676447259844280779361724853515625,"lon":-91.5079300000000017689671949483454227447509765625,"poi_name":"Gasconade County","parent_id":"4398678","long":-91.5079300000000017689671949483454227447509765625},"38":{"id":"5055119","label":"Gentry County","value":"5055119","lat":40.21211000000000268528310698457062244415283203125,"lon":-94.40991999999999961801222525537014007568359375,"poi_name":"Gentry County","parent_id":"4398678","long":-94.40991999999999961801222525537014007568359375},"39":{"id":"4388781","label":"Greene County","value":"4388781","lat":37.258049999999997226041159592568874359130859375,"lon":-93.3419899999999955753082758747041225433349609375,"poi_name":"Greene County","parent_id":"4398678","long":-93.3419899999999955753082758747041225433349609375},"40":{"id":"5055285","label":"Grundy County","value":"5055285","lat":40.11393000000000341742634191177785396575927734375,"lon":-93.5653400000000061709215515293180942535400390625,"poi_name":"Grundy County","parent_id":"4398678","long":-93.5653400000000061709215515293180942535400390625},"41":{"id":"5055359","label":"Harrison County","value":"5055359","lat":40.35466999999999870851752348244190216064453125,"lon":-93.9920599999999950568962958641350269317626953125,"poi_name":"Harrison County","parent_id":"4398678","long":-93.9920599999999950568962958641350269317626953125},"42":{"id":"4390169","label":"Henry County","value":"4390169","lat":38.3851599999999990586729836650192737579345703125,"lon":-93.7927499999999980673237587325274944305419921875,"poi_name":"Henry County","parent_id":"4398678","long":-93.7927499999999980673237587325274944305419921875},"43":{"id":"4390327","label":"Hickory County","value":"4390327","lat":37.94078999999999979308995534665882587432861328125,"lon":-93.32071999999999434294295497238636016845703125,"poi_name":"Hickory County","parent_id":"4398678","long":-93.32071999999999434294295497238636016845703125},"44":{"id":"5055521","label":"Holt County","value":"5055521","lat":40.0944300000000026784618967212736606597900390625,"lon":-95.215509999999994761310517787933349609375,"poi_name":"Holt County","parent_id":"4398678","long":-95.215509999999994761310517787933349609375},"45":{"id":"4391383","label":"Howard County","value":"4391383","lat":39.1424999999999982946974341757595539093017578125,"lon":-92.696269999999998390194377861917018890380859375,"poi_name":"Howard County","parent_id":"4398678","long":-92.696269999999998390194377861917018890380859375},"46":{"id":"4391410","label":"Howell County","value":"4391410","lat":36.77400999999999697820385335944592952728271484375,"lon":-91.886539999999996553015080280601978302001953125,"poi_name":"Howell County","parent_id":"4398678","long":-91.886539999999996553015080280601978302001953125},"47":{"id":"4392025","label":"Iron County","value":"4392025","lat":37.5042600000000021509549696929752826690673828125,"lon":-90.6900299999999930378180579282343387603759765625,"poi_name":"Iron County","parent_id":"4398678","long":-90.6900299999999930378180579282343387603759765625},"48":{"id":"4392183","label":"Jackson County","value":"4392183","lat":39.008499999999997953636921010911464691162109375,"lon":-94.3460900000000037834979593753814697265625,"poi_name":"Jackson County","parent_id":"4398678","long":-94.3460900000000037834979593753814697265625},"49":{"id":"4392354","label":"Jasper County","value":"4392354","lat":37.20354999999999989768184605054557323455810546875,"lon":-94.340609999999998080966179259121417999267578125,"poi_name":"Jasper County","parent_id":"4398678","long":-94.340609999999998080966179259121417999267578125},"50":{"id":"4392394","label":"Jefferson County","value":"4392394","lat":38.26106999999999658257365808822214603424072265625,"lon":-90.5376899999999977808329276740550994873046875,"poi_name":"Jefferson County","parent_id":"4398678","long":-90.5376899999999977808329276740550994873046875},"51":{"id":"4392606","label":"Johnson County","value":"4392606","lat":38.744089999999999918145476840436458587646484375,"lon":-93.8063700000000011414158507250249385833740234375,"poi_name":"Johnson County","parent_id":"4398678","long":-93.8063700000000011414158507250249385833740234375},"52":{"id":"5055806","label":"Knox County","value":"5055806","lat":40.12825000000000130739863379858434200286865234375,"lon":-92.1480700000000041427483665756881237030029296875,"poi_name":"Knox County","parent_id":"4398678","long":-92.1480700000000041427483665756881237030029296875},"53":{"id":"4394029","label":"Laclede County","value":"4394029","lat":37.65832000000000334694050252437591552734375,"lon":-92.59035000000000081854523159563541412353515625,"poi_name":"Laclede County","parent_id":"4398678","long":-92.59035000000000081854523159563541412353515625},"54":{"id":"4394055","label":"Lafayette County","value":"4394055","lat":39.0655900000000002592059900052845478057861328125,"lon":-93.785539999999997462509782053530216217041015625,"poi_name":"Lafayette County","parent_id":"4398678","long":-93.785539999999997462509782053530216217041015625},"55":{"id":"4394702","label":"Lawrence County","value":"4394702","lat":37.10634999999999905639924691058695316314697265625,"lon":-93.8329399999999935744199319742619991302490234375,"poi_name":"Lawrence County","parent_id":"4398678","long":-93.8329399999999935744199319742619991302490234375},"56":{"id":"5055902","label":"Lewis County","value":"5055902","lat":40.09689999999999798774297232739627361297607421875,"lon":-91.722139999999996007318259216845035552978515625,"poi_name":"Lewis County","parent_id":"4398678","long":-91.722139999999996007318259216845035552978515625},"57":{"id":"4395330","label":"Lincoln County","value":"4395330","lat":39.05801999999999907231540419161319732666015625,"lon":-90.960049999999995407051756046712398529052734375,"poi_name":"Lincoln County","parent_id":"4398678","long":-90.960049999999995407051756046712398529052734375},"58":{"id":"4395428","label":"Linn County","value":"4395428","lat":39.8702100000000001500666257925331592559814453125,"lon":-93.107179999999999608917278237640857696533203125,"poi_name":"Linn County","parent_id":"4398678","long":-93.107179999999999608917278237640857696533203125},"59":{"id":"4395900","label":"Livingston County","value":"4395900","lat":39.7821100000000029695002012886106967926025390625,"lon":-93.548280000000005429683369584381580352783203125,"poi_name":"Livingston County","parent_id":"4398678","long":-93.548280000000005429683369584381580352783203125},"60":{"id":"4396768","label":"Macon County","value":"4396768","lat":39.83080000000000353566065314225852489471435546875,"lon":-92.5646100000000018326318240724503993988037109375,"poi_name":"Macon County","parent_id":"4398678","long":-92.5646100000000018326318240724503993988037109375},"61":{"id":"4396798","label":"Madison County","value":"4396798","lat":37.4780999999999977490006131120026111602783203125,"lon":-90.3450299999999941746864351443946361541748046875,"poi_name":"Madison County","parent_id":"4398678","long":-90.3450299999999941746864351443946361541748046875},"62":{"id":"4397100","label":"Maries County","value":"4397100","lat":38.16163000000000238287611864507198333740234375,"lon":-91.924890000000004874891601502895355224609375,"poi_name":"Maries County","parent_id":"4398678","long":-91.924890000000004874891601502895355224609375},"63":{"id":"4397108","label":"Marion County","value":"4397108","lat":39.805959999999998899511410854756832122802734375,"lon":-91.6223499999999972942532622255384922027587890625,"poi_name":"Marion County","parent_id":"4398678","long":-91.6223499999999972942532622255384922027587890625},"64":{"id":"4397698","label":"McDonald County","value":"4397698","lat":36.62866999999999961801222525537014007568359375,"lon":-94.3483599999999995588950696401298046112060546875,"poi_name":"McDonald County","parent_id":"4398678","long":-94.3483599999999995588950696401298046112060546875},"65":{"id":"5056253","label":"Mercer County","value":"5056253","lat":40.4223300000000023146640160121023654937744140625,"lon":-93.5685600000000050613380153663456439971923828125,"poi_name":"Mercer County","parent_id":"4398678","long":-93.5685600000000050613380153663456439971923828125},"66":{"id":"4398373","label":"Miller County","value":"4398373","lat":38.21453000000000344016370945610105991363525390625,"lon":-92.4284099999999995134203345514833927154541015625,"poi_name":"Miller County","parent_id":"4398678","long":-92.4284099999999995134203345514833927154541015625},"67":{"id":"4398638","label":"Mississippi County","value":"4398638","lat":36.82809999999999917008608463220298290252685546875,"lon":-89.29117999999999710780684836208820343017578125,"poi_name":"Mississippi County","parent_id":"4398678","long":-89.29117999999999710780684836208820343017578125},"68":{"id":"4398787","label":"Moniteau County","value":"4398787","lat":38.6327500000000014779288903810083866119384765625,"lon":-92.5830500000000000682121026329696178436279296875,"poi_name":"Moniteau County","parent_id":"4398678","long":-92.5830500000000000682121026329696178436279296875},"69":{"id":"4398864","label":"Monroe County","value":"4398864","lat":39.49546000000000134377842186950147151947021484375,"lon":-92.0007399999999933015715214423835277557373046875,"poi_name":"Monroe County","parent_id":"4398678","long":-92.0007399999999933015715214423835277557373046875},"70":{"id":"4398895","label":"Montgomery County","value":"4398895","lat":38.9414900000000017143975128419697284698486328125,"lon":-91.4702099999999944657247397117316722869873046875,"poi_name":"Montgomery County","parent_id":"4398678","long":-91.4702099999999944657247397117316722869873046875},"71":{"id":"4399052","label":"Morgan County","value":"4399052","lat":38.42374000000000222598828258924186229705810546875,"lon":-92.8859800000000035424818634055554866790771484375,"poi_name":"Morgan County","parent_id":"4398678","long":-92.8859800000000035424818634055554866790771484375},"72":{"id":"4400430","label":"New Madrid County","value":"4400430","lat":36.5946500000000014551915228366851806640625,"lon":-89.6518300000000039062797441147267818450927734375,"poi_name":"New Madrid County","parent_id":"4398678","long":-89.6518300000000039062797441147267818450927734375},"73":{"id":"4400561","label":"Newton County","value":"4400561","lat":36.90550999999999959300112095661461353302001953125,"lon":-94.3392500000000069348971010185778141021728515625,"poi_name":"Newton County","parent_id":"4398678","long":-94.3392500000000069348971010185778141021728515625},"74":{"id":"5056549","label":"Nodaway County","value":"5056549","lat":40.360770000000002255546860396862030029296875,"lon":-94.883430000000004156390787102282047271728515625,"poi_name":"Nodaway County","parent_id":"4398678","long":-94.883430000000004156390787102282047271728515625},"75":{"id":"4402012","label":"Oregon County","value":"4402012","lat":36.68672000000000110730979940854012966156005859375,"lon":-91.403289999999998372004483826458454132080078125,"poi_name":"Oregon County","parent_id":"4398678","long":-91.403289999999998372004483826458454132080078125},"76":{"id":"4402051","label":"Osage County","value":"4402051","lat":38.4603699999999975034370436333119869232177734375,"lon":-91.861840000000000827640178613364696502685546875,"poi_name":"Osage County","parent_id":"4398678","long":-91.861840000000000827640178613364696502685546875},"77":{"id":"4402255","label":"Ozark County","value":"4402255","lat":36.6493200000000030058799893595278263092041015625,"lon":-92.4446599999999989449861459434032440185546875,"poi_name":"Ozark County","parent_id":"4398678","long":-92.4446599999999989449861459434032440185546875},"78":{"id":"4402864","label":"Pemiscot County","value":"4402864","lat":36.2114499999999992496668710373342037200927734375,"lon":-89.785380000000003519744495861232280731201171875,"poi_name":"Pemiscot County","parent_id":"4398678","long":-89.785380000000003519744495861232280731201171875},"79":{"id":"4402984","label":"Perry County","value":"4402984","lat":37.70714000000000254431142820976674556732177734375,"lon":-89.82441000000000030922819860279560089111328125,"poi_name":"Perry County","parent_id":"4398678","long":-89.82441000000000030922819860279560089111328125},"80":{"id":"4403095","label":"Pettis County","value":"4403095","lat":38.7282900000000012141754268668591976165771484375,"lon":-93.28509999999999990905052982270717620849609375,"poi_name":"Pettis County","parent_id":"4398678","long":-93.28509999999999990905052982270717620849609375},"81":{"id":"4403116","label":"Phelps County","value":"4403116","lat":37.87713000000000107547748484648764133453369140625,"lon":-91.792360000000002173692337237298488616943359375,"poi_name":"Phelps County","parent_id":"4398678","long":-91.792360000000002173692337237298488616943359375},"82":{"id":"4403228","label":"Pike County","value":"4403228","lat":39.34384000000000014551915228366851806640625,"lon":-91.1713600000000070622263592667877674102783203125,"poi_name":"Pike County","parent_id":"4398678","long":-91.1713600000000070622263592667877674102783203125},"83":{"id":"4403600","label":"Platte County","value":"4403600","lat":39.3804999999999978399500832892954349517822265625,"lon":-94.7735899999999986675902619026601314544677734375,"poi_name":"Platte County","parent_id":"4398678","long":-94.7735899999999986675902619026601314544677734375},"84":{"id":"4404128","label":"Polk County","value":"4404128","lat":37.61648000000000280351741821505129337310791015625,"lon":-93.4005300000000033833202905952930450439453125,"poi_name":"Polk County","parent_id":"4398678","long":-93.4005300000000033833202905952930450439453125},"85":{"id":"4404807","label":"Pulaski County","value":"4404807","lat":37.8246299999999990859578247182071208953857421875,"lon":-92.207660000000004174580681137740612030029296875,"poi_name":"Pulaski County","parent_id":"4398678","long":-92.207660000000004174580681137740612030029296875},"86":{"id":"5056963","label":"Putnam County","value":"5056963","lat":40.4789099999999990586729836650192737579345703125,"lon":-93.016130000000003974491846747696399688720703125,"poi_name":"Putnam County","parent_id":"4398678","long":-93.016130000000003974491846747696399688720703125},"87":{"id":"4405038","label":"Ralls County","value":"4405038","lat":39.52767000000000052750692702829837799072265625,"lon":-91.5220199999999977080733515322208404541015625,"poi_name":"Ralls County","parent_id":"4398678","long":-91.5220199999999977080733515322208404541015625},"88":{"id":"4405082","label":"Randolph County","value":"4405082","lat":39.44017000000000194859239854849874973297119140625,"lon":-92.4970799999999968576958053745329380035400390625,"poi_name":"Randolph County","parent_id":"4398678","long":-92.4970799999999968576958053745329380035400390625},"89":{"id":"4405143","label":"Ray County","value":"4405143","lat":39.35240999999999900182956480421125888824462890625,"lon":-93.989879999999999427018337883055210113525390625,"poi_name":"Ray County","parent_id":"4398678","long":-93.989879999999999427018337883055210113525390625},"90":{"id":"4405470","label":"Reynolds County","value":"4405470","lat":37.3623300000000000409272615797817707061767578125,"lon":-90.9690800000000052705217967741191387176513671875,"poi_name":"Reynolds County","parent_id":"4398678","long":-90.9690800000000052705217967741191387176513671875},"91":{"id":"4405720","label":"Ripley County","value":"4405720","lat":36.65281999999999840156306163407862186431884765625,"lon":-90.8638799999999946521711535751819610595703125,"poi_name":"Ripley County","parent_id":"4398678","long":-90.8638799999999946521711535751819610595703125},"92":{"id":"4406835","label":"Saint Charles County","value":"4406835","lat":38.7819199999999995043253875337541103363037109375,"lon":-90.6748999999999938381733954884111881256103515625,"poi_name":"Saint Charles County","parent_id":"4398678","long":-90.6748999999999938381733954884111881256103515625},"93":{"id":"4406842","label":"Saint Clair County","value":"4406842","lat":38.03717999999999932470018393360078334808349609375,"lon":-93.7759800000000041109160520136356353759765625,"poi_name":"Saint Clair County","parent_id":"4398678","long":-93.7759800000000041109160520136356353759765625},"94":{"id":"4406884","label":"Saint Francois County","value":"4406884","lat":37.81027999999999877900336286984384059906005859375,"lon":-90.4722699999999946385287330485880374908447265625,"poi_name":"Saint Francois County","parent_id":"4398678","long":-90.4722699999999946385287330485880374908447265625},"95":{"id":"4407074","label":"Saint Louis County","value":"4407074","lat":38.640680000000003246896085329353809356689453125,"lon":-90.443410000000000081854523159563541412353515625,"poi_name":"Saint Louis County","parent_id":"4398678","long":-90.443410000000000081854523159563541412353515625},"96":{"id":"4407295","label":"Sainte Genevieve County","value":"4407295","lat":37.89439999999999741930878371931612491607666015625,"lon":-90.1944199999999938199835014529526233673095703125,"poi_name":"Sainte Genevieve County","parent_id":"4398678","long":-90.1944199999999938199835014529526233673095703125},"97":{"id":"4407376","label":"Saline County","value":"4407376","lat":39.13683999999999940655470709316432476043701171875,"lon":-93.2018499999999932015271042473614215850830078125,"poi_name":"Saline County","parent_id":"4398678","long":-93.2018499999999932015271042473614215850830078125},"98":{"id":"5057186","label":"Schuyler County","value":"5057186","lat":40.470269999999999299689079634845256805419921875,"lon":-92.5209399999999959618435241281986236572265625,"poi_name":"Schuyler County","parent_id":"4398678","long":-92.5209399999999959618435241281986236572265625},"99":{"id":"5057190","label":"Scotland County","value":"5057190","lat":40.45259999999999678266249247826635837554931640625,"lon":-92.1470499999999930196281638927757740020751953125,"poi_name":"Scotland County","parent_id":"4398678","long":-92.1470499999999930196281638927757740020751953125}}