{"success":true,"remaining_lookups":7257,"0":{"id":"4797875","label":"Barbour County","value":"4797875","lat":39.1329300000000017689671949483454227447509765625,"lon":-80.003029999999995425241650082170963287353515625,"poi_name":"Barbour County","parent_id":"4826850","long":-80.003029999999995425241650082170963287353515625},"1":{"id":"4798686","label":"Berkeley County","value":"4798686","lat":39.46406999999999953843143885023891925811767578125,"lon":-78.0275400000000018962964531965553760528564453125,"poi_name":"Berkeley County","parent_id":"4826850","long":-78.0275400000000018962964531965553760528564453125},"2":{"id":"4799815","label":"Boone County","value":"4799815","lat":38.02300000000000324007487506605684757232666015625,"lon":-81.71120999999999412466422654688358306884765625,"poi_name":"Boone County","parent_id":"4826850","long":-81.71120999999999412466422654688358306884765625},"3":{"id":"4800020","label":"Braxton County","value":"4800020","lat":38.69986999999999710553311160765588283538818359375,"lon":-80.7192900000000008731149137020111083984375,"poi_name":"Braxton County","parent_id":"4826850","long":-80.7192900000000008731149137020111083984375},"4":{"id":"5280114","label":"Brooke County","value":"5280114","lat":40.273809999999997444319888018071651458740234375,"lon":-80.5764199999999988222043612040579319000244140625,"poi_name":"Brooke County","parent_id":"4826850","long":-80.5764199999999988222043612040579319000244140625},"5":{"id":"4800996","label":"Cabell County","value":"4800996","lat":38.420299999999997453414835035800933837890625,"lon":-82.2417200000000008230927051045000553131103515625,"poi_name":"Cabell County","parent_id":"4826850","long":-82.2417200000000008230927051045000553131103515625},"6":{"id":"4801086","label":"Calhoun County","value":"4801086","lat":38.8444999999999964757080306299030780792236328125,"lon":-81.1175700000000006184563972055912017822265625,"poi_name":"Calhoun County","parent_id":"4826850","long":-81.1175700000000006184563972055912017822265625},"7":{"id":"4802346","label":"Clay County","value":"4802346","lat":38.4625300000000009958966984413564205169677734375,"lon":-81.0750900000000029876900953240692615509033203125,"poi_name":"Clay County","parent_id":"4826850","long":-81.0750900000000029876900953240692615509033203125},"8":{"id":"4804155","label":"Doddridge County","value":"4804155","lat":39.269170000000002573870006017386913299560546875,"lon":-80.7069699999999983219822752289474010467529296875,"poi_name":"Doddridge County","parent_id":"4826850","long":-80.7069699999999983219822752289474010467529296875},"9":{"id":"4805678","label":"Fayette County","value":"4805678","lat":38.0287799999999975852915667928755283355712890625,"lon":-81.0811900000000065347194322384893894195556640625,"poi_name":"Fayette County","parent_id":"4826850","long":-81.0811900000000065347194322384893894195556640625},"10":{"id":"4806966","label":"Gilmer County","value":"4806966","lat":38.92405999999999721694621257483959197998046875,"lon":-80.857079999999996289261616766452789306640625,"poi_name":"Gilmer County","parent_id":"4826850","long":-80.857079999999996289261616766452789306640625},"11":{"id":"4807365","label":"Grant County","value":"4807365","lat":39.105130000000002610249794088304042816162109375,"lon":-79.195570000000003574314177967607975006103515625,"poi_name":"Grant County","parent_id":"4826850","long":-79.195570000000003574314177967607975006103515625},"12":{"id":"4807600","label":"Greenbrier County","value":"4807600","lat":37.94693000000000182581061380915343761444091796875,"lon":-80.4529500000000012960299500264227390289306640625,"poi_name":"Greenbrier County","parent_id":"4826850","long":-80.4529500000000012960299500264227390289306640625},"13":{"id":"4807996","label":"Hampshire County","value":"4807996","lat":39.31707000000000107320374809205532073974609375,"lon":-78.61417000000000143700162880122661590576171875,"poi_name":"Hampshire County","parent_id":"4826850","long":-78.61417000000000143700162880122661590576171875},"14":{"id":"5280351","label":"Hancock County","value":"5280351","lat":40.521850000000000591171556152403354644775390625,"lon":-80.5738900000000057843863032758235931396484375,"poi_name":"Hancock County","parent_id":"4826850","long":-80.5738900000000057843863032758235931396484375},"15":{"id":"4808124","label":"Hardy County","value":"4808124","lat":39.00750000000000028421709430404007434844970703125,"lon":-78.8579199999999929104887996800243854522705078125,"poi_name":"Hardy County","parent_id":"4826850","long":-78.8579199999999929104887996800243854522705078125},"16":{"id":"4808274","label":"Harrison County","value":"4808274","lat":39.2835299999999989495336194522678852081298828125,"lon":-80.3798699999999968213160173036158084869384765625,"poi_name":"Harrison County","parent_id":"4826850","long":-80.3798699999999968213160173036158084869384765625},"17":{"id":"4810022","label":"Jackson County","value":"4810022","lat":38.83447000000000315367287839762866497039794921875,"lon":-81.674790000000001555235940031707286834716796875,"poi_name":"Jackson County","parent_id":"4826850","long":-81.674790000000001555235940031707286834716796875},"18":{"id":"4810162","label":"Jefferson County","value":"4810162","lat":39.3076200000000000045474735088646411895751953125,"lon":-77.862740000000002282831701450049877166748046875,"poi_name":"Jefferson County","parent_id":"4826850","long":-77.862740000000002282831701450049877166748046875},"19":{"id":"4810630","label":"Kanawha County","value":"4810630","lat":38.33657000000000181216819328255951404571533203125,"lon":-81.52812000000000125510268844664096832275390625,"poi_name":"Kanawha County","parent_id":"4826850","long":-81.52812000000000125510268844664096832275390625},"20":{"id":"4811999","label":"Lewis County","value":"4811999","lat":38.995869999999996480255504138767719268798828125,"lon":-80.50216000000000349245965480804443359375,"poi_name":"Lewis County","parent_id":"4826850","long":-80.50216000000000349245965480804443359375},"21":{"id":"4812303","label":"Lincoln County","value":"4812303","lat":38.1753599999999977399056660942733287811279296875,"lon":-82.070390000000003283275873400270938873291015625,"poi_name":"Lincoln County","parent_id":"4826850","long":-82.070390000000003283275873400270938873291015625},"22":{"id":"4812863","label":"Logan County","value":"4812863","lat":37.8315300000000007685230229981243610382080078125,"lon":-81.93533999999999650754034519195556640625,"poi_name":"Logan County","parent_id":"4826850","long":-81.93533999999999650754034519195556640625},"23":{"id":"4813754","label":"Marion County","value":"4813754","lat":39.50999999999999801048033987171947956085205078125,"lon":-80.2433999999999940655470709316432476043701171875,"poi_name":"Marion County","parent_id":"4826850","long":-80.2433999999999940655470709316432476043701171875},"24":{"id":"4813820","label":"Marshall County","value":"4813820","lat":39.86061000000000120735421660356223583221435546875,"lon":-80.6633900000000068075678427703678607940673828125,"poi_name":"Marshall County","parent_id":"4826850","long":-80.6633900000000068075678427703678607940673828125},"25":{"id":"4813934","label":"Mason County","value":"4813934","lat":38.7697399999999987585397320799529552459716796875,"lon":-82.0265399999999971214492688886821269989013671875,"poi_name":"Mason County","parent_id":"4826850","long":-82.0265399999999971214492688886821269989013671875},"26":{"id":"4814188","label":"McDowell County","value":"4814188","lat":37.378500000000002501110429875552654266357421875,"lon":-81.653580000000005156834959052503108978271484375,"poi_name":"McDowell County","parent_id":"4826850","long":-81.653580000000005156834959052503108978271484375},"27":{"id":"4814465","label":"Mercer County","value":"4814465","lat":37.40552000000000276713763014413416385650634765625,"lon":-81.1114400000000017598722479306161403656005859375,"poi_name":"Mercer County","parent_id":"4826850","long":-81.1114400000000017598722479306161403656005859375},"28":{"id":"4815060","label":"Mineral County","value":"4815060","lat":39.4147200000000026420821086503565311431884765625,"lon":-78.943749999999994315658113919198513031005859375,"poi_name":"Mineral County","parent_id":"4826850","long":-78.943749999999994315658113919198513031005859375},"29":{"id":"4815072","label":"Mingo County","value":"4815072","lat":37.7263999999999981582732289098203182220458984375,"lon":-82.134759999999999990905052982270717620849609375,"poi_name":"Mingo County","parent_id":"4826850","long":-82.134759999999999990905052982270717620849609375},"30":{"id":"4815207","label":"Monongalia County","value":"4815207","lat":39.630279999999999063220457173883914947509765625,"lon":-80.04653999999999314240994863212108612060546875,"poi_name":"Monongalia County","parent_id":"4826850","long":-80.04653999999999314240994863212108612060546875},"31":{"id":"4815213","label":"Monroe County","value":"4815213","lat":37.56036999999999892452251515351235866546630859375,"lon":-80.5505500000000012050804798491299152374267578125,"poi_name":"Monroe County","parent_id":"4826850","long":-80.5505500000000012050804798491299152374267578125},"32":{"id":"4815321","label":"Morgan County","value":"4815321","lat":39.56042999999999665305949747562408447265625,"lon":-78.2577299999999951296558720059692859649658203125,"poi_name":"Morgan County","parent_id":"4826850","long":-78.2577299999999951296558720059692859649658203125},"33":{"id":"4816620","label":"Nicholas County","value":"4816620","lat":38.29169999999999873807610129006206989288330078125,"lon":-80.79932999999999765350366942584514617919921875,"poi_name":"Nicholas County","parent_id":"4826850","long":-80.79932999999999765350366942584514617919921875},"34":{"id":"5280563","label":"Ohio County","value":"5280563","lat":40.0969199999999972305886331014335155487060546875,"lon":-80.6190600000000046065906644798815250396728515625,"poi_name":"Ohio County","parent_id":"4826850","long":-80.6190600000000046065906644798815250396728515625},"35":{"id":"4817892","label":"Pendleton County","value":"4817892","lat":38.6807299999999969486452755518257617950439453125,"lon":-79.3508900000000068075678427703678607940673828125,"poi_name":"Pendleton County","parent_id":"4826850","long":-79.3508900000000068075678427703678607940673828125},"36":{"id":"4818649","label":"Pleasants County","value":"4818649","lat":39.37093999999999738292899564839899539947509765625,"lon":-81.160629999999997608028934337198734283447265625,"poi_name":"Pleasants County","parent_id":"4826850","long":-81.160629999999997608028934337198734283447265625},"37":{"id":"4818700","label":"Pocahontas County","value":"4818700","lat":38.3318000000000012050804798491299152374267578125,"lon":-80.0077500000000014779288903810083866119384765625,"poi_name":"Pocahontas County","parent_id":"4826850","long":-80.0077500000000014779288903810083866119384765625},"38":{"id":"4819019","label":"Preston County","value":"4819019","lat":39.46929999999999694182406528852880001068115234375,"lon":-79.66816000000000030922819860279560089111328125,"poi_name":"Preston County","parent_id":"4826850","long":-79.66816000000000030922819860279560089111328125},"39":{"id":"4819197","label":"Putnam County","value":"4819197","lat":38.50862000000000051613824325613677501678466796875,"lon":-81.9089900000000028512658900581300258636474609375,"poi_name":"Putnam County","parent_id":"4826850","long":-81.9089900000000028512658900581300258636474609375},"40":{"id":"4819310","label":"Raleigh County","value":"4819310","lat":37.7713600000000013778844731859862804412841796875,"lon":-81.2486300000000056797944125719368457794189453125,"poi_name":"Raleigh County","parent_id":"4826850","long":-81.2486300000000056797944125719368457794189453125},"41":{"id":"4819366","label":"Randolph County","value":"4819366","lat":38.7747200000000020736479200422763824462890625,"lon":-79.875799999999998135535861365497112274169921875,"poi_name":"Randolph County","parent_id":"4826850","long":-79.875799999999998135535861365497112274169921875},"42":{"id":"4820055","label":"Ritchie County","value":"4820055","lat":39.1782699999999977080733515322208404541015625,"lon":-81.06295000000000072759576141834259033203125,"poi_name":"Ritchie County","parent_id":"4826850","long":-81.06295000000000072759576141834259033203125},"43":{"id":"4820200","label":"Roane County","value":"4820200","lat":38.71403000000000105274011730216443538665771484375,"lon":-81.3483499999999963847585604526102542877197265625,"poi_name":"Roane County","parent_id":"4826850","long":-81.3483499999999963847585604526102542877197265625},"44":{"id":"4823985","label":"Summers County","value":"4823985","lat":37.65587000000000017507773009128868579864501953125,"lon":-80.8585700000000002773958840407431125640869140625,"poi_name":"Summers County","parent_id":"4826850","long":-80.8585700000000002773958840407431125640869140625},"45":{"id":"4824403","label":"Taylor County","value":"4824403","lat":39.33599000000000245336195803247392177581787109375,"lon":-80.0461800000000067711880546994507312774658203125,"poi_name":"Taylor County","parent_id":"4826850","long":-80.0461800000000067711880546994507312774658203125},"46":{"id":"4825147","label":"Tucker County","value":"4825147","lat":39.11359999999999814690454513765871524810791015625,"lon":-79.5649700000000024147084332071244716644287109375,"poi_name":"Tucker County","parent_id":"4826850","long":-79.5649700000000024147084332071244716644287109375},"47":{"id":"4825407","label":"Tyler County","value":"4825407","lat":39.46527999999999991587174008600413799285888671875,"lon":-80.884829999999993788151186890900135040283203125,"poi_name":"Tyler County","parent_id":"4826850","long":-80.884829999999993788151186890900135040283203125},"48":{"id":"4825733","label":"Upshur County","value":"4825733","lat":38.8978299999999990177457220852375030517578125,"lon":-80.233419999999995297912391833961009979248046875,"poi_name":"Upshur County","parent_id":"4826850","long":-80.233419999999995297912391833961009979248046875},"49":{"id":"4826596","label":"Wayne County","value":"4826596","lat":38.145949999999999135980033315718173980712890625,"lon":-82.426950000000005047695594839751720428466796875,"poi_name":"Wayne County","parent_id":"4826850","long":-82.426950000000005047695594839751720428466796875},"50":{"id":"4826636","label":"Webster County","value":"4826636","lat":38.49474000000000017962520360015332698822021484375,"lon":-80.4218699999999984129317454062402248382568359375,"poi_name":"Webster County","parent_id":"4826850","long":-80.4218699999999984129317454062402248382568359375},"51":{"id":"4826911","label":"Wetzel County","value":"4826911","lat":39.6052600000000012414602679200470447540283203125,"lon":-80.6390999999999991132426657713949680328369140625,"poi_name":"Wetzel County","parent_id":"4826850","long":-80.6390999999999991132426657713949680328369140625},"52":{"id":"4827540","label":"Wirt County","value":"4827540","lat":39.0224199999999967758412822149693965911865234375,"lon":-81.3786199999999979581843945197761058807373046875,"poi_name":"Wirt County","parent_id":"4826850","long":-81.3786199999999979581843945197761058807373046875},"53":{"id":"4827706","label":"Wood County","value":"4827706","lat":39.211129999999997153281583450734615325927734375,"lon":-81.51497000000000525687937624752521514892578125,"poi_name":"Wood County","parent_id":"4826850","long":-81.51497000000000525687937624752521514892578125},"54":{"id":"4827881","label":"Wyoming County","value":"4827881","lat":37.609610000000003537934389896690845489501953125,"lon":-81.549180000000006884874892421066761016845703125,"poi_name":"Wyoming County","parent_id":"4826850","long":-81.549180000000006884874892421066761016845703125}}