{"success":true,"remaining_lookups":7283,"0":{"id":"4983917","label":"Alcona County","value":"4983917","lat":44.71161000000000029785951483063399791717529296875,"lon":-83.34365999999999985448084771633148193359375,"poi_name":"Alcona County","parent_id":"5001836","long":-83.34365999999999985448084771633148193359375},"1":{"id":"4983956","label":"Alger County","value":"4983956","lat":46.451099999999996725819073617458343505859375,"lon":-86.547550000000001091393642127513885498046875,"poi_name":"Alger County","parent_id":"5001836","long":-86.547550000000001091393642127513885498046875},"2":{"id":"4983990","label":"Allegan County","value":"4983990","lat":42.51765999999999934289007796905934810638427734375,"lon":-85.9103400000000050340531743131577968597412109375,"poi_name":"Allegan County","parent_id":"5001836","long":-85.9103400000000050340531743131577968597412109375},"3":{"id":"4984076","label":"Alpena County","value":"4984076","lat":45.06349999999999766941982670687139034271240234375,"lon":-83.4603900000000038517100620083510875701904296875,"poi_name":"Alpena County","parent_id":"5001836","long":-83.4603900000000038517100620083510875701904296875},"4":{"id":"4984284","label":"Antrim County","value":"4984284","lat":45.00737000000000165300662047229707241058349609375,"lon":-85.175790000000006330083124339580535888671875,"poi_name":"Antrim County","parent_id":"5001836","long":-85.175790000000006330083124339580535888671875},"5":{"id":"4984356","label":"Arenac County","value":"4984356","lat":44.04288999999999987267074175179004669189453125,"lon":-83.7472499999999939745976007543504238128662109375,"poi_name":"Arenac County","parent_id":"5001836","long":-83.7472499999999939745976007543504238128662109375},"6":{"id":"4984903","label":"Baraga County","value":"4984903","lat":46.699759999999997717168298549950122833251953125,"lon":-88.35214999999999463398125953972339630126953125,"poi_name":"Baraga County","parent_id":"5001836","long":-88.35214999999999463398125953972339630126953125},"7":{"id":"4985016","label":"Barry County","value":"4985016","lat":42.59503000000000128011379274539649486541748046875,"lon":-85.3089700000000021873347577638924121856689453125,"poi_name":"Barry County","parent_id":"5001836","long":-85.3089700000000021873347577638924121856689453125},"8":{"id":"4985190","label":"Bay County","value":"4985190","lat":43.72137000000000028876456781290471553802490234375,"lon":-83.9418399999999991223376127891242504119873046875,"poi_name":"Bay County","parent_id":"5001836","long":-83.9418399999999991223376127891242504119873046875},"9":{"id":"4985733","label":"Benzie County","value":"4985733","lat":44.61686999999999869714883971028029918670654296875,"lon":-86.138990000000006830305210314691066741943359375,"poi_name":"Benzie County","parent_id":"5001836","long":-86.138990000000006830305210314691066741943359375},"10":{"id":"4985760","label":"Berrien County","value":"4985760","lat":41.91863000000000027966962079517543315887451171875,"lon":-86.4280700000000052796167437918484210968017578125,"poi_name":"Berrien County","parent_id":"5001836","long":-86.4280700000000052796167437918484210968017578125},"11":{"id":"4986828","label":"Branch County","value":"4986828","lat":41.9161100000000033105607144534587860107421875,"lon":-85.0590300000000070212990976870059967041015625,"poi_name":"Branch County","parent_id":"5001836","long":-85.0590300000000070212990976870059967041015625},"12":{"id":"4987673","label":"Calhoun County","value":"4987673","lat":42.24652999999999991587174008600413799285888671875,"lon":-85.0055899999999979854692355729639530181884765625,"poi_name":"Calhoun County","parent_id":"5001836","long":-85.0055899999999979854692355729639530181884765625},"13":{"id":"4988216","label":"Cass County","value":"4988216","lat":41.91539999999999821511664777062833309173583984375,"lon":-85.993459999999998899511410854756832122802734375,"poi_name":"Cass County","parent_id":"5001836","long":-85.993459999999998899511410854756832122802734375},"14":{"id":"4988577","label":"Charlevoix County","value":"4988577","lat":45.2671500000000008867573342286050319671630859375,"lon":-85.240170000000006211848813109099864959716796875,"poi_name":"Charlevoix County","parent_id":"5001836","long":-85.240170000000006211848813109099864959716796875},"15":{"id":"4988619","label":"Cheboygan County","value":"4988619","lat":45.47294000000000124828147818334400653839111328125,"lon":-84.4920599999999950568962958641350269317626953125,"poi_name":"Cheboygan County","parent_id":"5001836","long":-84.4920599999999950568962958641350269317626953125},"16":{"id":"4988755","label":"Chippewa County","value":"4988755","lat":46.328180000000003246896085329353809356689453125,"lon":-84.52935999999999694409780204296112060546875,"poi_name":"Chippewa County","parent_id":"5001836","long":-84.52935999999999694409780204296112060546875},"17":{"id":"4988934","label":"Clare County","value":"4988934","lat":43.9878700000000009140421752817928791046142578125,"lon":-84.8478400000000050340531743131577968597412109375,"poi_name":"Clare County","parent_id":"5001836","long":-84.8478400000000050340531743131577968597412109375},"18":{"id":"4989135","label":"Clinton County","value":"4989135","lat":42.94364999999999810142981004901230335235595703125,"lon":-84.60151999999999361534719355404376983642578125,"poi_name":"Clinton County","parent_id":"5001836","long":-84.60151999999999361534719355404376983642578125},"19":{"id":"4989916","label":"Crawford County","value":"4989916","lat":44.6836100000000016052581486292183399200439453125,"lon":-84.61029999999999517967808060348033905029296875,"poi_name":"Crawford County","parent_id":"5001836","long":-84.61029999999999517967808060348033905029296875},"20":{"id":"4990662","label":"Delta County","value":"4990662","lat":45.79162000000000176669345819391310214996337890625,"lon":-86.870599999999996043698047287762165069580078125,"poi_name":"Delta County","parent_id":"5001836","long":-86.870599999999996043698047287762165069580078125},"21":{"id":"4990845","label":"Dickinson County","value":"4990845","lat":46.0093499999999977490006131120026111602783203125,"lon":-87.8702100000000001500666257925331592559814453125,"poi_name":"Dickinson County","parent_id":"5001836","long":-87.8702100000000001500666257925331592559814453125},"22":{"id":"4991746","label":"Eaton County","value":"4991746","lat":42.59606999999999743522494100034236907958984375,"lon":-84.838310000000006994014256633818149566650390625,"poi_name":"Eaton County","parent_id":"5001836","long":-84.838310000000006994014256633818149566650390625},"23":{"id":"4992137","label":"Emmet County","value":"4992137","lat":45.58753999999999706460585002787411212921142578125,"lon":-84.98147000000000161890056915581226348876953125,"poi_name":"Emmet County","parent_id":"5001836","long":-84.98147000000000161890056915581226348876953125},"24":{"id":"4993785","label":"Genesee County","value":"4993785","lat":43.0217200000000019599610823206603527069091796875,"lon":-83.7067100000000010595613275654613971710205078125,"poi_name":"Genesee County","parent_id":"5001836","long":-83.7067100000000010595613275654613971710205078125},"25":{"id":"4993986","label":"Gladwin County","value":"4993986","lat":43.99067000000000149384504766203463077545166015625,"lon":-84.388249999999999317878973670303821563720703125,"poi_name":"Gladwin County","parent_id":"5001836","long":-84.388249999999999317878973670303821563720703125},"26":{"id":"4994090","label":"Gogebic County","value":"4994090","lat":46.49551999999999907231540419161319732666015625,"lon":-89.7955500000000057525539887137711048126220703125,"poi_name":"Gogebic County","parent_id":"5001836","long":-89.7955500000000057525539887137711048126220703125},"27":{"id":"4994374","label":"Grand Traverse County","value":"4994374","lat":44.716239999999999099600245244801044464111328125,"lon":-85.552199999999999135980033315718173980712890625,"poi_name":"Grand Traverse County","parent_id":"5001836","long":-85.552199999999999135980033315718173980712890625},"28":{"id":"4994537","label":"Gratiot County","value":"4994537","lat":43.29272999999999882447809795849025249481201171875,"lon":-84.6049100000000038335201679728925228118896484375,"poi_name":"Gratiot County","parent_id":"5001836","long":-84.6049100000000038335201679728925228118896484375},"29":{"id":"4996110","label":"Hillsdale County","value":"4996110","lat":41.8877700000000032787283998914062976837158203125,"lon":-84.592929999999995516191120259463787078857421875,"poi_name":"Hillsdale County","parent_id":"5001836","long":-84.592929999999995516191120259463787078857421875},"30":{"id":"4996573","label":"Houghton County","value":"4996573","lat":46.99154999999999660076355212368071079254150390625,"lon":-88.6520600000000058571458794176578521728515625,"poi_name":"Houghton County","parent_id":"5001836","long":-88.6520600000000058571458794176578521728515625},"31":{"id":"4996859","label":"Huron County","value":"4996859","lat":43.91006999999999749206835986115038394927978515625,"lon":-82.8555099999999953297447063960134983062744140625,"poi_name":"Huron County","parent_id":"5001836","long":-82.8555099999999953297447063960134983062744140625},"32":{"id":"4997130","label":"Ingham County","value":"4997130","lat":42.5970999999999975216269376687705516815185546875,"lon":-84.3735400000000055342752602882683277130126953125,"poi_name":"Ingham County","parent_id":"5001836","long":-84.3735400000000055342752602882683277130126953125},"33":{"id":"4997193","label":"Ionia County","value":"4997193","lat":42.94509000000000042973624658770859241485595703125,"lon":-85.074600000000003774403012357652187347412109375,"poi_name":"Ionia County","parent_id":"5001836","long":-85.074600000000003774403012357652187347412109375},"34":{"id":"4997201","label":"Iosco County","value":"4997201","lat":44.30125000000000312638803734444081783294677734375,"lon":-83.513949999999994133759173564612865447998046875,"poi_name":"Iosco County","parent_id":"5001836","long":-83.513949999999994133759173564612865447998046875},"35":{"id":"4997220","label":"Iron County","value":"4997220","lat":46.20868999999999715555532020516693592071533203125,"lon":-88.53052999999999883584678173065185546875,"poi_name":"Iron County","parent_id":"5001836","long":-88.53052999999999883584678173065185546875},"36":{"id":"4997272","label":"Isabella County","value":"4997272","lat":43.64059999999999917008608463220298290252685546875,"lon":-84.846800000000001773514668457210063934326171875,"poi_name":"Isabella County","parent_id":"5001836","long":-84.846800000000001773514668457210063934326171875},"37":{"id":"4997389","label":"Jackson County","value":"4997389","lat":42.24848999999999676902007195167243480682373046875,"lon":-84.423439999999999372448655776679515838623046875,"poi_name":"Jackson County","parent_id":"5001836","long":-84.423439999999999372448655776679515838623046875},"38":{"id":"4997791","label":"Kalamazoo County","value":"4997791","lat":42.24544999999999816964191268198192119598388671875,"lon":-85.53118000000000620275386609137058258056640625,"poi_name":"Kalamazoo County","parent_id":"5001836","long":-85.53118000000000620275386609137058258056640625},"39":{"id":"4997807","label":"Kalkaska County","value":"4997807","lat":44.68466000000000093450580607168376445770263671875,"lon":-85.0902300000000053614712669514119625091552734375,"poi_name":"Kalkaska County","parent_id":"5001836","long":-85.0902300000000053614712669514119625091552734375},"40":{"id":"4998005","label":"Kent County","value":"4998005","lat":43.03215999999999752390067442320287227630615234375,"lon":-85.5493000000000023419488570652902126312255859375,"poi_name":"Kent County","parent_id":"5001836","long":-85.5493000000000023419488570652902126312255859375},"41":{"id":"4998067","label":"Keweenaw County","value":"4998067","lat":47.28296000000000276486389338970184326171875,"lon":-88.2119799999999969486452755518257617950439453125,"poi_name":"Keweenaw County","parent_id":"5001836","long":-88.2119799999999969486452755518257617950439453125},"42":{"id":"4998535","label":"Lake County","value":"4998535","lat":43.9900099999999980582288117147982120513916015625,"lon":-85.8016999999999967485564411617815494537353515625,"poi_name":"Lake County","parent_id":"5001836","long":-85.8016999999999967485564411617815494537353515625},"43":{"id":"4998845","label":"Lapeer County","value":"4998845","lat":43.09015000000000128466126625426113605499267578125,"lon":-83.221779999999995425241650082170963287353515625,"poi_name":"Lapeer County","parent_id":"5001836","long":-83.221779999999995425241650082170963287353515625},"44":{"id":"4999022","label":"Leelanau County","value":"4999022","lat":45.15176999999999907231540419161319732666015625,"lon":-86.0384999999999990905052982270717620849609375,"poi_name":"Leelanau County","parent_id":"5001836","long":-86.0384999999999990905052982270717620849609375},"45":{"id":"4999081","label":"Lenawee County","value":"4999081","lat":41.89508000000000009777068044058978557586669921875,"lon":-84.066360000000003083187039010226726531982421875,"poi_name":"Lenawee County","parent_id":"5001836","long":-84.066360000000003083187039010226726531982421875},"46":{"id":"4999829","label":"Livingston County","value":"4999829","lat":42.6029199999999974579623085446655750274658203125,"lon":-83.911529999999999063220457173883914947509765625,"poi_name":"Livingston County","parent_id":"5001836","long":-83.911529999999999063220457173883914947509765625},"47":{"id":"5000297","label":"Luce County","value":"5000297","lat":46.36778000000000332647687173448503017425537109375,"lon":-85.5093399999999945748641039244830608367919921875,"poi_name":"Luce County","parent_id":"5001836","long":-85.5093399999999945748641039244830608367919921875},"48":{"id":"5000447","label":"Mackinac County","value":"5000447","lat":45.87183999999999883812051848508417606353759765625,"lon":-84.76227000000000089130480773746967315673828125,"poi_name":"Mackinac County","parent_id":"5001836","long":-84.76227000000000089130480773746967315673828125},"49":{"id":"5000477","label":"Macomb County","value":"5000477","lat":42.67278999999999911096892901696264743804931640625,"lon":-82.9101600000000047430148697458207607269287109375,"poi_name":"Macomb County","parent_id":"5001836","long":-82.9101600000000047430148697458207607269287109375},"50":{"id":"5000612","label":"Manistee County","value":"5000612","lat":44.2383099999999984675014275126159191131591796875,"lon":-86.2879899999999935289451968856155872344970703125,"poi_name":"Manistee County","parent_id":"5001836","long":-86.2879899999999935289451968856155872344970703125},"51":{"id":"5000950","label":"Marquette County","value":"5000950","lat":46.66295000000000214868123293854296207427978515625,"lon":-87.573499999999995679900166578590869903564453125,"poi_name":"Marquette County","parent_id":"5001836","long":-87.573499999999995679900166578590869903564453125},"52":{"id":"5001099","label":"Mason County","value":"5001099","lat":43.9562499999999971578290569595992565155029296875,"lon":-86.4225799999999964029484544880688190460205078125,"poi_name":"Mason County","parent_id":"5001836","long":-86.4225799999999964029484544880688190460205078125},"53":{"id":"5001594","label":"Mecosta County","value":"5001594","lat":43.6407999999999987039700499735772609710693359375,"lon":-85.3246199999999959118213155306875705718994140625,"poi_name":"Mecosta County","parent_id":"5001836","long":-85.3246199999999959118213155306875705718994140625},"54":{"id":"5001670","label":"Menominee County","value":"5001670","lat":45.52514000000000038426151149906218051910400390625,"lon":-87.509690000000006193658919073641300201416015625,"poi_name":"Menominee County","parent_id":"5001836","long":-87.509690000000006193658919073641300201416015625},"55":{"id":"5001932","label":"Midland County","value":"5001932","lat":43.64685999999999665988070773892104625701904296875,"lon":-84.3881099999999975125319906510412693023681640625,"poi_name":"Midland County","parent_id":"5001836","long":-84.3881099999999975125319906510412693023681640625},"56":{"id":"5002231","label":"Missaukee County","value":"5002231","lat":44.337299999999999045030563138425350189208984375,"lon":-85.0946699999999935926098260097205638885498046875,"poi_name":"Missaukee County","parent_id":"5001836","long":-85.0946699999999935926098260097205638885498046875},"57":{"id":"5002348","label":"Monroe County","value":"5002348","lat":41.92139999999999844249032321386039257049560546875,"lon":-83.49425999999999703504727222025394439697265625,"poi_name":"Monroe County","parent_id":"5001836","long":-83.49425999999999703504727222025394439697265625},"58":{"id":"5002390","label":"Montcalm County","value":"5002390","lat":43.31096000000000145746525959111750125885009765625,"lon":-85.1525199999999955480234348215162754058837890625,"poi_name":"Montcalm County","parent_id":"5001836","long":-85.1525199999999955480234348215162754058837890625},"59":{"id":"5002394","label":"Montmorency County","value":"5002394","lat":45.02754999999999796500560478307306766510009765625,"lon":-84.1272100000000051522874855436384677886962890625,"poi_name":"Montmorency County","parent_id":"5001836","long":-84.1272100000000051522874855436384677886962890625},"60":{"id":"5003136","label":"Muskegon County","value":"5003136","lat":43.219189999999997553459252230823040008544921875,"lon":-86.212459999999992987795849330723285675048828125,"poi_name":"Muskegon County","parent_id":"5001836","long":-86.212459999999992987795849330723285675048828125},"61":{"id":"5003426","label":"Newaygo County","value":"5003426","lat":43.5541699999999991632648743689060211181640625,"lon":-85.8009100000000017871570889838039875030517578125,"poi_name":"Newaygo County","parent_id":"5001836","long":-85.8009100000000017871570889838039875030517578125},"62":{"id":"5004223","label":"Oakland County","value":"5004223","lat":42.6604099999999988312993082217872142791748046875,"lon":-83.3858000000000032514435588382184505462646484375,"poi_name":"Oakland County","parent_id":"5001836","long":-83.3858000000000032514435588382184505462646484375},"63":{"id":"5004294","label":"Oceana County","value":"5004294","lat":43.6817800000000033833202905952930450439453125,"lon":-86.3168299999999959482011036016047000885009765625,"poi_name":"Oceana County","parent_id":"5001836","long":-86.3168299999999959482011036016047000885009765625},"64":{"id":"5004326","label":"Ogemaw County","value":"5004326","lat":44.3349400000000031241143005900084972381591796875,"lon":-84.1264100000000070167516241781413555145263671875,"poi_name":"Ogemaw County","parent_id":"5001836","long":-84.1264100000000070167516241781413555145263671875},"65":{"id":"5004521","label":"Ontonagon County","value":"5004521","lat":46.77749000000000023646862246096134185791015625,"lon":-89.3051099999999991041477187536656856536865234375,"poi_name":"Ontonagon County","parent_id":"5001836","long":-89.3051099999999991041477187536656856536865234375},"66":{"id":"5004611","label":"Osceola County","value":"5004611","lat":43.98987000000000335830918629653751850128173828125,"lon":-85.3252800000000064528649090789258480072021484375,"poi_name":"Osceola County","parent_id":"5001836","long":-85.3252800000000064528649090789258480072021484375},"67":{"id":"5004616","label":"Oscoda County","value":"5004616","lat":44.68175000000000096633812063373625278472900390625,"lon":-84.129739999999998190105543471872806549072265625,"poi_name":"Oscoda County","parent_id":"5001836","long":-84.129739999999998190105543471872806549072265625},"68":{"id":"5004659","label":"Otsego County","value":"5004659","lat":45.0214399999999983492671162821352481842041015625,"lon":-84.5989799999999974033926264382898807525634765625,"poi_name":"Otsego County","parent_id":"5001836","long":-84.5989799999999974033926264382898807525634765625},"69":{"id":"5004681","label":"Ottawa County","value":"5004681","lat":43.0026399999999995316102285869419574737548828125,"lon":-86.1795000000000044337866711430251598358154296875,"poi_name":"Ottawa County","parent_id":"5001836","long":-86.1795000000000044337866711430251598358154296875},"70":{"id":"5006470","label":"Presque Isle County","value":"5006470","lat":45.398449999999996862243278883397579193115234375,"lon":-83.8435400000000043974068830721080303192138671875,"poi_name":"Presque Isle County","parent_id":"5001836","long":-83.8435400000000043974068830721080303192138671875},"71":{"id":"5007587","label":"Roscommon County","value":"5007587","lat":44.335610000000002628439688123762607574462890625,"lon":-84.6115999999999957026375341229140758514404296875,"poi_name":"Roscommon County","parent_id":"5001836","long":-84.6115999999999957026375341229140758514404296875},"72":{"id":"5007996","label":"Saginaw County","value":"5007996","lat":43.3350300000000032696334528736770153045654296875,"lon":-84.053190000000000736690708436071872711181640625,"poi_name":"Saginaw County","parent_id":"5001836","long":-84.053190000000000736690708436071872711181640625},"73":{"id":"5008112","label":"Saint Clair County","value":"5008112","lat":42.93111999999999994770405464805662631988525390625,"lon":-82.6643700000000052341420087032020092010498046875,"poi_name":"Saint Clair County","parent_id":"5001836","long":-82.6643700000000052341420087032020092010498046875},"74":{"id":"5008347","label":"Saint Joseph County","value":"5008347","lat":41.91440999999999661440597265027463436126708984375,"lon":-85.52773999999999432475306093692779541015625,"poi_name":"Saint Joseph County","parent_id":"5001836","long":-85.52773999999999432475306093692779541015625},"75":{"id":"5008950","label":"Sanilac County","value":"5008950","lat":43.4433099999999967621988616883754730224609375,"lon":-82.6457500000000067075234255753457546234130859375,"poi_name":"Sanilac County","parent_id":"5001836","long":-82.6457500000000067075234255753457546234130859375},"76":{"id":"5009187","label":"Schoolcraft County","value":"5009187","lat":46.0424900000000008049028110690414905548095703125,"lon":-86.17730000000000245563569478690624237060546875,"poi_name":"Schoolcraft County","parent_id":"5001836","long":-86.17730000000000245563569478690624237060546875},"77":{"id":"5009706","label":"Shiawassee County","value":"5009706","lat":42.95373000000000018872015061788260936737060546875,"lon":-84.1467300000000051340975915081799030303955078125,"poi_name":"Shiawassee County","parent_id":"5001836","long":-84.1467300000000051340975915081799030303955078125},"78":{"id":"5012748","label":"Tuscola County","value":"5012748","lat":43.49134000000000099817043519578874111175537109375,"lon":-83.4398699999999990950527717359364032745361328125,"poi_name":"Tuscola County","parent_id":"5001836","long":-83.4398699999999990950527717359364032745361328125},"79":{"id":"5013104","label":"Van Buren County","value":"5013104","lat":42.285110000000003083187039010226726531982421875,"lon":-86.3064200000000028012436814606189727783203125,"poi_name":"Van Buren County","parent_id":"5001836","long":-86.3064200000000028012436814606189727783203125},"80":{"id":"5014120","label":"Washtenaw County","value":"5014120","lat":42.253230000000002064552973024547100067138671875,"lon":-83.8387699999999966848918120376765727996826171875,"poi_name":"Washtenaw County","parent_id":"5001836","long":-83.8387699999999966848918120376765727996826171875},"81":{"id":"5014227","label":"Wayne County","value":"5014227","lat":42.2847799999999978126652422361075878143310546875,"lon":-83.2611299999999943111106404103338718414306640625,"poi_name":"Wayne County","parent_id":"5001836","long":-83.2611299999999943111106404103338718414306640625},"82":{"id":"5014729","label":"Wexford County","value":"5014729","lat":44.33834999999999837427822058089077472686767578125,"lon":-85.57841999999999416104401461780071258544921875,"poi_name":"Wexford County","parent_id":"5001836","long":-85.57841999999999416104401461780071258544921875}}