{"success":true,"remaining_lookups":7256,"0":{"id":"5243559","label":"Adams County","value":"5243559","lat":43.96963000000000221234586206264793872833251953125,"lon":-89.7706400000000002137312549166381359100341796875,"poi_name":"Adams County","parent_id":"5279468","long":-89.7706400000000002137312549166381359100341796875},"1":{"id":"5244249","label":"Ashland County","value":"5244249","lat":46.50974000000000074805939220823347568511962890625,"lon":-90.7195999999999997953636921010911464691162109375,"poi_name":"Ashland County","parent_id":"5279468","long":-90.7195999999999997953636921010911464691162109375},"2":{"id":"5244742","label":"Barron County","value":"5244742","lat":45.423720000000002983142621815204620361328125,"lon":-91.848309999999997899067238904535770416259765625,"poi_name":"Barron County","parent_id":"5279468","long":-91.848309999999997899067238904535770416259765625},"3":{"id":"5244967","label":"Bayfield County","value":"5244967","lat":46.6354400000000026693669497035443782806396484375,"lon":-91.18067999999999528881744481623172760009765625,"poi_name":"Bayfield County","parent_id":"5279468","long":-91.18067999999999528881744481623172760009765625},"4":{"id":"5246898","label":"Brown County","value":"5246898","lat":44.47433000000000191676008398644626140594482421875,"lon":-87.9928699999999963665686664171516895294189453125,"poi_name":"Brown County","parent_id":"5279468","long":-87.9928699999999963665686664171516895294189453125},"5":{"id":"5247108","label":"Buffalo County","value":"5247108","lat":44.379829999999998335624695755541324615478515625,"lon":-91.754469999999997753548086620867252349853515625,"poi_name":"Buffalo County","parent_id":"5279468","long":-91.754469999999997753548086620867252349853515625},"6":{"id":"5247230","label":"Burnett County","value":"5247230","lat":45.86272000000000303998604067601263523101806640625,"lon":-92.3675700000000006184563972055912017822265625,"poi_name":"Burnett County","parent_id":"5279468","long":-92.3675700000000006184563972055912017822265625},"7":{"id":"5247444","label":"Calumet County","value":"5247444","lat":44.08160000000000167119651450775563716888427734375,"lon":-88.2180599999999941474015940912067890167236328125,"poi_name":"Calumet County","parent_id":"5279468","long":-88.2180599999999941474015940912067890167236328125},"8":{"id":"5248507","label":"Chippewa County","value":"5248507","lat":45.069400000000001682565198279917240142822265625,"lon":-91.279889999999994643076206557452678680419921875,"poi_name":"Chippewa County","parent_id":"5279468","long":-91.279889999999994643076206557452678680419921875},"9":{"id":"5248812","label":"Clark County","value":"5248812","lat":44.73470999999999975216269376687705516815185546875,"lon":-90.6120800000000059526428231038153171539306640625,"poi_name":"Clark County","parent_id":"5279468","long":-90.6120800000000059526428231038153171539306640625},"10":{"id":"5249193","label":"Columbia County","value":"5249193","lat":43.466599999999999681676854379475116729736328125,"lon":-89.33373000000000274667399935424327850341796875,"poi_name":"Columbia County","parent_id":"5279468","long":-89.33373000000000274667399935424327850341796875},"11":{"id":"5249701","label":"Crawford County","value":"5249701","lat":43.23946000000000111640474642626941204071044921875,"lon":-90.931049999999999045030563138425350189208984375,"poi_name":"Crawford County","parent_id":"5279468","long":-90.931049999999999045030563138425350189208984375},"12":{"id":"5250074","label":"Dane County","value":"5250074","lat":43.06734999999999757847035652957856655120849609375,"lon":-89.418319999999994251993484795093536376953125,"poi_name":"Dane County","parent_id":"5279468","long":-89.418319999999994251993484795093536376953125},"13":{"id":"5250710","label":"Dodge County","value":"5250710","lat":43.41629999999999967030817060731351375579833984375,"lon":-88.7075200000000023692336981184780597686767578125,"poi_name":"Dodge County","parent_id":"5279468","long":-88.7075200000000023692336981184780597686767578125},"14":{"id":"5250768","label":"Door County","value":"5250768","lat":44.8383400000000023055690689943730831146240234375,"lon":-87.357789999999994279278325848281383514404296875,"poi_name":"Door County","parent_id":"5279468","long":-87.357789999999994279278325848281383514404296875},"15":{"id":"5250831","label":"Douglas County","value":"5250831","lat":46.46410999999999802412276039831340312957763671875,"lon":-91.8993999999999999772626324556767940521240234375,"poi_name":"Douglas County","parent_id":"5279468","long":-91.8993999999999999772626324556767940521240234375},"16":{"id":"5251040","label":"Dunn County","value":"5251040","lat":44.9465900000000004865796654485166072845458984375,"lon":-91.89641000000000303771230392158031463623046875,"poi_name":"Dunn County","parent_id":"5279468","long":-91.89641000000000303771230392158031463623046875},"17":{"id":"5251439","label":"Eau Claire County","value":"5251439","lat":44.7267700000000019144863472320139408111572265625,"lon":-91.28600000000000136424205265939235687255859375,"poi_name":"Eau Claire County","parent_id":"5279468","long":-91.28600000000000136424205265939235687255859375},"18":{"id":"5253306","label":"Florence County","value":"5253306","lat":45.8484499999999997044142219237983226776123046875,"lon":-88.3981600000000042882675188593566417694091796875,"poi_name":"Florence County","parent_id":"5279468","long":-88.3981600000000042882675188593566417694091796875},"19":{"id":"5253356","label":"Fond du Lac County","value":"5253356","lat":43.753590000000002646629582159221172332763671875,"lon":-88.488259999999996807673596777021884918212890625,"poi_name":"Fond du Lac County","parent_id":"5279468","long":-88.488259999999996807673596777021884918212890625},"20":{"id":"5253400","label":"Forest County","value":"5253400","lat":45.66725999999999885403667576611042022705078125,"lon":-88.7703800000000029513103072531521320343017578125,"poi_name":"Forest County","parent_id":"5279468","long":-88.7703800000000029513103072531521320343017578125},"21":{"id":"5254832","label":"Grant County","value":"5254832","lat":42.86748999999999654164639650844037532806396484375,"lon":-90.706220000000001846274244599044322967529296875,"poi_name":"Grant County","parent_id":"5279468","long":-90.706220000000001846274244599044322967529296875},"22":{"id":"5254978","label":"Green County","value":"5254978","lat":42.67998999999999654164639650844037532806396484375,"lon":-89.6022099999999994679455994628369808197021484375,"poi_name":"Green County","parent_id":"5279468","long":-89.6022099999999994679455994628369808197021484375},"23":{"id":"5255015","label":"Green Lake County","value":"5255015","lat":43.80037999999999698275132686831057071685791015625,"lon":-89.044859999999999899955582804977893829345703125,"poi_name":"Green Lake County","parent_id":"5279468","long":-89.044859999999999899955582804977893829345703125},"24":{"id":"5257509","label":"Iowa County","value":"5257509","lat":43.00048000000000314457793137989938259124755859375,"lon":-90.1354299999999994952304405160248279571533203125,"poi_name":"Iowa County","parent_id":"5279468","long":-90.1354299999999994952304405160248279571533203125},"25":{"id":"5257533","label":"Iron County","value":"5257533","lat":46.317059999999997899067238904535770416259765625,"lon":-90.2644499999999965211827657185494899749755859375,"poi_name":"Iron County","parent_id":"5279468","long":-90.2644499999999965211827657185494899749755859375},"26":{"id":"5257673","label":"Jackson County","value":"5257673","lat":44.319130000000001246007741428911685943603515625,"lon":-90.8051799999999929013938526622951030731201171875,"poi_name":"Jackson County","parent_id":"5279468","long":-90.8051799999999929013938526622951030731201171875},"27":{"id":"5257788","label":"Jefferson County","value":"5257788","lat":43.0208200000000005047695594839751720428466796875,"lon":-88.77586999999999761712388135492801666259765625,"poi_name":"Jefferson County","parent_id":"5279468","long":-88.77586999999999761712388135492801666259765625},"28":{"id":"5258193","label":"Juneau County","value":"5258193","lat":43.92443999999999704186848248355090618133544921875,"lon":-90.1140199999999964575181365944445133209228515625,"poi_name":"Juneau County","parent_id":"5279468","long":-90.1140199999999964575181365944445133209228515625},"29":{"id":"5258396","label":"Kenosha County","value":"5258396","lat":42.572800000000000864019966684281826019287109375,"lon":-87.83980999999999994543031789362430572509765625,"poi_name":"Kenosha County","parent_id":"5279468","long":-87.83980999999999994543031789362430572509765625},"30":{"id":"5258491","label":"Kewaunee County","value":"5258491","lat":44.48279000000000138470568344928324222564697265625,"lon":-87.51434000000000423824531026184558868408203125,"poi_name":"Kewaunee County","parent_id":"5279468","long":-87.51434000000000423824531026184558868408203125},"31":{"id":"5258961","label":"La Crosse County","value":"5258961","lat":43.90652999999999650526660843752324581146240234375,"lon":-91.115219999999993660821928642690181732177734375,"poi_name":"La Crosse County","parent_id":"5279468","long":-91.115219999999993660821928642690181732177734375},"32":{"id":"5259061","label":"Lafayette County","value":"5259061","lat":42.6604999999999989768184605054557323455810546875,"lon":-90.131720000000001391526893712580204010009765625,"poi_name":"Lafayette County","parent_id":"5279468","long":-90.131720000000001391526893712580204010009765625},"33":{"id":"5259487","label":"Langlade County","value":"5259487","lat":45.26236000000000103682396002113819122314453125,"lon":-89.0719100000000025829649530351161956787109375,"poi_name":"Langlade County","parent_id":"5279468","long":-89.0719100000000025829649530351161956787109375},"34":{"id":"5259991","label":"Lincoln County","value":"5259991","lat":45.33746000000000009322320693172514438629150390625,"lon":-89.734610000000003537934389896690845489501953125,"poi_name":"Lincoln County","parent_id":"5279468","long":-89.734610000000003537934389896690845489501953125},"35":{"id":"5261587","label":"Manitowoc County","value":"5261587","lat":44.09053999999999717829268774949014186859130859375,"lon":-87.6997400000000055797499953769147396087646484375,"poi_name":"Manitowoc County","parent_id":"5279468","long":-87.6997400000000055797499953769147396087646484375},"36":{"id":"5261790","label":"Marathon County","value":"5261790","lat":44.898290000000002919477992691099643707275390625,"lon":-89.759060000000005175024853087961673736572265625,"poi_name":"Marathon County","parent_id":"5279468","long":-89.759060000000005175024853087961673736572265625},"37":{"id":"5261856","label":"Marinette County","value":"5261856","lat":45.35090000000000287627699435688555240631103515625,"lon":-88.002219999999994115569279529154300689697265625,"poi_name":"Marinette County","parent_id":"5279468","long":-88.002219999999994115569279529154300689697265625},"38":{"id":"5261914","label":"Marquette County","value":"5261914","lat":43.819580000000001973603502847254276275634765625,"lon":-89.39875000000000682121026329696178436279296875,"poi_name":"Marquette County","parent_id":"5279468","long":-89.39875000000000682121026329696178436279296875},"39":{"id":"5262622","label":"Menominee County","value":"5262622","lat":45.00437000000000153931978275068104267120361328125,"lon":-88.7100099999999969213604344986379146575927734375,"poi_name":"Menominee County","parent_id":"5279468","long":-88.7100099999999969213604344986379146575927734375},"40":{"id":"5263058","label":"Milwaukee County","value":"5263058","lat":43.0217200000000019599610823206603527069091796875,"lon":-87.9290799999999990177457220852375030517578125,"poi_name":"Milwaukee County","parent_id":"5279468","long":-87.9290799999999990177457220852375030517578125},"41":{"id":"5263335","label":"Monroe County","value":"5263335","lat":43.94574999999999675992512493394315242767333984375,"lon":-90.6178699999999963665686664171516895294189453125,"poi_name":"Monroe County","parent_id":"5279468","long":-90.6178699999999963665686664171516895294189453125},"42":{"id":"5265518","label":"Oconto County","value":"5265518","lat":44.99851000000000311729309032671153545379638671875,"lon":-88.220560000000006084519554860889911651611328125,"poi_name":"Oconto County","parent_id":"5279468","long":-88.220560000000006084519554860889911651611328125},"43":{"id":"5265726","label":"Oneida County","value":"5265726","lat":45.705590000000000827640178613364696502685546875,"lon":-89.5217099999999987858245731331408023834228515625,"poi_name":"Oneida County","parent_id":"5279468","long":-89.5217099999999987858245731331408023834228515625},"44":{"id":"5266044","label":"Outagamie County","value":"5266044","lat":44.41608999999999696228769607841968536376953125,"lon":-88.4649299999999954025042825378477573394775390625,"poi_name":"Outagamie County","parent_id":"5279468","long":-88.4649299999999954025042825378477573394775390625},"45":{"id":"5266102","label":"Ozaukee County","value":"5266102","lat":43.40305000000000035242919693700969219207763671875,"lon":-87.8906300000000015870682545937597751617431640625,"poi_name":"Ozaukee County","parent_id":"5279468","long":-87.8906300000000015870682545937597751617431640625},"46":{"id":"5266547","label":"Pepin County","value":"5266547","lat":44.48264999999999957935870043002068996429443359375,"lon":-92.1496900000000067620931076817214488983154296875,"poi_name":"Pepin County","parent_id":"5279468","long":-92.1496900000000067620931076817214488983154296875},"47":{"id":"5266878","label":"Pierce County","value":"5266878","lat":44.71963000000000221234586206264793872833251953125,"lon":-92.4224899999999962574293022044003009796142578125,"poi_name":"Pierce County","parent_id":"5279468","long":-92.4224899999999962574293022044003009796142578125},"48":{"id":"5267654","label":"Polk County","value":"5267654","lat":45.46141999999999683268470107577741146087646484375,"lon":-92.4413899999999983947418513707816600799560546875,"poi_name":"Polk County","parent_id":"5279468","long":-92.4413899999999983947418513707816600799560546875},"49":{"id":"5267787","label":"Portage County","value":"5267787","lat":44.4760399999999975761966197751462459564208984375,"lon":-89.50141999999999598003341816365718841552734375,"poi_name":"Portage County","parent_id":"5279468","long":-89.50141999999999598003341816365718841552734375},"50":{"id":"5268067","label":"Price County","value":"5268067","lat":45.6803799999999995407051756046712398529052734375,"lon":-90.361369999999993751771398819983005523681640625,"poi_name":"Price County","parent_id":"5279468","long":-90.361369999999993751771398819983005523681640625},"51":{"id":"5268253","label":"Racine County","value":"5268253","lat":42.72986999999999824240148882381618022918701171875,"lon":-87.8123499999999950205165077932178974151611328125,"poi_name":"Racine County","parent_id":"5279468","long":-87.8123499999999950205165077932178974151611328125},"52":{"id":"5268859","label":"Richland County","value":"5268859","lat":43.37563999999999708734321757219731807708740234375,"lon":-90.4294799999999980855136527679860591888427734375,"poi_name":"Richland County","parent_id":"5279468","long":-90.4294799999999980855136527679860591888427734375},"53":{"id":"5269209","label":"Rock County","value":"5269209","lat":42.67121999999999815145201864652335643768310546875,"lon":-89.0715799999999973124431562609970569610595703125,"poi_name":"Rock County","parent_id":"5279468","long":-89.0715799999999973124431562609970569610595703125},"54":{"id":"5269777","label":"Rusk County","value":"5269777","lat":45.47513000000000005229594535194337368011474609375,"lon":-91.1331200000000052341420087032020092010498046875,"poi_name":"Rusk County","parent_id":"5279468","long":-91.1331200000000052341420087032020092010498046875},"55":{"id":"5270199","label":"Saint Croix County","value":"5270199","lat":45.0340699999999998226485331542789936065673828125,"lon":-92.4527800000000041791281546466052532196044921875,"poi_name":"Saint Croix County","parent_id":"5279468","long":-92.4527800000000041791281546466052532196044921875},"56":{"id":"5272232","label":"Sauk County","value":"5272232","lat":43.42678000000000082536644185893237590789794921875,"lon":-89.9483699999999970486896927468478679656982421875,"poi_name":"Sauk County","parent_id":"5279468","long":-89.9483699999999970486896927468478679656982421875},"57":{"id":"5272272","label":"Sawyer County","value":"5272272","lat":45.8799700000000001409716787748038768768310546875,"lon":-91.1446700000000049612935981713235378265380859375,"poi_name":"Sawyer County","parent_id":"5279468","long":-91.1446700000000049612935981713235378265380859375},"58":{"id":"5272875","label":"Shawano County","value":"5272875","lat":44.78914999999999935198502498678863048553466796875,"lon":-88.7654399999999981218934408389031887054443359375,"poi_name":"Shawano County","parent_id":"5279468","long":-88.7654399999999981218934408389031887054443359375},"59":{"id":"5272899","label":"Sheboygan County","value":"5272899","lat":43.7562199999999990041033015586435794830322265625,"lon":-87.7999899999999939836925477720797061920166015625,"poi_name":"Sheboygan County","parent_id":"5279468","long":-87.7999899999999939836925477720797061920166015625},"60":{"id":"5275451","label":"Taylor County","value":"5275451","lat":45.21153000000000332647687173448503017425537109375,"lon":-90.501249999999998863131622783839702606201171875,"poi_name":"Taylor County","parent_id":"5279468","long":-90.501249999999998863131622783839702606201171875},"61":{"id":"5276086","label":"Trempealeau County","value":"5276086","lat":44.3039500000000003865352482534945011138916015625,"lon":-91.3584599999999937836037133820354938507080078125,"poi_name":"Trempealeau County","parent_id":"5279468","long":-91.3584599999999937836037133820354938507080078125},"62":{"id":"5277134","label":"Vernon County","value":"5277134","lat":43.59385999999999938836481305770576000213623046875,"lon":-90.8343799999999959027263685129582881927490234375,"poi_name":"Vernon County","parent_id":"5279468","long":-90.8343799999999959027263685129582881927490234375},"63":{"id":"5277222","label":"Vilas County","value":"5277222","lat":46.05288999999999788315108162350952625274658203125,"lon":-89.514769999999998617568053305149078369140625,"poi_name":"Vilas County","parent_id":"5279468","long":-89.514769999999998617568053305149078369140625},"64":{"id":"5277773","label":"Walworth County","value":"5277773","lat":42.6684800000000024056134861893951892852783203125,"lon":-88.5419200000000046202330850064754486083984375,"poi_name":"Walworth County","parent_id":"5279468","long":-88.5419200000000046202330850064754486083984375},"65":{"id":"5277858","label":"Washburn County","value":"5277858","lat":45.8991800000000012005330063402652740478515625,"lon":-91.7912299999999987676346790976822376251220703125,"poi_name":"Washburn County","parent_id":"5279468","long":-91.7912299999999987676346790976822376251220703125},"66":{"id":"5277887","label":"Washington County","value":"5277887","lat":43.3684700000000020736479200422763824462890625,"lon":-88.2307799999999957663021632470190525054931640625,"poi_name":"Washington County","parent_id":"5279468","long":-88.2307799999999957663021632470190525054931640625},"67":{"id":"5278054","label":"Waukesha County","value":"5278054","lat":43.01818999999999704186848248355090618133544921875,"lon":-88.3045299999999997453414835035800933837890625,"poi_name":"Waukesha County","parent_id":"5279468","long":-88.3045299999999997453414835035800933837890625},"68":{"id":"5278089","label":"Waupaca County","value":"5278089","lat":44.47043000000000034788172342814505100250244140625,"lon":-88.964820000000003119566827081143856048583984375,"poi_name":"Waupaca County","parent_id":"5279468","long":-88.964820000000003119566827081143856048583984375},"69":{"id":"5278147","label":"Waushara County","value":"5278147","lat":44.11312000000000210775397135876119136810302734375,"lon":-89.2428799999999995407051756046712398529052734375,"poi_name":"Waushara County","parent_id":"5279468","long":-89.2428799999999995407051756046712398529052734375},"70":{"id":"5279387","label":"Winnebago County","value":"5279387","lat":44.06888000000000005229594535194337368011474609375,"lon":-88.6446600000000017871570889838039875030517578125,"poi_name":"Winnebago County","parent_id":"5279468","long":-88.6446600000000017871570889838039875030517578125},"71":{"id":"5279557","label":"Wood County","value":"5279557","lat":44.455320000000000391082721762359142303466796875,"lon":-90.0415799999999961755747790448367595672607421875,"poi_name":"Wood County","parent_id":"5279468","long":-90.0415799999999961755747790448367595672607421875}}