{"success":true,"remaining_lookups":7274,"0":{"id":"5457180","label":"Bernalillo County","value":"5457180","lat":35.05131000000000085492501966655254364013671875,"lon":-106.6701699999999988222043612040579319000244140625,"poi_name":"Bernalillo County","parent_id":"5481136","long":-106.6701699999999988222043612040579319000244140625},"1":{"id":"5460788","label":"Catron County","value":"5460788","lat":33.9153299999999973124431562609970569610595703125,"lon":-108.404730000000000700310920365154743194580078125,"poi_name":"Catron County","parent_id":"5481136","long":-108.404730000000000700310920365154743194580078125},"2":{"id":"5461428","label":"Chaves County","value":"5461428","lat":33.363190000000003010427462868392467498779296875,"lon":-104.4669999999999987494447850622236728668212890625,"poi_name":"Chaves County","parent_id":"5481136","long":-104.4669999999999987494447850622236728668212890625},"3":{"id":"5462019","label":"Cibola County","value":"5462019","lat":34.9125700000000023237589630298316478729248046875,"lon":-107.99970999999999321516952477395534515380859375,"poi_name":"Cibola County","parent_id":"5481136","long":-107.99970999999999321516952477395534515380859375},"4":{"id":"5462567","label":"Colfax County","value":"5462567","lat":36.60611999999999710553311160765588283538818359375,"lon":-104.64686000000000376530806533992290496826171875,"poi_name":"Colfax County","parent_id":"5481136","long":-104.64686000000000376530806533992290496826171875},"5":{"id":"5464151","label":"Curry County","value":"5464151","lat":34.57415999999999911551640252582728862762451171875,"lon":-103.3469099999999940564521239139139652252197265625,"poi_name":"Curry County","parent_id":"5481136","long":-103.3469099999999940564521239139139652252197265625},"6":{"id":"5464477","label":"De Baca County","value":"5464477","lat":34.34239000000000174850356415845453739166259765625,"lon":-104.412000000000006139089236967265605926513671875,"poi_name":"De Baca County","parent_id":"5481136","long":-104.412000000000006139089236967265605926513671875},"7":{"id":"5465283","label":"Do\u00f1a Ana County","value":"5465283","lat":32.35267999999999943838702165521681308746337890625,"lon":-106.8328000000000059799276641570031642913818359375,"poi_name":"Do\u00f1a Ana County","parent_id":"5481136","long":-106.8328000000000059799276641570031642913818359375},"8":{"id":"5466318","label":"Eddy County","value":"5466318","lat":32.4714900000000028512658900581300258636474609375,"lon":-104.3043100000000009686118573881685733795166015625,"poi_name":"Eddy County","parent_id":"5481136","long":-104.3043100000000009686118573881685733795166015625},"9":{"id":"5469835","label":"Grant County","value":"5469835","lat":32.73901000000000038880898500792682170867919921875,"lon":-108.3822499999999990905052982270717620849609375,"poi_name":"Grant County","parent_id":"5481136","long":-108.3822499999999990905052982270717620849609375},"10":{"id":"5470197","label":"Guadalupe County","value":"5470197","lat":34.86332999999999771034708828665316104888916015625,"lon":-104.7907000000000010686562745831906795501708984375,"poi_name":"Guadalupe County","parent_id":"5481136","long":-104.7907000000000010686562745831906795501708984375},"11":{"id":"5470675","label":"Harding County","value":"5470675","lat":35.8579399999999992587618180550634860992431640625,"lon":-103.8199299999999993815436027944087982177734375,"poi_name":"Harding County","parent_id":"5481136","long":-103.8199299999999993815436027944087982177734375},"12":{"id":"5471293","label":"Hidalgo County","value":"5471293","lat":31.914159999999998973407855373807251453399658203125,"lon":-108.714820000000003119566827081143856048583984375,"poi_name":"Hidalgo County","parent_id":"5481136","long":-108.714820000000003119566827081143856048583984375},"13":{"id":"5475594","label":"Lea County","value":"5475594","lat":32.792180000000001882654032669961452484130859375,"lon":-103.412450000000006866684998385608196258544921875,"poi_name":"Lea County","parent_id":"5481136","long":-103.412450000000006866684998385608196258544921875},"14":{"id":"5475934","label":"Lincoln County","value":"5475934","lat":33.74524000000000256704879575408995151519775390625,"lon":-105.4592499999999972715158946812152862548828125,"poi_name":"Lincoln County","parent_id":"5481136","long":-105.4592499999999972715158946812152862548828125},"15":{"id":"5476834","label":"Los Alamos County","value":"5476834","lat":35.8693700000000035288394428789615631103515625,"lon":-106.307289999999994734025676734745502471923828125,"poi_name":"Los Alamos County","parent_id":"5481136","long":-106.307289999999994734025676734745502471923828125},"16":{"id":"5477433","label":"Luna County","value":"5477433","lat":32.18215000000000003410605131648480892181396484375,"lon":-107.7497699999999980491338646970689296722412109375,"poi_name":"Luna County","parent_id":"5481136","long":-107.7497699999999980491338646970689296722412109375},"17":{"id":"5478585","label":"McKinley County","value":"5478585","lat":35.58061000000000007048583938740193843841552734375,"lon":-108.2619300000000066575012169778347015380859375,"poi_name":"McKinley County","parent_id":"5481136","long":-108.2619300000000066575012169778347015380859375},"18":{"id":"5480123","label":"Mora County","value":"5480123","lat":36.0099500000000034560798667371273040771484375,"lon":-104.944580000000001973603502847254276275634765625,"poi_name":"Mora County","parent_id":"5481136","long":-104.944580000000001973603502847254276275634765625},"19":{"id":"5482932","label":"Otero County","value":"5482932","lat":32.61316000000000059344529290683567523956298828125,"lon":-105.741680000000002337401383556425571441650390625,"poi_name":"Otero County","parent_id":"5481136","long":-105.741680000000002337401383556425571441650390625},"20":{"id":"5485605","label":"Quay County","value":"5485605","lat":35.1043599999999997862687450833618640899658203125,"lon":-103.5497399999999998954081092961132526397705078125,"poi_name":"Quay County","parent_id":"5481136","long":-103.5497399999999998954081092961132526397705078125},"21":{"id":"5487732","label":"Rio Arriba County","value":"5487732","lat":36.50956999999999652573023922741413116455078125,"lon":-106.6931100000000043337422539480030536651611328125,"poi_name":"Rio Arriba County","parent_id":"5481136","long":-106.6931100000000043337422539480030536651611328125},"22":{"id":"5488372","label":"Roosevelt County","value":"5488372","lat":34.0212700000000012323653209023177623748779296875,"lon":-103.4801800000000042700776248238980770111083984375,"poi_name":"Roosevelt County","parent_id":"5481136","long":-103.4801800000000042700776248238980770111083984375},"23":{"id":"5489698","label":"San Juan County","value":"5489698","lat":36.5084700000000026420821086503565311431884765625,"lon":-108.3205999999999988858689903281629085540771484375,"poi_name":"San Juan County","parent_id":"5481136","long":-108.3205999999999988858689903281629085540771484375},"24":{"id":"5489818","label":"San Miguel County","value":"5489818","lat":35.480289999999996553015080280601978302001953125,"lon":-104.8158499999999975216269376687705516815185546875,"poi_name":"San Miguel County","parent_id":"5481136","long":-104.8158499999999975216269376687705516815185546875},"25":{"id":"5490135","label":"Sandoval County","value":"5490135","lat":35.68854999999999932924765744246542453765869140625,"lon":-106.8658400000000057161742006428539752960205078125,"poi_name":"Sandoval County","parent_id":"5481136","long":-106.8658400000000057161742006428539752960205078125},"26":{"id":"5490272","label":"Santa Fe County","value":"5490272","lat":35.5068600000000031968738767318427562713623046875,"lon":-105.9761199999999945475792628712952136993408203125,"poi_name":"Santa Fe County","parent_id":"5481136","long":-105.9761199999999945475792628712952136993408203125},"27":{"id":"5491395","label":"Sierra County","value":"5491395","lat":33.13047000000000252839527092874050140380859375,"lon":-107.1924999999999954525264911353588104248046875,"poi_name":"Sierra County","parent_id":"5481136","long":-107.1924999999999954525264911353588104248046875},"28":{"id":"5492031","label":"Socorro County","value":"5492031","lat":34.00724000000000302179614664055407047271728515625,"lon":-106.930329999999997880877344869077205657958984375,"poi_name":"Socorro County","parent_id":"5481136","long":-106.930329999999997880877344869077205657958984375},"29":{"id":"5493780","label":"Taos County","value":"5493780","lat":36.5782999999999987039700499735772609710693359375,"lon":-105.6309700000000049158188630826771259307861328125,"poi_name":"Taos County","parent_id":"5481136","long":-105.6309700000000049158188630826771259307861328125},"30":{"id":"5494881","label":"Torrance County","value":"5494881","lat":34.64047000000000053887561080045998096466064453125,"lon":-105.8507800000000003137756721116602420806884765625,"poi_name":"Torrance County","parent_id":"5481136","long":-105.8507800000000003137756721116602420806884765625},"31":{"id":"5495841","label":"Union County","value":"5495841","lat":36.48176000000000129830368678085505962371826171875,"lon":-103.470990000000000463842297904193401336669921875,"poi_name":"Union County","parent_id":"5481136","long":-103.470990000000000463842297904193401336669921875},"32":{"id":"5496319","label":"Valencia County","value":"5496319","lat":34.71544999999999703277353546582162380218505859375,"lon":-106.809110000000003992681740783154964447021484375,"poi_name":"Valencia County","parent_id":"5481136","long":-106.809110000000003992681740783154964447021484375}}