{"success":true,"remaining_lookups":7258,"0":{"id":"5785282","label":"Adams County","value":"5785282","lat":46.9833799999999968122210702858865261077880859375,"lon":-118.5605000000000046611603465862572193145751953125,"poi_name":"Adams County","parent_id":"5815135","long":-118.5605000000000046611603465862572193145751953125},"1":{"id":"5785935","label":"Asotin County","value":"5785935","lat":46.19185999999999836518327356316149234771728515625,"lon":-117.203069999999996753103914670646190643310546875,"poi_name":"Asotin County","parent_id":"5815135","long":-117.203069999999996753103914670646190643310546875},"2":{"id":"5786991","label":"Benton County","value":"5786991","lat":46.23978000000000321279003401286900043487548828125,"lon":-119.511200000000002319211489520967006683349609375,"poi_name":"Benton County","parent_id":"5815135","long":-119.511200000000002319211489520967006683349609375},"3":{"id":"5789829","label":"Chelan County","value":"5789829","lat":47.8691000000000030922819860279560089111328125,"lon":-120.618909999999999627107172273099422454833984375,"poi_name":"Chelan County","parent_id":"5815135","long":-120.618909999999999627107172273099422454833984375},"4":{"id":"5790164","label":"Clallam County","value":"5790164","lat":48.1104399999999969850250636227428913116455078125,"lon":-123.9343199999999995952748577110469341278076171875,"poi_name":"Clallam County","parent_id":"5815135","long":-123.9343199999999995952748577110469341278076171875},"5":{"id":"5790179","label":"Clark County","value":"5790179","lat":45.7792699999999967985786497592926025390625,"lon":-122.4825900000000018508217181079089641571044921875,"poi_name":"Clark County","parent_id":"5815135","long":-122.4825900000000018508217181079089641571044921875},"6":{"id":"5790614","label":"Columbia County","value":"5790614","lat":46.297550000000001091393642127513885498046875,"lon":-117.907880000000005793481250293552875518798828125,"poi_name":"Columbia County","parent_id":"5815135","long":-117.907880000000005793481250293552875518798828125},"7":{"id":"5791206","label":"Cowlitz County","value":"5791206","lat":46.19328999999999751935320091433823108673095703125,"lon":-122.680779999999998608473106287419795989990234375,"poi_name":"Cowlitz County","parent_id":"5815135","long":-122.680779999999998608473106287419795989990234375},"8":{"id":"5792681","label":"Douglas County","value":"5792681","lat":47.7360699999999980036591296084225177764892578125,"lon":-119.691720000000003665263648144900798797607421875,"poi_name":"Douglas County","parent_id":"5815135","long":-119.691720000000003665263648144900798797607421875},"9":{"id":"5794294","label":"Ferry County","value":"5794294","lat":48.47006999999999976580511429347097873687744140625,"lon":-118.516490000000004556568455882370471954345703125,"poi_name":"Ferry County","parent_id":"5815135","long":-118.516490000000004556568455882370471954345703125},"10":{"id":"5794976","label":"Franklin County","value":"5794976","lat":46.53477000000000174395609064958989620208740234375,"lon":-118.89888999999999441570253111422061920166015625,"poi_name":"Franklin County","parent_id":"5815135","long":-118.89888999999999441570253111422061920166015625},"11":{"id":"5795265","label":"Garfield County","value":"5795265","lat":46.43155999999999750116330687887966632843017578125,"lon":-117.5451900000000051704773795790970325469970703125,"poi_name":"Garfield County","parent_id":"5815135","long":-117.5451900000000051704773795790970325469970703125},"12":{"id":"5796034","label":"Grant County","value":"5796034","lat":47.20566000000000173031367012299597263336181640625,"lon":-119.4517699999999962301444611512124538421630859375,"poi_name":"Grant County","parent_id":"5815135","long":-119.4517699999999962301444611512124538421630859375},"13":{"id":"5796126","label":"Grays Harbor County","value":"5796126","lat":47.14444999999999907913661445491015911102294921875,"lon":-123.8284699999999958208718453533947467803955078125,"poi_name":"Grays Harbor County","parent_id":"5815135","long":-123.8284699999999958208718453533947467803955078125},"14":{"id":"5798453","label":"Island County","value":"5798453","lat":48.20819999999999794226823723874986171722412109375,"lon":-122.669219999999995707185007631778717041015625,"poi_name":"Island County","parent_id":"5815135","long":-122.669219999999995707185007631778717041015625},"15":{"id":"5798663","label":"Jefferson County","value":"5798663","lat":47.7765500000000002955857780762016773223876953125,"lon":-123.574309999999996989572537131607532501220703125,"poi_name":"Jefferson County","parent_id":"5815135","long":-123.574309999999996989572537131607532501220703125},"16":{"id":"5799783","label":"King County","value":"5799783","lat":47.49083999999999861074684304185211658477783203125,"lon":-121.8358300000000014051693142391741275787353515625,"poi_name":"King County","parent_id":"5815135","long":-121.8358300000000014051693142391741275787353515625},"17":{"id":"5799853","label":"Kitsap County","value":"5799853","lat":47.6398300000000034515323932282626628875732421875,"lon":-122.6490000000000009094947017729282379150390625,"poi_name":"Kitsap County","parent_id":"5815135","long":-122.6490000000000009094947017729282379150390625},"18":{"id":"5799889","label":"Kittitas County","value":"5799889","lat":47.12416999999999944748196867294609546661376953125,"lon":-120.679720000000003210516297258436679840087890625,"poi_name":"Kittitas County","parent_id":"5815135","long":-120.679720000000003210516297258436679840087890625},"19":{"id":"5799909","label":"Klickitat County","value":"5799909","lat":45.8737799999999964484231895767152309417724609375,"lon":-120.7892599999999987403498380444943904876708984375,"poi_name":"Klickitat County","parent_id":"5815135","long":-120.7892599999999987403498380444943904876708984375},"20":{"id":"5800813","label":"Lewis County","value":"5800813","lat":46.577730000000002519300323911011219024658203125,"lon":-122.3924099999999981491782818920910358428955078125,"poi_name":"Lewis County","parent_id":"5815135","long":-122.3924099999999981491782818920910358428955078125},"21":{"id":"5800965","label":"Lincoln County","value":"5800965","lat":47.576189999999996871338225901126861572265625,"lon":-118.41879000000000132786226458847522735595703125,"poi_name":"Lincoln County","parent_id":"5815135","long":-118.41879000000000132786226458847522735595703125},"22":{"id":"5802584","label":"Mason County","value":"5802584","lat":47.35047999999999746023604529909789562225341796875,"lon":-123.1830900000000070804162533022463321685791015625,"poi_name":"Mason County","parent_id":"5815135","long":-123.1830900000000070804162533022463321685791015625},"23":{"id":"5805553","label":"Okanogan County","value":"5805553","lat":48.5488500000000016143530956469476222991943359375,"lon":-119.74079000000000405634636990725994110107421875,"poi_name":"Okanogan County","parent_id":"5815135","long":-119.74079000000000405634636990725994110107421875},"24":{"id":"5806002","label":"Pacific County","value":"5806002","lat":46.55127999999999843794284970499575138092041015625,"lon":-123.7788599999999945566742098890244960784912109375,"poi_name":"Pacific County","parent_id":"5815135","long":-123.7788599999999945566742098890244960784912109375},"25":{"id":"5806491","label":"Pend Oreille County","value":"5806491","lat":48.53229999999999932924765744246542453765869140625,"lon":-117.2739700000000055979398894123733043670654296875,"poi_name":"Pend Oreille County","parent_id":"5815135","long":-117.2739700000000055979398894123733043670654296875},"26":{"id":"5806769","label":"Pierce County","value":"5806769","lat":47.03764000000000322643245453946292400360107421875,"lon":-122.137349999999997862687450833618640899658203125,"poi_name":"Pierce County","parent_id":"5815135","long":-122.137349999999997862687450833618640899658203125},"27":{"id":"5809422","label":"San Juan County","value":"5809422","lat":48.53115999999999985448084771633148193359375,"lon":-123.0249000000000023646862246096134185791015625,"poi_name":"San Juan County","parent_id":"5815135","long":-123.0249000000000023646862246096134185791015625},"28":{"id":"5810608","label":"Skagit County","value":"5810608","lat":48.48214999999999719193510827608406543731689453125,"lon":-121.802269999999992933226167224347591400146484375,"poi_name":"Skagit County","parent_id":"5815135","long":-121.802269999999992933226167224347591400146484375},"29":{"id":"5810628","label":"Skamania County","value":"5810628","lat":46.02275999999999811507223057560622692108154296875,"lon":-121.91509999999999536157702095806598663330078125,"poi_name":"Skamania County","parent_id":"5815135","long":-121.91509999999999536157702095806598663330078125},"30":{"id":"5810982","label":"Snohomish County","value":"5810982","lat":48.046019999999998617568053305149078369140625,"lon":-121.7221799999999944930095807649195194244384765625,"poi_name":"Snohomish County","parent_id":"5815135","long":-121.7221799999999944930095807649195194244384765625},"31":{"id":"5811704","label":"Spokane County","value":"5811704","lat":47.62064000000000163481672643683850765228271484375,"lon":-117.404009999999999536157702095806598663330078125,"poi_name":"Spokane County","parent_id":"5815135","long":-117.404009999999999536157702095806598663330078125},"32":{"id":"5812148","label":"Stevens County","value":"5812148","lat":48.39905999999999863803168409503996372222900390625,"lon":-117.8551400000000057843863032758235931396484375,"poi_name":"Stevens County","parent_id":"5815135","long":-117.8551400000000057843863032758235931396484375},"33":{"id":"5813521","label":"Thurston County","value":"5813521","lat":46.92949999999999732835931354202330112457275390625,"lon":-122.8320800000000048157744458876550197601318359375,"poi_name":"Thurston County","parent_id":"5815135","long":-122.8320800000000048157744458876550197601318359375},"34":{"id":"5814851","label":"Wahkiakum County","value":"5814851","lat":46.29124999999999801048033987171947956085205078125,"lon":-123.4331600000000008776623872108757495880126953125,"poi_name":"Wahkiakum County","parent_id":"5815135","long":-123.4331600000000008776623872108757495880126953125},"35":{"id":"5814921","label":"Walla Walla County","value":"5814921","lat":46.2297999999999973397279973141849040985107421875,"lon":-118.4784499999999951569407130591571331024169921875,"poi_name":"Walla Walla County","parent_id":"5815135","long":-118.4784499999999951569407130591571331024169921875},"36":{"id":"5815675","label":"Whatcom County","value":"5815675","lat":48.82974999999999710098563809879124164581298828125,"lon":-121.872829999999993333403836004436016082763671875,"poi_name":"Whatcom County","parent_id":"5815135","long":-121.872829999999993333403836004436016082763671875},"37":{"id":"5815891","label":"Whitman County","value":"5815891","lat":46.90117000000000047066350816749036312103271484375,"lon":-117.52298999999999296051100827753543853759765625,"poi_name":"Whitman County","parent_id":"5815135","long":-117.52298999999999296051100827753543853759765625},"38":{"id":"5816597","label":"Yakima County","value":"5816597","lat":46.456850000000002864908310584723949432373046875,"lon":-120.7386999999999943611328490078449249267578125,"poi_name":"Yakima County","parent_id":"5815135","long":-120.7386999999999943611328490078449249267578125}}