{"success":true,"remaining_lookups":9883,"0":{"id":"3863700","label":"Departamento de Burruyac\u00fa","value":"3863700","lat":-26.5,"lon":-64.9166699999999963210939313285052776336669921875,"poi_name":"Departamento de Burruyac\u00fa","parent_id":"3833578","long":-64.9166699999999963210939313285052776336669921875},"1":{"id":"3862748","label":"Departamento de Capital","value":"3862748","lat":-26.828250000000000596855898038484156131744384765625,"lon":-65.2112599999999957844920572824776172637939453125,"poi_name":"Departamento de Capital","parent_id":"3833578","long":-65.2112599999999957844920572824776172637939453125},"2":{"id":"3861525","label":"Departamento de Chicligasta","value":"3861525","lat":-27.333330000000000126192389870993793010711669921875,"lon":-65.5833300000000036789060686714947223663330078125,"poi_name":"Departamento de Chicligasta","parent_id":"3833578","long":-65.5833300000000036789060686714947223663330078125},"3":{"id":"3859838","label":"Departamento de Cruz Alta","value":"3859838","lat":-26.916669999999999873807610129006206989288330078125,"lon":-64.9166699999999963210939313285052776336669921875,"poi_name":"Departamento de Cruz Alta","parent_id":"3833578","long":-64.9166699999999963210939313285052776336669921875},"4":{"id":"3855665","label":"Departamento de Famaill\u00e1","value":"3855665","lat":-26.916669999999999873807610129006206989288330078125,"lon":-65.5,"poi_name":"Departamento de Famaill\u00e1","parent_id":"3833578","long":-65.5},"5":{"id":"3854723","label":"Departamento de Graneros","value":"3854723","lat":-27.75,"lon":-65.3333300000000036789060686714947223663330078125,"poi_name":"Departamento de Graneros","parent_id":"3833578","long":-65.3333300000000036789060686714947223663330078125},"6":{"id":"8715331","label":"Departamento de Juan B. Alberdi","value":"8715331","lat":-27.59476000000000084355633589439094066619873046875,"lon":-65.827799999999996316546457819640636444091796875,"poi_name":"Departamento de Juan B. Alberdi","parent_id":"3833578","long":-65.827799999999996316546457819640636444091796875},"7":{"id":"8715302","label":"Departamento de La Cocha","value":"8715302","lat":-27.777840000000001197122401208616793155670166015625,"lon":-65.571089999999998099156073294579982757568359375,"poi_name":"Departamento de La Cocha","parent_id":"3833578","long":-65.571089999999998099156073294579982757568359375},"8":{"id":"3847102","label":"Departamento de Leales","value":"3847102","lat":-27.199999999999999289457264239899814128875732421875,"lon":-65.0833300000000036789060686714947223663330078125,"poi_name":"Departamento de Leales","parent_id":"3833578","long":-65.0833300000000036789060686714947223663330078125},"9":{"id":"8715306","label":"Departamento de Lules","value":"8715306","lat":-26.9288600000000002410160959698259830474853515625,"lon":-65.3384800000000041109160520136356353759765625,"poi_name":"Departamento de Lules","parent_id":"3833578","long":-65.3384800000000041109160520136356353759765625},"10":{"id":"3843802","label":"Departamento de Monteros","value":"3843802","lat":-27.166669999999999873807610129006206989288330078125,"lon":-65.5833300000000036789060686714947223663330078125,"poi_name":"Departamento de Monteros","parent_id":"3833578","long":-65.5833300000000036789060686714947223663330078125},"11":{"id":"3838893","label":"Departamento de R\u00edo Chico","value":"3838893","lat":-27.433679999999998955217961338348686695098876953125,"lon":-65.7667100000000033332980819977819919586181640625,"poi_name":"Departamento de R\u00edo Chico","parent_id":"3833578","long":-65.7667100000000033332980819977819919586181640625},"12":{"id":"8715303","label":"Departamento de Simoca","value":"8715303","lat":-27.263600000000000278532752417959272861480712890625,"lon":-65.356120000000004210960469208657741546630859375,"poi_name":"Departamento de Simoca","parent_id":"3833578","long":-65.356120000000004210960469208657741546630859375},"13":{"id":"8715304","label":"Departamento de Taf\u00ed Viejo","value":"8715304","lat":-26.7324100000000015597834135405719280242919921875,"lon":-65.2583599999999961482899379916489124298095703125,"poi_name":"Departamento de Taf\u00ed Viejo","parent_id":"3833578","long":-65.2583599999999961482899379916489124298095703125},"14":{"id":"8715301","label":"Departamento de Taf\u00ed del Valle","value":"8715301","lat":-26.852879999999998972270986996591091156005859375,"lon":-65.709509999999994533936842344701290130615234375,"poi_name":"Departamento de Taf\u00ed del Valle","parent_id":"3833578","long":-65.709509999999994533936842344701290130615234375},"15":{"id":"3833945","label":"Departamento de Trancas","value":"3833945","lat":-26.416669999999999873807610129006206989288330078125,"lon":-65.5,"poi_name":"Departamento de Trancas","parent_id":"3833578","long":-65.5},"16":{"id":"8715305","label":"Departamento de Yerba Buena","value":"8715305","lat":-26.818259999999998655084709753282368183135986328125,"lon":-65.317329999999998335624695755541324615478515625,"poi_name":"Departamento de Yerba Buena","parent_id":"3833578","long":-65.317329999999998335624695755541324615478515625}}