{"success":true,"remaining_lookups":9886,"0":{"id":"3864412","label":"Departamento de Belgrano","value":"3864412","lat":-32.5,"lon":-61.75,"poi_name":"Departamento de Belgrano","parent_id":"3836276","long":-61.75},"1":{"id":"3862359","label":"Departamento de Caseros","value":"3862359","lat":-33.25,"lon":-61.66667000000000342652128892950713634490966796875,"poi_name":"Departamento de Caseros","parent_id":"3836276","long":-61.66667000000000342652128892950713634490966796875},"2":{"id":"3862325","label":"Departamento de Castellanos","value":"3862325","lat":-31.166669999999999873807610129006206989288330078125,"lon":-61.66667000000000342652128892950713634490966796875,"poi_name":"Departamento de Castellanos","parent_id":"3836276","long":-61.66667000000000342652128892950713634490966796875},"3":{"id":"3860324","label":"Departamento de Constituci\u00f3n","value":"3860324","lat":-33.5,"lon":-60.91667000000000342652128892950713634490966796875,"poi_name":"Departamento de Constituci\u00f3n","parent_id":"3836276","long":-60.91667000000000342652128892950713634490966796875},"4":{"id":"3852292","label":"Departamento de La Capital","value":"3852292","lat":-31.5,"lon":-60.66667000000000342652128892950713634490966796875,"poi_name":"Departamento de La Capital","parent_id":"3836276","long":-60.66667000000000342652128892950713634490966796875},"5":{"id":"3842877","label":"Departamento de Nueve de Julio","value":"3842877","lat":-28.833330000000000126192389870993793010711669921875,"lon":-61.33332999999999657347871107049286365509033203125,"poi_name":"Departamento de Nueve de Julio","parent_id":"3836276","long":-61.33332999999999657347871107049286365509033203125},"6":{"id":"3837821","label":"Departamento de San Crist\u00f3bal","value":"3837821","lat":-30.333330000000000126192389870993793010711669921875,"lon":-61.33332999999999657347871107049286365509033203125,"poi_name":"Departamento de San Crist\u00f3bal","parent_id":"3836276","long":-61.33332999999999657347871107049286365509033203125},"7":{"id":"3428973","label":"Departamento de San Javier","value":"3428973","lat":-30.333330000000000126192389870993793010711669921875,"lon":-59.91667000000000342652128892950713634490966796875,"poi_name":"Departamento de San Javier","parent_id":"3836276","long":-59.91667000000000342652128892950713634490966796875},"8":{"id":"3837122","label":"Departamento de San Justo","value":"3837122","lat":-30.666669999999999873807610129006206989288330078125,"lon":-60.5,"poi_name":"Departamento de San Justo","parent_id":"3836276","long":-60.5},"9":{"id":"3837090","label":"Departamento de San Lorenzo","value":"3837090","lat":-33,"lon":-61,"poi_name":"Departamento de San Lorenzo","parent_id":"3836276","long":-61},"10":{"id":"3836984","label":"Departamento de San Mart\u00edn","value":"3836984","lat":-32,"lon":-61.83332999999999657347871107049286365509033203125,"poi_name":"Departamento de San Mart\u00edn","parent_id":"3836276","long":-61.83332999999999657347871107049286365509033203125},"11":{"id":"3833025","label":"Departamento de Vera","value":"3833025","lat":-29,"lon":-60.5,"poi_name":"Departamento de Vera","parent_id":"3836276","long":-60.5},"12":{"id":"3855221","label":"Garay Department","value":"3855221","lat":-31,"lon":-60.08332999999999657347871107049286365509033203125,"poi_name":"Garay Department","parent_id":"3836276","long":-60.08332999999999657347871107049286365509033203125},"13":{"id":"3855095","label":"General L\u00f3pez Department","value":"3855095","lat":-33.83332999999999657347871107049286365509033203125,"lon":-61.83332999999999657347871107049286365509033203125,"poi_name":"General L\u00f3pez Department","parent_id":"3836276","long":-61.83332999999999657347871107049286365509033203125},"14":{"id":"3433788","label":"General Obligado Department","value":"3433788","lat":-28.75,"lon":-59.75,"poi_name":"General Obligado Department","parent_id":"3836276","long":-59.75},"15":{"id":"3853705","label":"Iriondo Department","value":"3853705","lat":-32.6333300000000008367351256310939788818359375,"lon":-61.33332999999999657347871107049286365509033203125,"poi_name":"Iriondo Department","parent_id":"3836276","long":-61.33332999999999657347871107049286365509033203125},"16":{"id":"3848539","label":"Las Colonias Department","value":"3848539","lat":-31.5,"lon":-61.1333300000000008367351256310939788818359375,"poi_name":"Las Colonias Department","parent_id":"3836276","long":-61.1333300000000008367351256310939788818359375},"17":{"id":"3838574","label":"Rosario Department","value":"3838574","lat":-33.16667000000000342652128892950713634490966796875,"lon":-60.75,"poi_name":"Rosario Department","parent_id":"3836276","long":-60.75},"18":{"id":"3837460","label":"San Jer\u00f3nimo Department","value":"3837460","lat":-32.16667000000000342652128892950713634490966796875,"lon":-61.08332999999999657347871107049286365509033203125,"poi_name":"San Jer\u00f3nimo Department","parent_id":"3836276","long":-61.08332999999999657347871107049286365509033203125}}