{"success":true,"remaining_lookups":9889,"0":{"id":"3866424","label":"Departamento de Albard\u00f3n","value":"3866424","lat":-31.28332999999999941564965411089360713958740234375,"lon":-68.4166699999999963210939313285052776336669921875,"poi_name":"Departamento de Albard\u00f3n","parent_id":"3837152","long":-68.4166699999999963210939313285052776336669921875},"1":{"id":"3865769","label":"Departamento de Angaco","value":"3865769","lat":-31.199999999999999289457264239899814128875732421875,"lon":-68.1333300000000008367351256310939788818359375,"poi_name":"Departamento de Angaco","parent_id":"3837152","long":-68.1333300000000008367351256310939788818359375},"2":{"id":"3863361","label":"Departamento de Calingasta","value":"3863361","lat":-31.5,"lon":-69.75,"poi_name":"Departamento de Calingasta","parent_id":"3837152","long":-69.75},"3":{"id":"3862743","label":"Departamento de Capital","value":"3862743","lat":-31.53332999999999941564965411089360713958740234375,"lon":-68.533330000000006521077011711895465850830078125,"poi_name":"Departamento de Capital","parent_id":"3837152","long":-68.533330000000006521077011711895465850830078125},"4":{"id":"3862239","label":"Departamento de Caucete","value":"3862239","lat":-31.449999999999999289457264239899814128875732421875,"lon":-67.6666699999999963210939313285052776336669921875,"poi_name":"Departamento de Caucete","parent_id":"3837152","long":-67.6666699999999963210939313285052776336669921875},"5":{"id":"3861415","label":"Departamento de Chimbas","value":"3861415","lat":-31.487380000000001700755092315375804901123046875,"lon":-68.5269100000000008776623872108757495880126953125,"poi_name":"Departamento de Chimbas","parent_id":"3837152","long":-68.5269100000000008776623872108757495880126953125},"6":{"id":"3853914","label":"Departamento de Iglesia","value":"3853914","lat":-29.333330000000000126192389870993793010711669921875,"lon":-69.5833300000000036789060686714947223663330078125,"poi_name":"Departamento de Iglesia","parent_id":"3837152","long":-69.5833300000000036789060686714947223663330078125},"7":{"id":"3853596","label":"Departamento de J\u00e1chal","value":"3853596","lat":-30.5,"lon":-68.5,"poi_name":"Departamento de J\u00e1chal","parent_id":"3837152","long":-68.5},"8":{"id":"3842876","label":"Departamento de Nueve de Julio","value":"3842876","lat":-31.65071999999999974306774674914777278900146484375,"lon":-68.38925000000000409272615797817707061767578125,"poi_name":"Departamento de Nueve de Julio","parent_id":"3837152","long":-68.38925000000000409272615797817707061767578125},"9":{"id":"3840858","label":"Departamento de Pocito","value":"3840858","lat":-31.807120000000001169837560155428946018218994140625,"lon":-68.5853100000000068803274189122021198272705078125,"poi_name":"Departamento de Pocito","parent_id":"3837152","long":-68.5853100000000068803274189122021198272705078125},"10":{"id":"3839304","label":"Departamento de Rawson","value":"3839304","lat":-31.699999999999999289457264239899814128875732421875,"lon":-68.466669999999993478922988288104534149169921875,"poi_name":"Departamento de Rawson","parent_id":"3837152","long":-68.466669999999993478922988288104534149169921875},"11":{"id":"3838750","label":"Departamento de Rivadavia","value":"3838750","lat":-31.564499999999998891553332214243710041046142578125,"lon":-68.6521900000000044883563532494008541107177734375,"poi_name":"Departamento de Rivadavia","parent_id":"3837152","long":-68.6521900000000044883563532494008541107177734375},"12":{"id":"3836985","label":"Departamento de San Mart\u00edn","value":"3836985","lat":-31.5,"lon":-68.25,"poi_name":"Departamento de San Mart\u00edn","parent_id":"3837152","long":-68.25},"13":{"id":"3836188","label":"Departamento de Santa Luc\u00eda","value":"3836188","lat":-31.53332999999999941564965411089360713958740234375,"lon":-68.466669999999993478922988288104534149169921875,"poi_name":"Departamento de Santa Luc\u00eda","parent_id":"3837152","long":-68.466669999999993478922988288104534149169921875},"14":{"id":"3835706","label":"Departamento de Sarmiento","value":"3835706","lat":-32,"lon":-68.6666699999999963210939313285052776336669921875,"poi_name":"Departamento de Sarmiento","parent_id":"3837152","long":-68.6666699999999963210939313285052776336669921875},"15":{"id":"3833446","label":"Departamento de Ull\u00fam","value":"3833446","lat":-31,"lon":-68.9166699999999963210939313285052776336669921875,"poi_name":"Departamento de Ull\u00fam","parent_id":"3837152","long":-68.9166699999999963210939313285052776336669921875},"16":{"id":"3833221","label":"Departamento de Valle F\u00e9rtil","value":"3833221","lat":-30.583330000000000126192389870993793010711669921875,"lon":-67.5,"poi_name":"Departamento de Valle F\u00e9rtil","parent_id":"3837152","long":-67.5},"17":{"id":"3833107","label":"Departamento de Veinticinco de Mayo","value":"3833107","lat":-31.833330000000000126192389870993793010711669921875,"lon":-67.8333300000000036789060686714947223663330078125,"poi_name":"Departamento de Veinticinco de Mayo","parent_id":"3837152","long":-67.8333300000000036789060686714947223663330078125},"18":{"id":"3832079","label":"Departamento de Zonda","value":"3832079","lat":-31.68260000000000076170181273482739925384521484375,"lon":-68.8993799999999936289896140806376934051513671875,"poi_name":"Departamento de Zonda","parent_id":"3837152","long":-68.8993799999999936289896140806376934051513671875}}