{"success":true,"remaining_lookups":9888,"0":{"id":"3840260","label":"Coronel Pringles","value":"3840260","lat":-33.08332999999999657347871107049286365509033203125,"lon":-65.8333300000000036789060686714947223663330078125,"poi_name":"Coronel Pringles","parent_id":"3837029","long":-65.8333300000000036789060686714947223663330078125},"1":{"id":"3865174","label":"Departamento de Ayacucho","value":"3865174","lat":-32.16667000000000342652128892950713634490966796875,"lon":-66.5833300000000036789060686714947223663330078125,"poi_name":"Departamento de Ayacucho","parent_id":"3837029","long":-66.5833300000000036789060686714947223663330078125},"2":{"id":"3864411","label":"Departamento de Belgrano","value":"3864411","lat":-32.75,"lon":-66.75,"poi_name":"Departamento de Belgrano","parent_id":"3837029","long":-66.75},"3":{"id":"3861949","label":"Departamento de Chacabuco","value":"3861949","lat":-32.75,"lon":-65.25,"poi_name":"Departamento de Chacabuco","parent_id":"3837029","long":-65.25},"4":{"id":"3855076","label":"Departamento de General Pedernera","value":"3855076","lat":-33.83332999999999657347871107049286365509033203125,"lon":-65.5833300000000036789060686714947223663330078125,"poi_name":"Departamento de General Pedernera","parent_id":"3837029","long":-65.5833300000000036789060686714947223663330078125},"5":{"id":"3854968","label":"Departamento de Gobernador Vicente Dupuy","value":"3854968","lat":-35.33332999999999657347871107049286365509033203125,"lon":-65.8333300000000036789060686714947223663330078125,"poi_name":"Departamento de Gobernador Vicente Dupuy","parent_id":"3837029","long":-65.8333300000000036789060686714947223663330078125},"6":{"id":"3853353","label":"Departamento de Jun\u00edn","value":"3853353","lat":-32.25,"lon":-65.3333300000000036789060686714947223663330078125,"poi_name":"Departamento de Jun\u00edn","parent_id":"3837029","long":-65.3333300000000036789060686714947223663330078125},"7":{"id":"3836983","label":"Departamento de Libertador General San Mart\u00edn","value":"3836983","lat":-32.66667000000000342652128892950713634490966796875,"lon":-65.6666699999999963210939313285052776336669921875,"poi_name":"Departamento de Libertador General San Mart\u00edn","parent_id":"3837029","long":-65.6666699999999963210939313285052776336669921875},"8":{"id":"10231161","label":"Juan Mart\u00edn de Pueyrred\u00f3n","value":"10231161","lat":-33.2754400000000032378011383116245269775390625,"lon":-66.3201700000000045065462472848594188690185546875,"poi_name":"Juan Mart\u00edn de Pueyrred\u00f3n","parent_id":"3837029","long":-66.3201700000000045065462472848594188690185546875}}