{"success":true,"remaining_lookups":9901,"0":{"id":"3863430","label":"Departamento de Calamuchita","value":"3863430","lat":-32.25,"lon":-64.5833300000000036789060686714947223663330078125,"poi_name":"Departamento de Calamuchita","parent_id":"3860255","long":-64.5833300000000036789060686714947223663330078125},"1":{"id":"3862744","label":"Departamento de Capital","value":"3862744","lat":-31.416669999999999873807610129006206989288330078125,"lon":-64.2000000000000028421709430404007434844970703125,"poi_name":"Departamento de Capital","parent_id":"3860255","long":-64.2000000000000028421709430404007434844970703125},"2":{"id":"3860825","label":"Departamento de Col\u00f3n","value":"3860825","lat":-31.166669999999999873807610129006206989288330078125,"lon":-64.1666699999999963210939313285052776336669921875,"poi_name":"Departamento de Col\u00f3n","parent_id":"3860255","long":-64.1666699999999963210939313285052776336669921875},"3":{"id":"3859827","label":"Departamento de Cruz del Eje","value":"3859827","lat":-30.75,"lon":-65,"poi_name":"Departamento de Cruz del Eje","parent_id":"3860255","long":-65},"4":{"id":"3855062","label":"Departamento de General Roca","value":"3855062","lat":-34.66667000000000342652128892950713634490966796875,"lon":-64.25,"poi_name":"Departamento de General Roca","parent_id":"3860255","long":-64.25},"5":{"id":"3855053","label":"Departamento de General San Mart\u00edn","value":"3855053","lat":-32.5,"lon":-63.33332999999999657347871107049286365509033203125,"poi_name":"Departamento de General San Mart\u00edn","parent_id":"3860255","long":-63.33332999999999657347871107049286365509033203125},"6":{"id":"3853686","label":"Departamento de Ischil\u00edn","value":"3853686","lat":-30.5,"lon":-64.5833300000000036789060686714947223663330078125,"poi_name":"Departamento de Ischil\u00edn","parent_id":"3860255","long":-64.5833300000000036789060686714947223663330078125},"7":{"id":"3853410","label":"Departamento de Ju\u00e1rez Celman","value":"3853410","lat":-33.33332999999999657347871107049286365509033203125,"lon":-63.66667000000000342652128892950713634490966796875,"poi_name":"Departamento de Ju\u00e1rez Celman","parent_id":"3860255","long":-63.66667000000000342652128892950713634490966796875},"8":{"id":"3844898","label":"Departamento de Marcos Ju\u00e1rez","value":"3844898","lat":-33,"lon":-62.25,"poi_name":"Departamento de Marcos Ju\u00e1rez","parent_id":"3860255","long":-62.25},"9":{"id":"3844209","label":"Departamento de Minas","value":"3844209","lat":-31,"lon":-65.3333300000000036789060686714947223663330078125,"poi_name":"Departamento de Minas","parent_id":"3860255","long":-65.3333300000000036789060686714947223663330078125},"10":{"id":"3840865","label":"Departamento de Pocho","value":"3840865","lat":-31.5,"lon":-65.5,"poi_name":"Departamento de Pocho","parent_id":"3860255","long":-65.5},"11":{"id":"3840292","label":"Departamento de Presidente Roque S\u00e1enz Pe\u00f1a","value":"3840292","lat":-34.25,"lon":-63.5,"poi_name":"Departamento de Presidente Roque S\u00e1enz Pe\u00f1a","parent_id":"3860255","long":-63.5},"12":{"id":"3839996","label":"Departamento de Punilla","value":"3839996","lat":-31.166669999999999873807610129006206989288330078125,"lon":-64.6666699999999963210939313285052776336669921875,"poi_name":"Departamento de Punilla","parent_id":"3860255","long":-64.6666699999999963210939313285052776336669921875},"13":{"id":"3838873","label":"Departamento de R\u00edo Cuarto","value":"3838873","lat":-33.33332999999999657347871107049286365509033203125,"lon":-64.5,"poi_name":"Departamento de R\u00edo Cuarto","parent_id":"3860255","long":-64.5},"14":{"id":"3838822","label":"Departamento de R\u00edo Primero","value":"3838822","lat":-31.083330000000000126192389870993793010711669921875,"lon":-63.5,"poi_name":"Departamento de R\u00edo Primero","parent_id":"3860255","long":-63.5},"15":{"id":"3838801","label":"Departamento de R\u00edo Seco","value":"3838801","lat":-30.083330000000000126192389870993793010711669921875,"lon":-63,"poi_name":"Departamento de R\u00edo Seco","parent_id":"3860255","long":-63},"16":{"id":"3838796","label":"Departamento de R\u00edo Segundo","value":"3838796","lat":-31.75,"lon":-63.5,"poi_name":"Departamento de R\u00edo Segundo","parent_id":"3860255","long":-63.5},"17":{"id":"3838154","label":"Departamento de San Alberto","value":"3838154","lat":-31.75,"lon":-65.25,"poi_name":"Departamento de San Alberto","parent_id":"3860255","long":-65.25},"18":{"id":"3837475","label":"Departamento de San Javier","value":"3837475","lat":-32.08332999999999657347871107049286365509033203125,"lon":-65.1666699999999963210939313285052776336669921875,"poi_name":"Departamento de San Javier","parent_id":"3860255","long":-65.1666699999999963210939313285052776336669921875},"19":{"id":"3837121","label":"Departamento de San Justo","value":"3837121","lat":-31.333330000000000126192389870993793010711669921875,"lon":-62.66667000000000342652128892950713634490966796875,"poi_name":"Departamento de San Justo","parent_id":"3860255","long":-62.66667000000000342652128892950713634490966796875},"20":{"id":"3836128","label":"Departamento de Santa Mar\u00eda","value":"3836128","lat":-31.666669999999999873807610129006206989288330078125,"lon":-64.3333300000000036789060686714947223663330078125,"poi_name":"Departamento de Santa Mar\u00eda","parent_id":"3860255","long":-64.3333300000000036789060686714947223663330078125},"21":{"id":"3835180","label":"Departamento de Sobremonte","value":"3835180","lat":-29.666669999999999873807610129006206989288330078125,"lon":-64.0833300000000036789060686714947223663330078125,"poi_name":"Departamento de Sobremonte","parent_id":"3860255","long":-64.0833300000000036789060686714947223663330078125},"22":{"id":"3834506","label":"Departamento de Tercero Arriba","value":"3834506","lat":-32.33332999999999657347871107049286365509033203125,"lon":-63.75,"poi_name":"Departamento de Tercero Arriba","parent_id":"3860255","long":-63.75},"23":{"id":"3834008","label":"Departamento de Totoral","value":"3834008","lat":-30.833330000000000126192389870993793010711669921875,"lon":-63.91667000000000342652128892950713634490966796875,"poi_name":"Departamento de Totoral","parent_id":"3860255","long":-63.91667000000000342652128892950713634490966796875},"24":{"id":"3833554","label":"Departamento de Tulumba","value":"3833554","lat":-30.25,"lon":-63.91667000000000342652128892950713634490966796875,"poi_name":"Departamento de Tulumba","parent_id":"3860255","long":-63.91667000000000342652128892950713634490966796875},"25":{"id":"3833419","label":"Departamento de Uni\u00f3n","value":"3833419","lat":-32.83332999999999657347871107049286365509033203125,"lon":-62.75,"poi_name":"Departamento de Uni\u00f3n","parent_id":"3860255","long":-62.75}}