{"success":true,"remaining_lookups":9905,"0":{"id":"3861945","label":"Chacabuco","value":"3861945","lat":-27.141020000000001033413354889489710330963134765625,"lon":-61.31381999999999976580511429347097873687744140625,"poi_name":"Chacabuco","parent_id":"3861887","long":-61.31381999999999976580511429347097873687744140625},"1":{"id":"3866226","label":"Departamento de Almirante Brown","value":"3866226","lat":-25.81662000000000034560798667371273040771484375,"lon":-61.45575999999999794454197399318218231201171875,"poi_name":"Departamento de Almirante Brown","parent_id":"3861887","long":-61.45575999999999794454197399318218231201171875},"2":{"id":"3436037","label":"Departamento de Bermejo","value":"3436037","lat":-27,"lon":-58.66667000000000342652128892950713634490966796875,"poi_name":"Departamento de Bermejo","parent_id":"3861887","long":-58.66667000000000342652128892950713634490966796875},"3":{"id":"3860469","label":"Departamento de Comandante Fern\u00e1ndez","value":"3860469","lat":-26.833330000000000126192389870993793010711669921875,"lon":-60.5,"poi_name":"Departamento de Comandante Fern\u00e1ndez","parent_id":"3861887","long":-60.5},"4":{"id":"3859289","label":"Departamento de Doce de Octubre","value":"3859289","lat":-27.416669999999999873807610129006206989288330078125,"lon":-61.33332999999999657347871107049286365509033203125,"poi_name":"Departamento de Doce de Octubre","parent_id":"3861887","long":-61.33332999999999657347871107049286365509033203125},"5":{"id":"8715307","label":"Departamento de Dos de Abril","value":"8715307","lat":-27.609320000000000305817593471147119998931884765625,"lon":-61.344729999999998426574165932834148406982421875,"poi_name":"Departamento de Dos de Abril","parent_id":"3861887","long":-61.344729999999998426574165932834148406982421875},"6":{"id":"3855125","label":"Departamento de General Belgrano","value":"3855125","lat":-26.916669999999999873807610129006206989288330078125,"lon":-61,"poi_name":"Departamento de General Belgrano","parent_id":"3861887","long":-61},"7":{"id":"3433811","label":"Departamento de General Donovan","value":"3433811","lat":-27.166669999999999873807610129006206989288330078125,"lon":-59.33332999999999657347871107049286365509033203125,"poi_name":"Departamento de General Donovan","parent_id":"3861887","long":-59.33332999999999657347871107049286365509033203125},"8":{"id":"3855108","label":"Departamento de General G\u00fcemes","value":"3855108","lat":-25.166669999999999873807610129006206989288330078125,"lon":-61.41667000000000342652128892950713634490966796875,"poi_name":"Departamento de General G\u00fcemes","parent_id":"3861887","long":-61.41667000000000342652128892950713634490966796875},"9":{"id":"3853853","label":"Departamento de Independencia","value":"3853853","lat":-26.666669999999999873807610129006206989288330078125,"lon":-60.66667000000000342652128892950713634490966796875,"poi_name":"Departamento de Independencia","parent_id":"3861887","long":-60.66667000000000342652128892950713634490966796875},"10":{"id":"3431359","label":"Departamento de Libertad","value":"3431359","lat":-27.333330000000000126192389870993793010711669921875,"lon":-59.33332999999999657347871107049286365509033203125,"poi_name":"Departamento de Libertad","parent_id":"3861887","long":-59.33332999999999657347871107049286365509033203125},"11":{"id":"3431356","label":"Departamento de Libertador General San Mart\u00edn","value":"3431356","lat":-26.333330000000000126192389870993793010711669921875,"lon":-59.41667000000000342652128892950713634490966796875,"poi_name":"Departamento de Libertador General San Mart\u00edn","parent_id":"3861887","long":-59.41667000000000342652128892950713634490966796875},"12":{"id":"3845238","label":"Departamento de Maip\u00fa","value":"3845238","lat":-26.333330000000000126192389870993793010711669921875,"lon":-60.41667000000000342652128892950713634490966796875,"poi_name":"Departamento de Maip\u00fa","parent_id":"3861887","long":-60.41667000000000342652128892950713634490966796875},"13":{"id":"3844638","label":"Departamento de Mayor Luis J. Fontana","value":"3844638","lat":-27.75,"lon":-60.66667000000000342652128892950713634490966796875,"poi_name":"Departamento de Mayor Luis J. Fontana","parent_id":"3861887","long":-60.66667000000000342652128892950713634490966796875},"14":{"id":"3842872","label":"Departamento de Nueve de Julio","value":"3842872","lat":-26.953309999999998325392880360595881938934326171875,"lon":-61.2762699999999966848918120376765727996826171875,"poi_name":"Departamento de Nueve de Julio","parent_id":"3861887","long":-61.2762699999999966848918120376765727996826171875},"15":{"id":"3842751","label":"Departamento de O\u2019Higgins","value":"3842751","lat":-27.25,"lon":-60.66667000000000342652128892950713634490966796875,"poi_name":"Departamento de O\u2019Higgins","parent_id":"3861887","long":-60.66667000000000342652128892950713634490966796875},"16":{"id":"3429865","label":"Departamento de Presidencia de la Plaza","value":"3429865","lat":-27,"lon":-59.75,"poi_name":"Departamento de Presidencia de la Plaza","parent_id":"3861887","long":-59.75},"17":{"id":"3839489","label":"Departamento de Quitilipi","value":"3839489","lat":-26.666669999999999873807610129006206989288330078125,"lon":-60.16667000000000342652128892950713634490966796875,"poi_name":"Departamento de Quitilipi","parent_id":"3861887","long":-60.16667000000000342652128892950713634490966796875},"18":{"id":"3429089","label":"Departamento de San Fernando","value":"3429089","lat":-27.666669999999999873807610129006206989288330078125,"lon":-59.16667000000000342652128892950713634490966796875,"poi_name":"Departamento de San Fernando","parent_id":"3861887","long":-59.16667000000000342652128892950713634490966796875},"19":{"id":"3837081","label":"Departamento de San Lorenzo","value":"3837081","lat":-27.333330000000000126192389870993793010711669921875,"lon":-60.41667000000000342652128892950713634490966796875,"poi_name":"Departamento de San Lorenzo","parent_id":"3861887","long":-60.41667000000000342652128892950713634490966796875},"20":{"id":"3428032","label":"Departamento de Sargento Cabral","value":"3428032","lat":-26.833330000000000126192389870993793010711669921875,"lon":-59.5,"poi_name":"Departamento de Sargento Cabral","parent_id":"3861887","long":-59.5},"21":{"id":"3427822","label":"Departamento de Tapenag\u00e1","value":"3427822","lat":-27.5,"lon":-59.75,"poi_name":"Departamento de Tapenag\u00e1","parent_id":"3861887","long":-59.75},"22":{"id":"3429850","label":"Departamento del Primero de Mayo","value":"3429850","lat":-27.25,"lon":-58.91667000000000342652128892950713634490966796875,"poi_name":"Departamento del Primero de Mayo","parent_id":"3861887","long":-58.91667000000000342652128892950713634490966796875},"23":{"id":"3855371","label":"Fray Justo Santa Mar\u00eda de Oro","value":"3855371","lat":-27.833330000000000126192389870993793010711669921875,"lon":-61.25,"poi_name":"Fray Justo Santa Mar\u00eda de Oro","parent_id":"3861887","long":-61.25},"24":{"id":"3427532","label":"Veinticinco de Mayo","value":"3427532","lat":-26.786460000000001713260644464753568172454833984375,"lon":-59.97482000000000113004716695286333560943603515625,"poi_name":"Veinticinco de Mayo","parent_id":"3861887","long":-59.97482000000000113004716695286333560943603515625}}