{"success":true,"remaining_lookups":9188,"0":{"id":"2957763","label":"Altenburger Land","value":"2957763","lat":50.96000000000000085265128291212022304534912109375,"lon":12.4199900000000003075228960369713604450225830078125,"poi_name":"Altenburger Land","parent_id":"2822542","long":12.4199900000000003075228960369713604450225830078125},"1":{"id":"6547387","label":"Eichsfeld","value":"6547387","lat":51.37454000000000320369508699513971805572509765625,"lon":10.2154799999999994497557054273784160614013671875,"poi_name":"Eichsfeld","parent_id":"2822542","long":10.2154799999999994497557054273784160614013671875},"2":{"id":"6547386","label":"Eisenach","value":"6547386","lat":50.9744299999999981309883878566324710845947265625,"lon":10.334070000000000533191268914379179477691650390625,"poi_name":"Eisenach","parent_id":"2822542","long":10.334070000000000533191268914379179477691650390625},"3":{"id":"6547391","label":"Ilm-Kreis","value":"6547391","lat":50.7291799999999994952304405160248279571533203125,"lon":10.9612899999999999778310666442848742008209228515625,"poi_name":"Ilm-Kreis","parent_id":"2822542","long":10.9612899999999999778310666442848742008209228515625},"4":{"id":"2929668","label":"Kreisfreie Stadt Erfurt","value":"2929668","lat":50.98277999999999821056917426176369190216064453125,"lon":11.042500000000000426325641456060111522674560546875,"poi_name":"Kreisfreie Stadt Erfurt","parent_id":"2822542","long":11.042500000000000426325641456060111522674560546875},"5":{"id":"2921230","label":"Kreisfreie Stadt Gera","value":"2921230","lat":50.88555999999999812644091434776782989501953125,"lon":12.0805600000000001870148480520583689212799072265625,"poi_name":"Kreisfreie Stadt Gera","parent_id":"2822542","long":12.0805600000000001870148480520583689212799072265625},"6":{"id":"2895042","label":"Kreisfreie Stadt Jena","value":"2895042","lat":50.93193999999999732608557678759098052978515625,"lon":11.590559999999999973852027324028313159942626953125,"poi_name":"Kreisfreie Stadt Jena","parent_id":"2822542","long":11.590559999999999973852027324028313159942626953125},"7":{"id":"2824945","label":"Kreisfreie Stadt Suhl","value":"2824945","lat":50.6102800000000030422597774304449558258056640625,"lon":10.70721999999999951569407130591571331024169921875,"poi_name":"Kreisfreie Stadt Suhl","parent_id":"2822542","long":10.70721999999999951569407130591571331024169921875},"8":{"id":"2812479","label":"Kreisfreie Stadt Weimar","value":"2812479","lat":50.97361000000000075260686571709811687469482421875,"lon":11.3380600000000004712319423560984432697296142578125,"poi_name":"Kreisfreie Stadt Weimar","parent_id":"2822542","long":11.3380600000000004712319423560984432697296142578125},"9":{"id":"6547390","label":"Kyffh\u00e4userkreis","value":"6547390","lat":51.32473999999999847432263777591288089752197265625,"lon":10.9848400000000001597300069988705217838287353515625,"poi_name":"Kyffh\u00e4userkreis","parent_id":"2822542","long":10.9848400000000001597300069988705217838287353515625},"10":{"id":"2918750","label":"Landkreis Gotha","value":"2918750","lat":50.91055999999999670535544282756745815277099609375,"lon":10.7119400000000002393107934040017426013946533203125,"poi_name":"Landkreis Gotha","parent_id":"2822542","long":10.7119400000000002393107934040017426013946533203125},"11":{"id":"2917735","label":"Landkreis Greiz","value":"2917735","lat":50.71916999999999831061359145678579807281494140625,"lon":12.112500000000000710542735760100185871124267578125,"poi_name":"Landkreis Greiz","parent_id":"2822542","long":12.112500000000000710542735760100185871124267578125},"12":{"id":"2904803","label":"Landkreis Hildburghausen","value":"2904803","lat":50.44765000000000298996383207850158214569091796875,"lon":10.7335499999999992581933838664554059505462646484375,"poi_name":"Landkreis Hildburghausen","parent_id":"2822542","long":10.7335499999999992581933838664554059505462646484375},"13":{"id":"2861979","label":"Landkreis Nordhausen","value":"2861979","lat":51.5066699999999997316990629769861698150634765625,"lon":10.7519399999999993866595104918815195560455322265625,"poi_name":"Landkreis Nordhausen","parent_id":"2822542","long":10.7519399999999993866595104918815195560455322265625},"14":{"id":"3302169","label":"Landkreis Schmalkalden-Meiningen","value":"3302169","lat":50.6208299999999979945641825906932353973388671875,"lon":10.415279999999999205329004325903952121734619140625,"poi_name":"Landkreis Schmalkalden-Meiningen","parent_id":"2822542","long":10.415279999999999205329004325903952121734619140625},"15":{"id":"2831245","label":"Landkreis Sonneberg","value":"2831245","lat":50.4294399999999995998223312199115753173828125,"lon":11.147220000000000794670995674096047878265380859375,"poi_name":"Landkreis Sonneberg","parent_id":"2822542","long":11.147220000000000794670995674096047878265380859375},"16":{"id":"2831402","label":"Landkreis S\u00f6mmerda","value":"2831402","lat":51.17332999999999998408384271897375583648681640625,"lon":11.1772200000000001551825334900058805942535400390625,"poi_name":"Landkreis S\u00f6mmerda","parent_id":"2822542","long":11.1772200000000001551825334900058805942535400390625},"17":{"id":"6547393","label":"Saale-Holzland-Kreis","value":"6547393","lat":50.89226000000000027512214728631079196929931640625,"lon":11.72991999999999990222931955941021442413330078125,"poi_name":"Saale-Holzland-Kreis","parent_id":"2822542","long":11.72991999999999990222931955941021442413330078125},"18":{"id":"6547394","label":"Saale-Orla-Kreis","value":"6547394","lat":50.6245899999999977580955601297318935394287109375,"lon":11.7195300000000006690470399917103350162506103515625,"poi_name":"Saale-Orla-Kreis","parent_id":"2822542","long":11.7195300000000006690470399917103350162506103515625},"19":{"id":"6547392","label":"Saalfeld-Rudolstadt","value":"6547392","lat":50.6203100000000034697222872637212276458740234375,"lon":11.29035999999999972942532622255384922027587890625,"poi_name":"Saalfeld-Rudolstadt","parent_id":"2822542","long":11.29035999999999972942532622255384922027587890625},"20":{"id":"6547389","label":"Unstrut-Hainich-Kreis","value":"6547389","lat":51.182850000000001955413608811795711517333984375,"lon":10.5856200000000004735056791105307638645172119140625,"poi_name":"Unstrut-Hainich-Kreis","parent_id":"2822542","long":10.5856200000000004735056791105307638645172119140625},"21":{"id":"6547388","label":"Wartburgkreis","value":"6547388","lat":50.8517700000000019144863472320139408111572265625,"lon":10.18759000000000014551915228366851806640625,"poi_name":"Wartburgkreis","parent_id":"2822542","long":10.18759000000000014551915228366851806640625},"22":{"id":"2812480","label":"Weimarer Land","value":"2812480","lat":50.99051999999999651436155545525252819061279296875,"lon":11.4129500000000003723243935382924973964691162109375,"poi_name":"Weimarer Land","parent_id":"2822542","long":11.4129500000000003723243935382924973964691162109375}}