{"success":true,"remaining_lookups":9189,"0":{"id":"3249069","label":"Kreis Dithmarschen","value":"3249069","lat":54.1316699999999997316990629769861698150634765625,"lon":9.0555599999999998317434801720082759857177734375,"poi_name":"Kreis Dithmarschen","parent_id":"2838632","long":9.0555599999999998317434801720082759857177734375},"1":{"id":"2905434","label":"Kreis Herzogtum Lauenburg","value":"2905434","lat":53.6075000000000017053025658242404460906982421875,"lon":10.625,"poi_name":"Kreis Herzogtum Lauenburg","parent_id":"2838632","long":10.625},"2":{"id":"3249073","label":"Kreis Nordfriesland","value":"3249073","lat":54.5838899999999966894392855465412139892578125,"lon":8.9674999999999993605115378159098327159881591796875,"poi_name":"Kreis Nordfriesland","parent_id":"2838632","long":8.9674999999999993605115378159098327159881591796875},"3":{"id":"3249074","label":"Kreis Ostholstein","value":"3249074","lat":54.16111000000000075260686571709811687469482421875,"lon":10.76971999999999951569407130591571331024169921875,"poi_name":"Kreis Ostholstein","parent_id":"2838632","long":10.76971999999999951569407130591571331024169921875},"4":{"id":"2853657","label":"Kreis Pinneberg","value":"2853657","lat":53.73443999999999931560523691587150096893310546875,"lon":9.757220000000000226236807066015899181365966796875,"poi_name":"Kreis Pinneberg","parent_id":"2838632","long":9.757220000000000226236807066015899181365966796875},"5":{"id":"2853161","label":"Kreis Pl\u00f6n","value":"2853161","lat":54.233609999999998763087205588817596435546875,"lon":10.3697199999999991604227034258656203746795654296875,"poi_name":"Kreis Pl\u00f6n","parent_id":"2838632","long":10.3697199999999991604227034258656203746795654296875},"6":{"id":"3249075","label":"Kreis Rendsburg-Eckernf\u00f6rde","value":"3249075","lat":54.3222200000000015052137314341962337493896484375,"lon":9.7608300000000003393552105990238487720489501953125,"poi_name":"Kreis Rendsburg-Eckernf\u00f6rde","parent_id":"2838632","long":9.7608300000000003393552105990238487720489501953125},"7":{"id":"2838633","label":"Kreis Schleswig-Flensburg","value":"2838633","lat":54.57777999999999707370079704560339450836181640625,"lon":9.4691700000000000869704308570362627506256103515625,"poi_name":"Kreis Schleswig-Flensburg","parent_id":"2838632","long":9.4691700000000000869704308570362627506256103515625},"8":{"id":"3249076","label":"Kreis Segeberg","value":"3249076","lat":53.95472000000000178943082573823630809783935546875,"lon":10.187219999999999942019712761975824832916259765625,"poi_name":"Kreis Segeberg","parent_id":"2838632","long":10.187219999999999942019712761975824832916259765625},"9":{"id":"3249077","label":"Kreis Steinburg","value":"3249077","lat":53.9330599999999975580067257396876811981201171875,"lon":9.5036100000000001131184035330079495906829833984375,"poi_name":"Kreis Steinburg","parent_id":"2838632","long":9.5036100000000001131184035330079495906829833984375},"10":{"id":"3249078","label":"Kreis Stormarn","value":"3249078","lat":53.7647199999999969577402225695550441741943359375,"lon":10.3311100000000006815525921410880982875823974609375,"poi_name":"Kreis Stormarn","parent_id":"2838632","long":10.3311100000000006815525921410880982875823974609375},"11":{"id":"2926272","label":"Kreisfreie Stadt Flensburg","value":"2926272","lat":54.7947199999999980946085997857153415679931640625,"lon":9.4338899999999998868815964669920504093170166015625,"poi_name":"Kreisfreie Stadt Flensburg","parent_id":"2838632","long":9.4338899999999998868815964669920504093170166015625},"12":{"id":"3249070","label":"Kreisfreie Stadt Kiel","value":"3249070","lat":54.3219399999999978945197653956711292266845703125,"lon":10.1341699999999992343191479449160397052764892578125,"poi_name":"Kreisfreie Stadt Kiel","parent_id":"2838632","long":10.1341699999999992343191479449160397052764892578125},"13":{"id":"3249071","label":"Kreisfreie Stadt L\u00fcbeck","value":"3249071","lat":53.89332999999999884721546550281345844268798828125,"lon":10.743610000000000326281224261038005352020263671875,"poi_name":"Kreisfreie Stadt L\u00fcbeck","parent_id":"2838632","long":10.743610000000000326281224261038005352020263671875},"14":{"id":"3249072","label":"Kreisfreie Stadt Neum\u00fcnster","value":"3249072","lat":54.0938900000000018053469830192625522613525390625,"lon":9.9894400000000000972022462519817054271697998046875,"poi_name":"Kreisfreie Stadt Neum\u00fcnster","parent_id":"2838632","long":9.9894400000000000972022462519817054271697998046875}}