{"success":true,"remaining_lookups":9192,"0":{"id":"2871673","label":"Landkreis Merzig-Wadern","value":"2871673","lat":49.4772200000000026420821086503565311431884765625,"lon":6.67555999999999993832489053602330386638641357421875,"poi_name":"Landkreis Merzig-Wadern","parent_id":"2842635","long":6.67555999999999993832489053602330386638641357421875},"1":{"id":"3249066","label":"Landkreis Neunkirchen","value":"3249066","lat":49.3794400000000024419932742603123188018798828125,"lon":7.13056000000000000937916411203332245349884033203125,"poi_name":"Landkreis Neunkirchen","parent_id":"2842635","long":7.13056000000000000937916411203332245349884033203125},"2":{"id":"3249065","label":"Landkreis Saarlouis","value":"3249065","lat":49.3386100000000027421265258453786373138427734375,"lon":6.78943999999999991956656231195665895938873291015625,"poi_name":"Landkreis Saarlouis","parent_id":"2842635","long":6.78943999999999991956656231195665895938873291015625},"3":{"id":"2841464","label":"Landkreis Sankt Wendel","value":"2841464","lat":49.5177800000000019053914002142846584320068359375,"lon":7.11943999999999999062083588796667754650115966796875,"poi_name":"Landkreis Sankt Wendel","parent_id":"2842635","long":7.11943999999999999062083588796667754650115966796875},"4":{"id":"3249068","label":"Regionalverband Saarbr\u00fccken","value":"3249068","lat":49.27721999999999979991116560995578765869140625,"lon":6.97027999999999980929032972198911011219024658203125,"poi_name":"Regionalverband Saarbr\u00fccken","parent_id":"2842635","long":6.97027999999999980929032972198911011219024658203125},"5":{"id":"3249067","label":"Saarpfalz-Kreis","value":"3249067","lat":49.27000000000000312638803734444081783294677734375,"lon":7.24777999999999966718178256996907293796539306640625,"poi_name":"Saarpfalz-Kreis","parent_id":"2842635","long":7.24777999999999966718178256996907293796539306640625}}