{"success":true,"remaining_lookups":9193,"0":{"id":"2936213","label":"Donnersbergkreis","value":"2936213","lat":49.6344399999999978945197653956711292266845703125,"lon":7.91638999999999981582732289098203182220458984375,"poi_name":"Donnersbergkreis","parent_id":"2847618","long":7.91638999999999981582732289098203182220458984375},"1":{"id":"3247913","label":"Eifelkreis Bitburg-Pr\u00fcm","value":"3247913","lat":50.07583000000000339468897436745464801788330078125,"lon":6.37999999999999989341858963598497211933135986328125,"poi_name":"Eifelkreis Bitburg-Pr\u00fcm","parent_id":"2847618","long":6.37999999999999989341858963598497211933135986328125},"2":{"id":"2925546","label":"Kreisfreie Stadt Frankenthal (Pfalz)","value":"2925546","lat":49.54361000000000103682396002113819122314453125,"lon":8.3638899999999996026645021629519760608673095703125,"poi_name":"Kreisfreie Stadt Frankenthal (Pfalz)","parent_id":"2847618","long":8.3638899999999996026645021629519760608673095703125},"3":{"id":"3247900","label":"Kreisfreie Stadt Kaiserslautern","value":"3247900","lat":49.43999999999999772626324556767940521240234375,"lon":7.7602799999999998448174665099941194057464599609375,"poi_name":"Kreisfreie Stadt Kaiserslautern","parent_id":"2847618","long":7.7602799999999998448174665099941194057464599609375},"4":{"id":"3247459","label":"Kreisfreie Stadt Koblenz","value":"3247459","lat":50.35806000000000182126314030028879642486572265625,"lon":7.59471999999999969332975524594075977802276611328125,"poi_name":"Kreisfreie Stadt Koblenz","parent_id":"2847618","long":7.59471999999999969332975524594075977802276611328125},"5":{"id":"3247905","label":"Kreisfreie Stadt Landau in der Pfalz","value":"3247905","lat":49.2022199999999969577402225695550441741943359375,"lon":8.1274999999999995026200849679298698902130126953125,"poi_name":"Kreisfreie Stadt Landau in der Pfalz","parent_id":"2847618","long":8.1274999999999995026200849679298698902130126953125},"6":{"id":"3247910","label":"Kreisfreie Stadt Ludwigshafen am Rhein","value":"3247910","lat":49.478059999999999263309291563928127288818359375,"lon":8.3908299999999993445953805348835885524749755859375,"poi_name":"Kreisfreie Stadt Ludwigshafen am Rhein","parent_id":"2847618","long":8.3908299999999993445953805348835885524749755859375},"7":{"id":"3247465","label":"Kreisfreie Stadt Mainz","value":"3247465","lat":49.9916699999999991632648743689060211181640625,"lon":8.2536100000000001131184035330079495906829833984375,"poi_name":"Kreisfreie Stadt Mainz","parent_id":"2847618","long":8.2536100000000001131184035330079495906829833984375},"8":{"id":"3247906","label":"Kreisfreie Stadt Neustadt an der Weinstra\u00dfe","value":"3247906","lat":49.3488200000000034606273402459919452667236328125,"lon":8.165169999999999816964191268198192119598388671875,"poi_name":"Kreisfreie Stadt Neustadt an der Weinstra\u00dfe","parent_id":"2847618","long":8.165169999999999816964191268198192119598388671875},"9":{"id":"3247903","label":"Kreisfreie Stadt Pirmasens","value":"3247903","lat":49.20971999999999724195731687359511852264404296875,"lon":7.6047200000000003683453542180359363555908203125,"poi_name":"Kreisfreie Stadt Pirmasens","parent_id":"2847618","long":7.6047200000000003683453542180359363555908203125},"10":{"id":"3247908","label":"Kreisfreie Stadt Speyer","value":"3247908","lat":49.323610000000002173692337237298488616943359375,"lon":8.4286100000000008236611392931081354618072509765625,"poi_name":"Kreisfreie Stadt Speyer","parent_id":"2847618","long":8.4286100000000008236611392931081354618072509765625},"11":{"id":"3247911","label":"Kreisfreie Stadt Trier","value":"3247911","lat":49.769170000000002573870006017386913299560546875,"lon":6.67499999999999982236431605997495353221893310546875,"poi_name":"Kreisfreie Stadt Trier","parent_id":"2847618","long":6.67499999999999982236431605997495353221893310546875},"12":{"id":"3247467","label":"Kreisfreie Stadt Worms","value":"3247467","lat":49.663060000000001537046045996248722076416015625,"lon":8.3358299999999996288124748389236629009246826171875,"poi_name":"Kreisfreie Stadt Worms","parent_id":"2847618","long":8.3358299999999996288124748389236629009246826171875},"13":{"id":"3247902","label":"Kreisfreie Stadt Zweibr\u00fccken","value":"3247902","lat":49.2580600000000004001776687800884246826171875,"lon":7.37943999999999977745801515993662178516387939453125,"poi_name":"Kreisfreie Stadt Zweibr\u00fccken","parent_id":"2847618","long":7.37943999999999977745801515993662178516387939453125},"14":{"id":"3247460","label":"Landkreis Ahrweiler","value":"3247460","lat":50.4772200000000026420821086503565311431884765625,"lon":7.049170000000000158024704433046281337738037109375,"poi_name":"Landkreis Ahrweiler","parent_id":"2847618","long":7.049170000000000158024704433046281337738037109375},"15":{"id":"3247456","label":"Landkreis Altenkirchen","value":"3247456","lat":50.77917000000000058435034588910639286041259765625,"lon":7.75,"poi_name":"Landkreis Altenkirchen","parent_id":"2847618","long":7.75},"16":{"id":"2956708","label":"Landkreis Alzey-Worms","value":"2956708","lat":49.74943999999999988403942552395164966583251953125,"lon":8.1500000000000003552713678800500929355621337890625,"poi_name":"Landkreis Alzey-Worms","parent_id":"2847618","long":8.1500000000000003552713678800500929355621337890625},"17":{"id":"2953523","label":"Landkreis Bad D\u00fcrkheim","value":"2953523","lat":49.49916999999999944748196867294609546661376953125,"lon":8.152499999999999857891452847979962825775146484375,"poi_name":"Landkreis Bad D\u00fcrkheim","parent_id":"2847618","long":8.152499999999999857891452847979962825775146484375},"18":{"id":"2953415","label":"Landkreis Bad Kreuznach","value":"2953415","lat":49.82388999999999867895894567482173442840576171875,"lon":7.6983300000000003393552105990238487720489501953125,"poi_name":"Landkreis Bad Kreuznach","parent_id":"2847618","long":7.6983300000000003393552105990238487720489501953125},"19":{"id":"3247912","label":"Landkreis Bernkastel-Wittlich","value":"3247912","lat":49.94306000000000267391442321240901947021484375,"lon":6.98083000000000009066525308298878371715545654296875,"poi_name":"Landkreis Bernkastel-Wittlich","parent_id":"2847618","long":6.98083000000000009066525308298878371715545654296875},"20":{"id":"2948589","label":"Landkreis Birkenfeld","value":"2948589","lat":49.71943999999999874717104830779135227203369140625,"lon":7.2813900000000000289901436190120875835418701171875,"poi_name":"Landkreis Birkenfeld","parent_id":"2847618","long":7.2813900000000000289901436190120875835418701171875},"21":{"id":"3247464","label":"Landkreis Cochem-Zell","value":"3247464","lat":50.14611000000000018417267710901796817779541015625,"lon":7.17917000000000005144329406903125345706939697265625,"poi_name":"Landkreis Cochem-Zell","parent_id":"2847618","long":7.17917000000000005144329406903125345706939697265625},"22":{"id":"3247907","label":"Landkreis Germersheim","value":"3247907","lat":49.14332999999999884721546550281345844268798828125,"lon":8.298890000000000100044417195022106170654296875,"poi_name":"Landkreis Germersheim","parent_id":"2847618","long":8.298890000000000100044417195022106170654296875},"23":{"id":"2894002","label":"Landkreis Kaiserslautern","value":"2894002","lat":49.45649999999999835154085303656756877899169921875,"lon":7.6725300000000000721911419532261788845062255859375,"poi_name":"Landkreis Kaiserslautern","parent_id":"2847618","long":7.6725300000000000721911419532261788845062255859375},"24":{"id":"3247901","label":"Landkreis Kusel","value":"3247901","lat":49.57110999999999734200173406861722469329833984375,"lon":7.49917000000000033566038837307132780551910400390625,"poi_name":"Landkreis Kusel","parent_id":"2847618","long":7.49917000000000033566038837307132780551910400390625},"25":{"id":"3247466","label":"Landkreis Mainz-Bingen","value":"3247466","lat":49.9375,"lon":8.1136099999999995446842149249278008937835693359375,"poi_name":"Landkreis Mainz-Bingen","parent_id":"2847618","long":8.1136099999999995446842149249278008937835693359375},"26":{"id":"3247461","label":"Landkreis Mayen-Koblenz","value":"3247461","lat":50.33332999999999657347871107049286365509033203125,"lon":7.31721999999999983543830239796079695224761962890625,"poi_name":"Landkreis Mayen-Koblenz","parent_id":"2847618","long":7.31721999999999983543830239796079695224761962890625},"27":{"id":"3247458","label":"Landkreis Neuwied","value":"3247458","lat":50.5394399999999990313881426118314266204833984375,"lon":7.47806000000000015148771126405335962772369384765625,"poi_name":"Landkreis Neuwied","parent_id":"2847618","long":7.47806000000000015148771126405335962772369384765625},"28":{"id":"2825001","label":"Landkreis S\u00fcdliche Weinstra\u00dfe","value":"2825001","lat":49.2174600000000026511770556680858135223388671875,"lon":8.0475200000000004507683115662075579166412353515625,"poi_name":"Landkreis S\u00fcdliche Weinstra\u00dfe","parent_id":"2847618","long":8.0475200000000004507683115662075579166412353515625},"29":{"id":"2821160","label":"Landkreis Trier-Saarburg","value":"2821160","lat":49.70721999999999951569407130591571331024169921875,"lon":6.71971999999999969332975524594075977802276611328125,"poi_name":"Landkreis Trier-Saarburg","parent_id":"2847618","long":6.71971999999999969332975524594075977802276611328125},"30":{"id":"3247463","label":"Rhein-Hunsr\u00fcck-Kreis","value":"3247463","lat":50.067779999999999063220457173883914947509765625,"lon":7.54666999999999976722619976499117910861968994140625,"poi_name":"Rhein-Hunsr\u00fcck-Kreis","parent_id":"2847618","long":7.54666999999999976722619976499117910861968994140625},"31":{"id":"3247462","label":"Rhein-Lahn-Kreis","value":"3247462","lat":50.26888999999999896317603997886180877685546875,"lon":7.86582999999999987750243235495872795581817626953125,"poi_name":"Rhein-Lahn-Kreis","parent_id":"2847618","long":7.86582999999999987750243235495872795581817626953125},"32":{"id":"3247909","label":"Rhein-Pfalz-Kreis","value":"3247909","lat":49.42750000000000198951966012828052043914794921875,"lon":8.3436099999999999710098563809879124164581298828125,"poi_name":"Rhein-Pfalz-Kreis","parent_id":"2847618","long":8.3436099999999999710098563809879124164581298828125},"33":{"id":"3247904","label":"S\u00fcdwestpfalz","value":"3247904","lat":49.2272200000000026420821086503565311431884765625,"lon":7.6794399999999995998223312199115753173828125,"poi_name":"S\u00fcdwestpfalz","parent_id":"2847618","long":7.6794399999999995998223312199115753173828125},"34":{"id":"3247914","label":"Vulkaneifel","value":"3247914","lat":50.25249999999999772626324556767940521240234375,"lon":6.74805999999999972516206980799324810504913330078125,"poi_name":"Vulkaneifel","parent_id":"2847618","long":6.74805999999999972516206980799324810504913330078125},"35":{"id":"3247457","label":"Westerwaldkreis","value":"3247457","lat":50.52221999999999724195731687359511852264404296875,"lon":7.87028000000000016456169760203920304775238037109375,"poi_name":"Westerwaldkreis","parent_id":"2847618","long":7.87028000000000016456169760203920304775238037109375}}