{"success":true,"remaining_lookups":9196,"0":{"id":"3221011","label":"Kreisfreie Stadt Braunschweig","value":"3221011","lat":52.28528000000000020008883439004421234130859375,"lon":10.53528000000000020008883439004421234130859375,"poi_name":"Kreisfreie Stadt Braunschweig","parent_id":"2862926","long":10.53528000000000020008883439004421234130859375},"1":{"id":"3221066","label":"Kreisfreie Stadt Delmenhorst","value":"3221066","lat":53.06499999999999772626324556767940521240234375,"lon":8.665279999999999205329004325903952121734619140625,"poi_name":"Kreisfreie Stadt Delmenhorst","parent_id":"2862926","long":8.665279999999999205329004325903952121734619140625},"2":{"id":"3221070","label":"Kreisfreie Stadt Emden","value":"3221070","lat":53.3624999999999971578290569595992565155029296875,"lon":7.1836099999999998289013092289678752422332763671875,"poi_name":"Kreisfreie Stadt Emden","parent_id":"2862926","long":7.1836099999999998289013092289678752422332763671875},"3":{"id":"3221095","label":"Kreisfreie Stadt Oldenburg","value":"3221095","lat":53.155000000000001136868377216160297393798828125,"lon":8.235279999999999489546098629944026470184326171875,"poi_name":"Kreisfreie Stadt Oldenburg","parent_id":"2862926","long":8.235279999999999489546098629944026470184326171875},"4":{"id":"3221096","label":"Kreisfreie Stadt Osnabr\u00fcck","value":"3221096","lat":52.2897200000000026420821086503565311431884765625,"lon":8.049440000000000594582161284051835536956787109375,"poi_name":"Kreisfreie Stadt Osnabr\u00fcck","parent_id":"2862926","long":8.049440000000000594582161284051835536956787109375},"5":{"id":"3221018","label":"Kreisfreie Stadt Salzgitter","value":"3221018","lat":52.141390000000001236912794411182403564453125,"lon":10.3830600000000004001776687800884246826171875,"poi_name":"Kreisfreie Stadt Salzgitter","parent_id":"2862926","long":10.3830600000000004001776687800884246826171875},"6":{"id":"3221100","label":"Kreisfreie Stadt Wilhelmshaven","value":"3221100","lat":53.570279999999996789483702741563320159912109375,"lon":8.084170000000000300133251585066318511962890625,"poi_name":"Kreisfreie Stadt Wilhelmshaven","parent_id":"2862926","long":8.084170000000000300133251585066318511962890625},"7":{"id":"3221023","label":"Kreisfreie Stadt Wolfsburg","value":"3221023","lat":52.4294399999999995998223312199115753173828125,"lon":10.7952799999999999869260136620141565799713134765625,"poi_name":"Kreisfreie Stadt Wolfsburg","parent_id":"2862926","long":10.7952799999999999869260136620141565799713134765625},"8":{"id":"3221058","label":"Landkreis Ammerland","value":"3221058","lat":53.2325000000000017053025658242404460906982421875,"lon":8.021670000000000300133251585066318511962890625,"poi_name":"Landkreis Ammerland","parent_id":"2862926","long":8.021670000000000300133251585066318511962890625},"9":{"id":"3221059","label":"Landkreis Aurich","value":"3221059","lat":53.492220000000003210516297258436679840087890625,"lon":7.31388999999999978030018610297702252864837646484375,"poi_name":"Landkreis Aurich","parent_id":"2862926","long":7.31388999999999978030018610297702252864837646484375},"10":{"id":"2940212","label":"Landkreis Celle","value":"2940212","lat":52.747219999999998663042788393795490264892578125,"lon":10.1161100000000008236611392931081354618072509765625,"poi_name":"Landkreis Celle","parent_id":"2862926","long":10.1161100000000008236611392931081354618072509765625},"11":{"id":"3221064","label":"Landkreis Cloppenburg","value":"3221064","lat":52.90861000000000302634362014941871166229248046875,"lon":7.986390000000000100044417195022106170654296875,"poi_name":"Landkreis Cloppenburg","parent_id":"2862926","long":7.986390000000000100044417195022106170654296875},"12":{"id":"2939657","label":"Landkreis Cuxhaven","value":"2939657","lat":53.60278000000000275804268312640488147735595703125,"lon":8.8494399999999995287680576439015567302703857421875,"poi_name":"Landkreis Cuxhaven","parent_id":"2862926","long":8.8494399999999995287680576439015567302703857421875},"13":{"id":"3221024","label":"Landkreis Diepholz","value":"3221024","lat":52.74916999999999944748196867294609546661376953125,"lon":8.7341700000000006554046194651164114475250244140625,"poi_name":"Landkreis Diepholz","parent_id":"2862926","long":8.7341700000000006554046194651164114475250244140625},"14":{"id":"3221073","label":"Landkreis Emsland","value":"3221073","lat":52.7461100000000016052581486292183399200439453125,"lon":7.395830000000000126192389870993793010711669921875,"poi_name":"Landkreis Emsland","parent_id":"2862926","long":7.395830000000000126192389870993793010711669921875},"15":{"id":"2924362","label":"Landkreis Friesland","value":"2924362","lat":53.50027999999999650526660843752324581146240234375,"lon":8.006389999999999673718775738961994647979736328125,"poi_name":"Landkreis Friesland","parent_id":"2862926","long":8.006389999999999673718775738961994647979736328125},"16":{"id":"2920479","label":"Landkreis Gifhorn","value":"2920479","lat":52.590000000000003410605131648480892181396484375,"lon":10.630559999999999121200744411908090114593505859375,"poi_name":"Landkreis Gifhorn","parent_id":"2862926","long":10.630559999999999121200744411908090114593505859375},"17":{"id":"3221012","label":"Landkreis Goslar","value":"3221012","lat":51.90972000000000008412825991399586200714111328125,"lon":10.418060000000000542286215932108461856842041015625,"poi_name":"Landkreis Goslar","parent_id":"2862926","long":10.418060000000000542286215932108461856842041015625},"18":{"id":"3221075","label":"Landkreis Grafschaft Bentheim","value":"3221075","lat":52.519170000000002573870006017386913299560546875,"lon":7.06777999999999995139887687400914728641510009765625,"poi_name":"Landkreis Grafschaft Bentheim","parent_id":"2862926","long":7.06777999999999995139887687400914728641510009765625},"19":{"id":"3221013","label":"Landkreis G\u00f6ttingen","value":"3221013","lat":51.51082999999999856299837119877338409423828125,"lon":9.9136100000000002552269506850279867649078369140625,"poi_name":"Landkreis G\u00f6ttingen","parent_id":"2862926","long":9.9136100000000002552269506850279867649078369140625},"20":{"id":"3221027","label":"Landkreis Hameln-Pyrmont","value":"3221027","lat":52.11110999999999648935045115649700164794921875,"lon":9.401109999999999189412847044877707958221435546875,"poi_name":"Landkreis Hameln-Pyrmont","parent_id":"2862926","long":9.401109999999999189412847044877707958221435546875},"21":{"id":"2910684","label":"Landkreis Harburg","value":"2910684","lat":53.328609999999997626218828372657299041748046875,"lon":9.9697200000000005815081749460659921169281005859375,"poi_name":"Landkreis Harburg","parent_id":"2862926","long":9.9697200000000005815081749460659921169281005859375},"22":{"id":"2831482","label":"Landkreis Heidekreis","value":"2831482","lat":52.93777999999999650526660843752324581146240234375,"lon":9.770830000000000126192389870993793010711669921875,"poi_name":"Landkreis Heidekreis","parent_id":"2862926","long":9.770830000000000126192389870993793010711669921875},"23":{"id":"3221014","label":"Landkreis Helmstedt","value":"3221014","lat":52.27806000000000352656570612452924251556396484375,"lon":10.90832999999999941564965411089360713958740234375,"poi_name":"Landkreis Helmstedt","parent_id":"2862926","long":10.90832999999999941564965411089360713958740234375},"24":{"id":"2803461","label":"Landkreis Hildesheim","value":"2803461","lat":52.12666999999999717374521424062550067901611328125,"lon":9.964999999999999857891452847979962825775146484375,"poi_name":"Landkreis Hildesheim","parent_id":"2862926","long":9.964999999999999857891452847979962825775146484375},"25":{"id":"3221036","label":"Landkreis Holzminden","value":"3221036","lat":51.8983300000000014051693142391741275787353515625,"lon":9.5816700000000007975131666171364486217498779296875,"poi_name":"Landkreis Holzminden","parent_id":"2862926","long":9.5816700000000007975131666171364486217498779296875},"26":{"id":"3221094","label":"Landkreis Leer","value":"3221094","lat":53.24694000000000215777617995627224445343017578125,"lon":7.47111000000000036180836104904301464557647705078125,"poi_name":"Landkreis Leer","parent_id":"2862926","long":7.47111000000000036180836104904301464557647705078125},"27":{"id":"3221038","label":"Landkreis L\u00fcchow-Dannenberg","value":"3221038","lat":53.03222000000000235786501434631645679473876953125,"lon":11.14611000000000018417267710901796817779541015625,"poi_name":"Landkreis L\u00fcchow-Dannenberg","parent_id":"2862926","long":11.14611000000000018417267710901796817779541015625},"28":{"id":"3221040","label":"Landkreis L\u00fcneburg","value":"3221040","lat":53.29388999999999754209056845866143703460693359375,"lon":10.5661100000000001131184035330079495906829833984375,"poi_name":"Landkreis L\u00fcneburg","parent_id":"2862926","long":10.5661100000000001131184035330079495906829833984375},"29":{"id":"2862622","label":"Landkreis Nienburg\/Weser","value":"2862622","lat":52.65277999999999991587174008600413799285888671875,"lon":9.166940000000000310365066980011761188507080078125,"poi_name":"Landkreis Nienburg\/Weser","parent_id":"2862926","long":9.166940000000000310365066980011761188507080078125},"30":{"id":"3221015","label":"Landkreis Northeim","value":"3221015","lat":51.75361000000000188947524293325841426849365234375,"lon":9.880829999999999557758201262913644313812255859375,"poi_name":"Landkreis Northeim","parent_id":"2862926","long":9.880829999999999557758201262913644313812255859375},"31":{"id":"2857455","label":"Landkreis Oldenburg","value":"2857455","lat":53.03721999999999781039150548167526721954345703125,"lon":8.3599999999999994315658113919198513031005859375,"poi_name":"Landkreis Oldenburg","parent_id":"2862926","long":8.3599999999999994315658113919198513031005859375},"32":{"id":"3221098","label":"Landkreis Osnabr\u00fcck","value":"3221098","lat":52.41250000000000142108547152020037174224853515625,"lon":8.047219999999999373585524153895676136016845703125,"poi_name":"Landkreis Osnabr\u00fcck","parent_id":"2862926","long":8.047219999999999373585524153895676136016845703125},"33":{"id":"3221042","label":"Landkreis Osterholz","value":"3221042","lat":53.26389000000000351064954884350299835205078125,"lon":8.8238900000000004553157850750721991062164306640625,"poi_name":"Landkreis Osterholz","parent_id":"2862926","long":8.8238900000000004553157850750721991062164306640625},"34":{"id":"3221016","label":"Landkreis Osterode am Harz","value":"3221016","lat":51.67443999999999704186848248355090618133544921875,"lon":10.3802800000000008395772965741343796253204345703125,"poi_name":"Landkreis Osterode am Harz","parent_id":"2862926","long":10.3802800000000008395772965741343796253204345703125},"35":{"id":"3221017","label":"Landkreis Peine","value":"3221017","lat":52.31721999999999894725988269783556461334228515625,"lon":10.2611100000000003973354978370480239391326904296875,"poi_name":"Landkreis Peine","parent_id":"2862926","long":10.2611100000000003973354978370480239391326904296875},"36":{"id":"2840133","label":"Landkreis Schaumburg","value":"2840133","lat":52.315280000000001336957211606204509735107421875,"lon":9.1997199999999992314769770018756389617919921875,"poi_name":"Landkreis Schaumburg","parent_id":"2862926","long":9.1997199999999992314769770018756389617919921875},"37":{"id":"3221046","label":"Landkreis Stade","value":"3221046","lat":53.608609999999998763087205588817596435546875,"lon":9.4061099999999999710098563809879124164581298828125,"poi_name":"Landkreis Stade","parent_id":"2862926","long":9.4061099999999999710098563809879124164581298828125},"38":{"id":"3221049","label":"Landkreis Uelzen","value":"3221049","lat":52.99916999999999944748196867294609546661376953125,"lon":10.5522200000000001551825334900058805942535400390625,"poi_name":"Landkreis Uelzen","parent_id":"2862926","long":10.5522200000000001551825334900058805942535400390625},"39":{"id":"3221097","label":"Landkreis Vechta","value":"3221097","lat":52.6875,"lon":8.199999999999999289457264239899814128875732421875,"poi_name":"Landkreis Vechta","parent_id":"2862926","long":8.199999999999999289457264239899814128875732421875},"40":{"id":"2817598","label":"Landkreis Verden","value":"2817598","lat":52.98138999999999754209056845866143703460693359375,"lon":9.16778000000000048430592869408428668975830078125,"poi_name":"Landkreis Verden","parent_id":"2862926","long":9.16778000000000048430592869408428668975830078125},"41":{"id":"3221099","label":"Landkreis Wesermarsch","value":"3221099","lat":53.35000000000000142108547152020037174224853515625,"lon":8.3494399999999995287680576439015567302703857421875,"poi_name":"Landkreis Wesermarsch","parent_id":"2862926","long":8.3494399999999995287680576439015567302703857421875},"42":{"id":"3221101","label":"Landkreis Wittmund","value":"3221101","lat":53.59611000000000302634362014941871166229248046875,"lon":7.68611000000000021969981389702297747135162353515625,"poi_name":"Landkreis Wittmund","parent_id":"2862926","long":7.68611000000000021969981389702297747135162353515625},"43":{"id":"3221020","label":"Landkreis Wolfenb\u00fcttel","value":"3221020","lat":52.155000000000001136868377216160297393798828125,"lon":10.6624999999999996447286321199499070644378662109375,"poi_name":"Landkreis Wolfenb\u00fcttel","parent_id":"2862926","long":10.6624999999999996447286321199499070644378662109375},"44":{"id":"3221033","label":"Region Hannover","value":"3221033","lat":52.44888999999999867895894567482173442840576171875,"lon":9.7400000000000002131628207280300557613372802734375,"poi_name":"Region Hannover","parent_id":"2862926","long":9.7400000000000002131628207280300557613372802734375},"45":{"id":"3221044","label":"Rotenburg (W\u00fcmme)","value":"3221044","lat":53.2622199999999992314769770018756389617919921875,"lon":9.326109999999999899955582804977893829345703125,"poi_name":"Rotenburg (W\u00fcmme)","parent_id":"2862926","long":9.326109999999999899955582804977893829345703125}}