{"success":true,"remaining_lookups":7590,"0":{"id":"9998153","label":"Gairo","value":"9998153","lat":-6.13841000000000036607161746360361576080322265625,"lon":36.88078999999999751935320091433823108673095703125,"poi_name":"Gairo","parent_id":"153214","long":36.88078999999999751935320091433823108673095703125},"1":{"id":"157408","label":"Kilombero","value":"157408","lat":-8.241369999999999862438926356844604015350341796875,"lon":36.3349199999999967758412822149693965911865234375,"poi_name":"Kilombero","parent_id":"153214","long":36.3349199999999967758412822149693965911865234375},"2":{"id":"157402","label":"Kilosa","value":"157402","lat":-6.8967299999999998050270733074285089969635009765625,"lon":36.9779199999999974579623085446655750274658203125,"poi_name":"Kilosa","parent_id":"153214","long":36.9779199999999974579623085446655750274658203125},"3":{"id":"7647668","label":"Morogoro Rural","value":"7647668","lat":-6.75,"lon":38.1166699999999991632648743689060211181640625,"poi_name":"Morogoro Rural","parent_id":"153214","long":38.1166699999999991632648743689060211181640625},"4":{"id":"153216","label":"Morogoro Urban","value":"153216","lat":-6.8166700000000002290789780090562999248504638671875,"lon":37.66667000000000342652128892950713634490966796875,"poi_name":"Morogoro Urban","parent_id":"153214","long":37.66667000000000342652128892950713634490966796875},"5":{"id":"8659171","label":"Mvomero District","value":"8659171","lat":-6.29999999999999982236431605997495353221893310546875,"lon":37.4500000000000028421709430404007434844970703125,"poi_name":"Mvomero District","parent_id":"153214","long":37.4500000000000028421709430404007434844970703125},"6":{"id":"149252","label":"Ulanga","value":"149252","lat":-8.9888600000000007383960110018961131572723388671875,"lon":36.6133099999999984675014275126159191131591796875,"poi_name":"Ulanga","parent_id":"153214","long":36.6133099999999984675014275126159191131591796875}}