{"success":true,"remaining_lookups":7591,"0":{"id":"160321","label":"Chunya","value":"160321","lat":-7.76780000000000026005864128819666802883148193359375,"lon":33.1641699999999985948306857608258724212646484375,"poi_name":"Chunya","parent_id":"154375","long":33.1641699999999985948306857608258724212646484375},"1":{"id":"159221","label":"Ileje","value":"159221","lat":-9.416669999999999873807610129006206989288330078125,"lon":33.33332999999999657347871107049286365509033203125,"poi_name":"Ileje","parent_id":"154375","long":33.33332999999999657347871107049286365509033203125},"2":{"id":"156110","label":"Kyela","value":"156110","lat":-9.546929999999999694182406528852880001068115234375,"lon":33.86955999999999988858689903281629085540771484375,"poi_name":"Kyela","parent_id":"154375","long":33.86955999999999988858689903281629085540771484375},"3":{"id":"7647511","label":"Mbarali district","value":"7647511","lat":-8.591879999999999739657141617499291896820068359375,"lon":34.13452000000000197132976609282195568084716796875,"poi_name":"Mbarali district","parent_id":"154375","long":34.13452000000000197132976609282195568084716796875},"4":{"id":"154379","label":"Mbeya","value":"154379","lat":-8.9616699999999998027533365529961884021759033203125,"lon":33.3565899999999970759745338000357151031494140625,"poi_name":"Mbeya","parent_id":"154375","long":33.3565899999999970759745338000357151031494140625},"5":{"id":"9998150","label":"Mbeya City","value":"9998150","lat":-8.893589999999999662350091966800391674041748046875,"lon":33.47617000000000331283445120789110660552978515625,"poi_name":"Mbeya City","parent_id":"154375","long":33.47617000000000331283445120789110660552978515625},"6":{"id":"154331","label":"Mbozi","value":"154331","lat":-8.9456500000000005456968210637569427490234375,"lon":32.92613000000000056388671509921550750732421875,"poi_name":"Mbozi","parent_id":"154375","long":32.92613000000000056388671509921550750732421875},"7":{"id":"9998151","label":"Momba","value":"9998151","lat":-8.8117999999999998550492819049395620822906494140625,"lon":32.3632300000000014961187844164669513702392578125,"poi_name":"Momba","parent_id":"154375","long":32.3632300000000014961187844164669513702392578125},"8":{"id":"150412","label":"Rungwe","value":"150412","lat":-9.2355000000000000426325641456060111522674560546875,"lon":33.69033999999999906549419392831623554229736328125,"poi_name":"Rungwe","parent_id":"154375","long":33.69033999999999906549419392831623554229736328125},"9":{"id":"9998152","label":"Tunduma","value":"9998152","lat":-9.29887000000000085719875642098486423492431640625,"lon":32.798900000000003274180926382541656494140625,"poi_name":"Tunduma","parent_id":"154375","long":32.798900000000003274180926382541656494140625}}