{"success":true,"remaining_lookups":7600,"0":{"id":"8299600","label":"Bukombe District","value":"8299600","lat":-3.572999999999999953814722175593487918376922607421875,"lon":31.68599999999999994315658113919198513031005859375,"poi_name":"Bukombe District","parent_id":"8469239","long":31.68599999999999994315658113919198513031005859375},"1":{"id":"9072755","label":"Chato District","value":"9072755","lat":-2.63332999999999994855670593096874654293060302734375,"lon":31.766670000000001294893081649206578731536865234375,"poi_name":"Chato District","parent_id":"8469239","long":31.766670000000001294893081649206578731536865234375},"2":{"id":"159907","label":"Geita","value":"159907","lat":-2.80952000000000001733724275254644453525543212890625,"lon":32.2097600000000028330759960226714611053466796875,"poi_name":"Geita","parent_id":"8469239","long":32.2097600000000028330759960226714611053466796875},"3":{"id":"9998062","label":"Mbogwe","value":"9998062","lat":-3.459260000000000001563194018672220408916473388671875,"lon":32.22534999999999882902557146735489368438720703125,"poi_name":"Mbogwe","parent_id":"8469239","long":32.22534999999999882902557146735489368438720703125},"4":{"id":"9998063","label":"Nyang\u2019hwale","value":"9998063","lat":-3.13750999999999979905851432704366743564605712890625,"lon":32.63251000000000345835360349155962467193603515625,"poi_name":"Nyang\u2019hwale","parent_id":"8469239","long":32.63251000000000345835360349155962467193603515625}}