{"success":true,"remaining_lookups":7589,"0":{"id":"878057","label":"Masasi","value":"878057","lat":-10.76162000000000062982508097775280475616455078125,"lon":38.982900000000000773070496506989002227783203125,"poi_name":"Masasi","parent_id":"877744","long":38.982900000000000773070496506989002227783203125},"1":{"id":"9998154","label":"Masasi Town","value":"9998154","lat":-10.7217999999999999971578290569595992565155029296875,"lon":38.850110000000000809450284577906131744384765625,"poi_name":"Masasi Town","parent_id":"877744","long":38.850110000000000809450284577906131744384765625},"2":{"id":"877745","label":"Mtwara","value":"877745","lat":-10.4794099999999996697397364187054336071014404296875,"lon":39.98807000000000044792614062316715717315673828125,"poi_name":"Mtwara","parent_id":"877744","long":39.98807000000000044792614062316715717315673828125},"3":{"id":"11204831","label":"Mtwara Urban","value":"11204831","lat":-10.2933000000000003382183422218076884746551513671875,"lon":40.1660200000000031650415621697902679443359375,"poi_name":"Mtwara Urban","parent_id":"877744","long":40.1660200000000031650415621697902679443359375},"4":{"id":"9072685","label":"Nanyumbu District","value":"9072685","lat":-11.0666700000000002290789780090562999248504638671875,"lon":38.32974999999999710098563809879124164581298828125,"poi_name":"Nanyumbu District","parent_id":"877744","long":38.32974999999999710098563809879124164581298828125},"5":{"id":"877533","label":"Newala","value":"877533","lat":-10.724869999999999237161318887956440448760986328125,"lon":39.27978999999999842884790268726646900177001953125,"poi_name":"Newala","parent_id":"877744","long":39.27978999999999842884790268726646900177001953125},"6":{"id":"9072692","label":"Tandahimba","value":"9072692","lat":-10.7623200000000007747757990728132426738739013671875,"lon":39.6307699999999982765075401403009891510009765625,"poi_name":"Tandahimba","parent_id":"877744","long":39.6307699999999982765075401403009891510009765625}}