{"success":true,"remaining_lookups":9410,"0":{"id":"3512129","label":"Bajos de Haina","value":"3512129","lat":18.416669999999999873807610129006206989288330078125,"lon":-70.033330000000006521077011711895465850830078125,"poi_name":"Bajos de Haina","parent_id":"3493186","long":-70.033330000000006521077011711895465850830078125},"1":{"id":"3510638","label":"Cambita Garabitos","value":"3510638","lat":18.5,"lon":-70.233329999999995152393239550292491912841796875,"poi_name":"Cambita Garabitos","parent_id":"3493186","long":-70.233329999999995152393239550292491912841796875},"2":{"id":"11154558","label":"Los Cacaos","value":"11154558","lat":18.593129999999998602788764401338994503021240234375,"lon":-70.3250799999999998135535861365497112274169921875,"poi_name":"Los Cacaos","parent_id":"3493186","long":-70.3250799999999998135535861365497112274169921875},"3":{"id":"11154556","label":"Sabana Grande De Palenque","value":"11154556","lat":18.259309999999999263309291563928127288818359375,"lon":-70.1614900000000005775291356258094310760498046875,"poi_name":"Sabana Grande De Palenque","parent_id":"3493186","long":-70.1614900000000005775291356258094310760498046875},"4":{"id":"3493190","label":"San Crist\u00f3bal","value":"3493190","lat":18.416669999999999873807610129006206989288330078125,"lon":-70.1333300000000008367351256310939788818359375,"poi_name":"San Crist\u00f3bal","parent_id":"3493186","long":-70.1333300000000008367351256310939788818359375},"5":{"id":"11154557","label":"San Gregorio De Nigua","value":"11154557","lat":18.359339999999999548663254245184361934661865234375,"lon":-70.0822299999999955844032228924334049224853515625,"poi_name":"San Gregorio De Nigua","parent_id":"3493186","long":-70.0822299999999955844032228924334049224853515625},"6":{"id":"3491953","label":"Villa Altagracia","value":"3491953","lat":18.6333300000000008367351256310939788818359375,"lon":-70.25,"poi_name":"Villa Altagracia","parent_id":"3493186","long":-70.25},"7":{"id":"3491808","label":"Yaguate","value":"3491808","lat":18.333330000000000126192389870993793010711669921875,"lon":-70.1833299999999979945641825906932353973388671875,"poi_name":"Yaguate","parent_id":"3493186","long":-70.1833299999999979945641825906932353973388671875}}