{"success":true,"remaining_lookups":9423,"0":{"id":"3512065","label":"B\u00e1nica","value":"3512065","lat":19.03332999999999941564965411089360713958740234375,"lon":-71.6166699999999991632648743689060211181640625,"poi_name":"B\u00e1nica","parent_id":"3507269","long":-71.6166699999999991632648743689060211181640625},"1":{"id":"3509387","label":"Comendador","value":"3509387","lat":18.8833300000000008367351256310939788818359375,"lon":-71.6666699999999963210939313285052776336669921875,"poi_name":"Comendador","parent_id":"3507269","long":-71.6666699999999963210939313285052776336669921875},"2":{"id":"3507124","label":"El Llano","value":"3507124","lat":18.766670000000001294893081649206578731536865234375,"lon":-71.6666699999999963210939313285052776336669921875,"poi_name":"El Llano","parent_id":"3507269","long":-71.6666699999999963210939313285052776336669921875},"3":{"id":"3504468","label":"Hondo Valle","value":"3504468","lat":18.70765000000000100044417195022106170654296875,"lon":-71.6974500000000034560798667371273040771484375,"poi_name":"Hondo Valle","parent_id":"3507269","long":-71.6974500000000034560798667371273040771484375},"4":{"id":"11154574","label":"Juan Santiago","value":"11154574","lat":18.73282999999999987039700499735772609710693359375,"lon":-71.60710000000000263753463514149188995361328125,"poi_name":"Juan Santiago","parent_id":"3507269","long":-71.60710000000000263753463514149188995361328125},"5":{"id":"3495099","label":"Pedro Santana","value":"3495099","lat":19.166669999999999873807610129006206989288330078125,"lon":-71.5499999999999971578290569595992565155029296875,"poi_name":"Pedro Santana","parent_id":"3507269","long":-71.5499999999999971578290569595992565155029296875}}