{"success":true,"remaining_lookups":9428,"0":{"id":"3512211","label":"Azua","value":"3512211","lat":18.5,"lon":-70.75,"poi_name":"Azua","parent_id":"3512209","long":-70.75},"1":{"id":"11154534","label":"Esteban\u00eda","value":"11154534","lat":18.534659999999998802877598791383206844329833984375,"lon":-70.64852999999999383362592197954654693603515625,"poi_name":"Esteban\u00eda","parent_id":"3512209","long":-70.64852999999999383362592197954654693603515625},"2":{"id":"11154533","label":"Guayabal","value":"11154533","lat":18.717439999999999855617716093547642230987548828125,"lon":-70.7650100000000037425706977955996990203857421875,"poi_name":"Guayabal","parent_id":"3512209","long":-70.7650100000000037425706977955996990203857421875},"3":{"id":"11154548","label":"Las Charcas","value":"11154548","lat":18.39180999999999954752638586796820163726806640625,"lon":-70.5460900000000066256689024157822132110595703125,"poi_name":"Las Charcas","parent_id":"3512209","long":-70.5460900000000066256689024157822132110595703125},"4":{"id":"11154549","label":"Las Yayas De Viajama","value":"11154549","lat":18.6039999999999992041921359486877918243408203125,"lon":-70.99966000000000576619640924036502838134765625,"poi_name":"Las Yayas De Viajama","parent_id":"3512209","long":-70.99966000000000576619640924036502838134765625},"5":{"id":"3495665","label":"Padre Las Casas","value":"3495665","lat":18.75,"lon":-70.8833300000000008367351256310939788818359375,"poi_name":"Padre Las Casas","parent_id":"3512209","long":-70.8833300000000008367351256310939788818359375},"6":{"id":"3495021","label":"Peralta","value":"3495021","lat":18.6166699999999991632648743689060211181640625,"lon":-70.7999999999999971578290569595992565155029296875,"poi_name":"Peralta","parent_id":"3512209","long":-70.7999999999999971578290569595992565155029296875},"7":{"id":"11154551","label":"Pueblo Viejo","value":"11154551","lat":18.393139999999998934754330548457801342010498046875,"lon":-70.78028000000000474756234325468540191650390625,"poi_name":"Pueblo Viejo","parent_id":"3512209","long":-70.78028000000000474756234325468540191650390625},"8":{"id":"11154550","label":"Sabana Yegua","value":"11154550","lat":18.41378999999999876990841585211455821990966796875,"lon":-70.8880999999999943383954814635217189788818359375,"poi_name":"Sabana Yegua","parent_id":"3512209","long":-70.8880999999999943383954814635217189788818359375},"9":{"id":"11154532","label":"T\u00e1bara Arriba","value":"11154532","lat":18.496030000000001081161826732568442821502685546875,"lon":-70.915109999999998535713530145585536956787109375,"poi_name":"T\u00e1bara Arriba","parent_id":"3512209","long":-70.915109999999998535713530145585536956787109375}}