{"success":true,"remaining_lookups":9815,"0":{"id":"7668926","label":"Commune of Athieme","value":"7668926","lat":6.56923999999999974619413478649221360683441162109375,"lon":1.7025900000000000478195261166547425091266632080078125,"poi_name":"Commune of Athieme","parent_id":"2392716","long":1.7025900000000000478195261166547425091266632080078125},"1":{"id":"8335019","label":"Commune of Bopa","value":"8335019","lat":6.657000000000000028421709430404007434844970703125,"lon":1.9450000000000000621724893790087662637233734130859375,"poi_name":"Commune of Bopa","parent_id":"2392716","long":1.9450000000000000621724893790087662637233734130859375},"2":{"id":"8335018","label":"Commune of Houeyogbe","value":"8335018","lat":6.54399999999999959499064061674289405345916748046875,"lon":1.8520000000000000905941988094127736985683441162109375,"poi_name":"Commune of Houeyogbe","parent_id":"2392716","long":1.8520000000000000905941988094127736985683441162109375},"3":{"id":"9166076","label":"Com\u00e9","value":"9166076","lat":6.4000000000000003552713678800500929355621337890625,"lon":1.88332999999999994855670593096874654293060302734375,"poi_name":"Com\u00e9","parent_id":"2392716","long":1.88332999999999994855670593096874654293060302734375},"4":{"id":"9166075","label":"Grand-Popo","value":"9166075","lat":6.28333000000000030382807381101883947849273681640625,"lon":1.8333299999999999041477849459624849259853363037109375,"poi_name":"Grand-Popo","parent_id":"2392716","long":1.8333299999999999041477849459624849259853363037109375},"5":{"id":"7668924","label":"Lokossa","value":"7668924","lat":6.6980199999999996407495927996933460235595703125,"lon":1.741610000000000102460262496606446802616119384765625,"poi_name":"Lokossa","parent_id":"2392716","long":1.741610000000000102460262496606446802616119384765625}}