{"success":true,"remaining_lookups":9821,"0":{"id":"7669270","label":"Bembereke","value":"7669270","lat":10.267549999999999954525264911353588104248046875,"lon":2.771580000000000154614099301397800445556640625,"poi_name":"Bembereke","parent_id":"2394992","long":2.771580000000000154614099301397800445556640625},"1":{"id":"7669268","label":"Commune of Parakou","value":"7669268","lat":9.3499099999999994992094798362813889980316162109375,"lon":2.622619999999999951256768326857127249240875244140625,"poi_name":"Commune of Parakou","parent_id":"2394992","long":2.622619999999999951256768326857127249240875244140625},"2":{"id":"7669265","label":"Commune of Tchaourou","value":"7669265","lat":9.03490000000000037516656448133289813995361328125,"lon":2.516900000000000137134748001699335873126983642578125,"poi_name":"Commune of Tchaourou","parent_id":"2394992","long":2.516900000000000137134748001699335873126983642578125},"3":{"id":"7669349","label":"Kalal\u00e8","value":"7669349","lat":10.3609700000000000130739863379858434200286865234375,"lon":3.42086999999999985533349899924360215663909912109375,"poi_name":"Kalal\u00e8","parent_id":"2394992","long":3.42086999999999985533349899924360215663909912109375},"4":{"id":"7669269","label":"Ndali","value":"7669269","lat":9.730270000000000862883098307065665721893310546875,"lon":2.450320000000000053574922276311554014682769775390625,"poi_name":"Ndali","parent_id":"2394992","long":2.450320000000000053574922276311554014682769775390625},"5":{"id":"7669355","label":"Nikki","value":"7669355","lat":9.953359999999999985220711096189916133880615234375,"lon":3.1560100000000002040678737103007733821868896484375,"poi_name":"Nikki","parent_id":"2394992","long":3.1560100000000002040678737103007733821868896484375},"6":{"id":"7669352","label":"P\u00e8r\u00e8r\u00e8","value":"7669352","lat":9.5870300000000003848299456876702606678009033203125,"lon":2.996070000000000010942358130705542862415313720703125,"poi_name":"P\u00e8r\u00e8r\u00e8","parent_id":"2394992","long":2.996070000000000010942358130705542862415313720703125},"7":{"id":"7669357","label":"Sinend\u00e9","value":"7669357","lat":10.215579999999999216697688098065555095672607421875,"lon":2.335269999999999956941110212937928736209869384765625,"poi_name":"Sinend\u00e9","parent_id":"2394992","long":2.335269999999999956941110212937928736209869384765625}}