{"success":true,"remaining_lookups":9817,"0":{"id":"10344472","label":"Aplahou\u00e9","value":"10344472","lat":6.9333299999999997709210219909437000751495361328125,"lon":1.6833299999999999929656269159750081598758697509765625,"poi_name":"Aplahou\u00e9","parent_id":"2597273","long":1.6833299999999999929656269159750081598758697509765625},"1":{"id":"10344473","label":"Djakotomey","value":"10344473","lat":6.9000000000000003552713678800500929355621337890625,"lon":1.7166699999999999182165311140124686062335968017578125,"poi_name":"Djakotomey","parent_id":"2597273","long":1.7166699999999999182165311140124686062335968017578125},"2":{"id":"2391090","label":"Dogbo Tota","value":"2391090","lat":6.79924999999999979394260662957094609737396240234375,"lon":1.7841299999999999936761696517351083457469940185546875,"poi_name":"Dogbo Tota","parent_id":"2597273","long":1.7841299999999999936761696517351083457469940185546875},"3":{"id":"10344474","label":"Klou\u00e9kanm\u00e8","value":"10344474","lat":6.98027999999999959612750899395905435085296630859375,"lon":1.8422199999999999686650653529795818030834197998046875,"poi_name":"Klou\u00e9kanm\u00e8","parent_id":"2597273","long":1.8422199999999999686650653529795818030834197998046875},"4":{"id":"10344475","label":"Lalo","value":"10344475","lat":6.916669999999999873807610129006206989288330078125,"lon":1.88332999999999994855670593096874654293060302734375,"poi_name":"Lalo","parent_id":"2597273","long":1.88332999999999994855670593096874654293060302734375},"5":{"id":"10344476","label":"Toviklin","value":"10344476","lat":6.833330000000000126192389870993793010711669921875,"lon":1.8166700000000000070343730840249918401241302490234375,"poi_name":"Toviklin","parent_id":"2597273","long":1.8166700000000000070343730840249918401241302490234375}}