{"success":true,"remaining_lookups":9636,"0":{"id":"5883398","label":"Alexander","value":"5883398","lat":50.4833100000000030149749363772571086883544921875,"lon":-96.0505600000000043792169890366494655609130859375,"poi_name":"Alexander","parent_id":"6065171","long":-96.0505600000000043792169890366494655609130859375},"1":{"id":"5884145","label":"Alonsa","value":"5884145","lat":50.98331999999999908368408796377480030059814453125,"lon":-99.05076999999999998181010596454143524169921875,"poi_name":"Alonsa","parent_id":"6065171","long":-99.05076999999999998181010596454143524169921875},"2":{"id":"5886869","label":"Argyle","value":"5886869","lat":49.34642000000000194859239854849874973297119140625,"lon":-99.2475199999999944111550576053559780120849609375,"poi_name":"Argyle","parent_id":"6065171","long":-99.2475199999999944111550576053559780120849609375},"3":{"id":"5887047","label":"Armstrong","value":"5887047","lat":50.66671000000000191221261047758162021636962890625,"lon":-97.450680000000005520632839761674404144287109375,"poi_name":"Armstrong","parent_id":"6065171","long":-97.450680000000005520632839761674404144287109375},"4":{"id":"5909350","label":"Brokenhead","value":"5909350","lat":50.07809999999999917008608463220298290252685546875,"lon":-96.499989999999996825863490812480449676513671875,"poi_name":"Brokenhead","parent_id":"6065171","long":-96.499989999999996825863490812480449676513671875},"5":{"id":"5917773","label":"Cartier","value":"5917773","lat":49.8831100000000020600054995156824588775634765625,"lon":-97.67649000000000114596332423388957977294921875,"poi_name":"Cartier","parent_id":"6065171","long":-97.67649000000000114596332423388957977294921875},"6":{"id":"5925083","label":"Coldwell","value":"5925083","lat":50.6458200000000005047695594839751720428466796875,"lon":-97.9026000000000067302607931196689605712890625,"poi_name":"Coldwell","parent_id":"6065171","long":-97.9026000000000067302607931196689605712890625},"7":{"id":"5928075","label":"Cornwallis","value":"5928075","lat":49.79722000000000292629920295439660549163818359375,"lon":-99.84805000000000063664629124104976654052734375,"poi_name":"Cornwallis","parent_id":"6065171","long":-99.84805000000000063664629124104976654052734375},"8":{"id":"5935342","label":"Dauphin","value":"5935342","lat":51.19581000000000159388946485705673694610595703125,"lon":-100.0633299999999934470906737260520458221435546875,"poi_name":"Dauphin","parent_id":"6065171","long":-100.0633299999999934470906737260520458221435546875},"9":{"id":"5938127","label":"De Salaberry","value":"5938127","lat":49.3999900000000025102053768932819366455078125,"lon":-97.00893999999999550709617324173450469970703125,"poi_name":"De Salaberry","parent_id":"6065171","long":-97.00893999999999550709617324173450469970703125},"10":{"id":"5943543","label":"Dufferin","value":"5943543","lat":49.52640000000000242152964347042143344879150390625,"lon":-98.07404999999999972715158946812152862548828125,"poi_name":"Dufferin","parent_id":"6065171","long":-98.07404999999999972715158946812152862548828125},"11":{"id":"5946153","label":"East St. Paul","value":"5946153","lat":49.97720000000000339923644787631928920745849609375,"lon":-97.010930000000001882654032669961452484130859375,"poi_name":"East St. Paul","parent_id":"6065171","long":-97.010930000000001882654032669961452484130859375},"12":{"id":"5948173","label":"Elton","value":"5948173","lat":49.97471999999999781039150548167526721954345703125,"lon":-99.835859999999996716724126599729061126708984375,"poi_name":"Elton","parent_id":"6065171","long":-99.835859999999996716724126599729061126708984375},"13":{"id":"5953379","label":"Fisher","value":"5953379","lat":51.07500999999999891088009462691843509674072265625,"lon":-97.5839799999999968349584378302097320556640625,"poi_name":"Fisher","parent_id":"6065171","long":-97.5839799999999968349584378302097320556640625},"14":{"id":"5961416","label":"Gimli","value":"5961416","lat":50.66671999999999798092176206409931182861328125,"lon":-97.0506599999999934880179353058338165283203125,"poi_name":"Gimli","parent_id":"6065171","long":-97.0506599999999934880179353058338165283203125},"15":{"id":"5964094","label":"Grahamdale","value":"5964094","lat":51.375,"lon":-98.54243999999999914507498033344745635986328125,"poi_name":"Grahamdale","parent_id":"6065171","long":-98.54243999999999914507498033344745635986328125},"16":{"id":"5966926","label":"Grey","value":"5966926","lat":49.71110999999999791043592267669737339019775390625,"lon":-98.075729999999992969605955295264720916748046875,"poi_name":"Grey","parent_id":"6065171","long":-98.075729999999992969605955295264720916748046875},"17":{"id":"5970302","label":"Hanover","value":"5970302","lat":49.466689999999999827196006663143634796142578125,"lon":-96.833920000000006211848813109099864959716796875,"poi_name":"Hanover","parent_id":"6065171","long":-96.833920000000006211848813109099864959716796875},"18":{"id":"5972962","label":"Headingley","value":"5972962","lat":49.86970000000000169393388205207884311676025390625,"lon":-97.386259999999992942321114242076873779296875,"poi_name":"Headingley","parent_id":"6065171","long":-97.386259999999992942321114242076873779296875},"19":{"id":"5990627","label":"Kelsey","value":"5990627","lat":54.15841000000000349245965480804443359375,"lon":-101.37581000000000130967237055301666259765625,"poi_name":"Kelsey","parent_id":"6065171","long":-101.37581000000000130967237055301666259765625},"20":{"id":"6014442","label":"Lac du Bonnet","value":"6014442","lat":50.25,"lon":-96.16807000000000016370904631912708282470703125,"poi_name":"Lac du Bonnet","parent_id":"6065171","long":-96.16807000000000016370904631912708282470703125},"21":{"id":"6062676","label":"Macdonald","value":"6062676","lat":49.66671000000000191221261047758162021636962890625,"lon":-97.5006699999999995043253875337541103363037109375,"poi_name":"Macdonald","parent_id":"6065171","long":-97.5006699999999995043253875337541103363037109375},"22":{"id":"6076808","label":"Montcalm","value":"6076808","lat":49.1649900000000030786395655013620853424072265625,"lon":-97.34008000000000038198777474462985992431640625,"poi_name":"Montcalm","parent_id":"6065171","long":-97.34008000000000038198777474462985992431640625},"23":{"id":"6078726","label":"Morris","value":"6078726","lat":49.39999999999999857891452847979962825775146484375,"lon":-97.4589799999999968349584378302097320556640625,"poi_name":"Morris","parent_id":"6065171","long":-97.4589799999999968349584378302097320556640625},"24":{"id":"6079284","label":"Mossey River","value":"6079284","lat":51.66671000000000191221261047758162021636962890625,"lon":-100.0008399999999966212271829135715961456298828125,"poi_name":"Mossey River","parent_id":"6065171","long":-100.0008399999999966212271829135715961456298828125},"25":{"id":"6105291","label":"Piney","value":"6105291","lat":49.2249699999999990041033015586435794830322265625,"lon":-95.917249999999995679900166578590869903564453125,"poi_name":"Piney","parent_id":"6065171","long":-95.917249999999995679900166578590869903564453125},"26":{"id":"6105529","label":"Pipestone","value":"6105529","lat":49.6700000000000017053025658242404460906982421875,"lon":-101.1681300000000049976733862422406673431396484375,"poi_name":"Pipestone","parent_id":"6065171","long":-101.1681300000000049976733862422406673431396484375},"27":{"id":"6111530","label":"Portage la Prairie","value":"6111530","lat":49.99282000000000181216819328255951404571533203125,"lon":-98.2699300000000022237145458348095417022705078125,"poi_name":"Portage la Prairie","parent_id":"6065171","long":-98.2699300000000022237145458348095417022705078125},"28":{"id":"6121677","label":"Reynolds","value":"6121677","lat":49.70828999999999808778738952241837978363037109375,"lon":-95.933840000000003556124283932149410247802734375,"poi_name":"Reynolds","parent_id":"6065171","long":-95.933840000000003556124283932149410247802734375},"29":{"id":"6122576","label":"Ritchot","value":"6122576","lat":49.7042000000000001591615728102624416351318359375,"lon":-97.091440000000005738911568187177181243896484375,"poi_name":"Ritchot","parent_id":"6065171","long":-97.091440000000005738911568187177181243896484375},"30":{"id":"6126541","label":"Rockwood","value":"6126541","lat":50.250010000000003174136509187519550323486328125,"lon":-97.3339600000000046975401346571743488311767578125,"poi_name":"Rockwood","parent_id":"6065171","long":-97.3339600000000046975401346571743488311767578125},"31":{"id":"6127181","label":"Roland","value":"6127181","lat":49.3355999999999994543031789362430572509765625,"lon":-97.9118399999999979854692355729639530181884765625,"poi_name":"Roland","parent_id":"6065171","long":-97.9118399999999979854692355729639530181884765625},"32":{"id":"6127585","label":"Rosedale","value":"6127585","lat":50.32751999999999981127984938211739063262939453125,"lon":-99.5052199999999942292561172507703304290771484375,"poi_name":"Rosedale","parent_id":"6065171","long":-99.5052199999999942292561172507703304290771484375},"33":{"id":"11153049","label":"Rural Municipality of Yellowhead","value":"11153049","lat":50.484600000000000363797880709171295166015625,"lon":-100.4826699999999988222043612040579319000244140625,"poi_name":"Rural Municipality of Yellowhead","parent_id":"6065171","long":-100.4826699999999988222043612040579319000244140625},"34":{"id":"6147482","label":"Sifton","value":"6147482","lat":49.6655999999999977490006131120026111602783203125,"lon":-100.66280000000000427462509833276271820068359375,"poi_name":"Sifton","parent_id":"6065171","long":-100.66280000000000427462509833276271820068359375},"35":{"id":"6154185","label":"Springfield","value":"6154185","lat":49.91669999999999873807610129006206989288330078125,"lon":-96.75060999999999467036104761064052581787109375,"poi_name":"Springfield","parent_id":"6065171","long":-96.75060999999999467036104761064052581787109375},"36":{"id":"6155131","label":"St. Andrews","value":"6155131","lat":50.250010000000003174136509187519550323486328125,"lon":-97.000640000000004192770575173199176788330078125,"poi_name":"St. Andrews","parent_id":"6065171","long":-97.000640000000004192770575173199176788330078125},"37":{"id":"6155764","label":"St. Clements","value":"6155764","lat":50.16420000000000101181285572238266468048095703125,"lon":-96.7512100000000003774403012357652187347412109375,"poi_name":"St. Clements","parent_id":"6065171","long":-96.7512100000000003774403012357652187347412109375},"38":{"id":"6156971","label":"St. Laurent","value":"6156971","lat":50.3333099999999973306330502964556217193603515625,"lon":-97.83400000000000318323145620524883270263671875,"poi_name":"St. Laurent","parent_id":"6065171","long":-97.83400000000000318323145620524883270263671875},"39":{"id":"6155186","label":"Stanley","value":"6155186","lat":49.168599999999997862687450833618640899658203125,"lon":-98.0865600000000057434590416960418224334716796875,"poi_name":"Stanley","parent_id":"6065171","long":-98.0865600000000057434590416960418224334716796875},"40":{"id":"6155865","label":"Ste. Anne","value":"6155865","lat":49.58328999999999808778738952241837978363037109375,"lon":-96.5005900000000025329427444376051425933837890625,"poi_name":"Ste. Anne","parent_id":"6065171","long":-96.5005900000000025329427444376051425933837890625},"41":{"id":"6158376","label":"Stuartburn","value":"6158376","lat":49.13327000000000310819814330898225307464599609375,"lon":-96.5173099999999948295226204209029674530029296875,"poi_name":"Stuartburn","parent_id":"6065171","long":-96.5173099999999948295226204209029674530029296875},"42":{"id":"6165405","label":"Thompson","value":"6165405","lat":49.3346999999999979991116560995578765869140625,"lon":-98.251360000000005356923793442547321319580078125,"poi_name":"Thompson","parent_id":"6065171","long":-98.251360000000005356923793442547321319580078125},"43":{"id":"6174040","label":"Victoria","value":"6174040","lat":49.664209999999997080522007308900356292724609375,"lon":-98.896379999999993515302776359021663665771484375,"poi_name":"Victoria","parent_id":"6065171","long":-98.896379999999993515302776359021663665771484375},"44":{"id":"6179507","label":"West St. Paul","value":"6179507","lat":49.99940000000000139834810397587716579437255859375,"lon":-97.1628400000000027603164198808372020721435546875,"poi_name":"West St. Paul","parent_id":"6065171","long":-97.1628400000000027603164198808372020721435546875},"45":{"id":"6180469","label":"Whitehead","value":"6180469","lat":49.7794099999999986039256327785551548004150390625,"lon":-100.234790000000003828972694464027881622314453125,"poi_name":"Whitehead","parent_id":"6065171","long":-100.234790000000003828972694464027881622314453125},"46":{"id":"6180732","label":"Whitemouth","value":"6180732","lat":49.97469000000000249883669312112033367156982421875,"lon":-95.9574499999999943611328490078449249267578125,"poi_name":"Whitemouth","parent_id":"6065171","long":-95.9574499999999943611328490078449249267578125},"47":{"id":"6184198","label":"Woodlands","value":"6184198","lat":50.16671000000000191221261047758162021636962890625,"lon":-97.75348999999999932697392068803310394287109375,"poi_name":"Woodlands","parent_id":"6065171","long":-97.75348999999999932697392068803310394287109375}}