{"success":true,"remaining_lookups":9238,"0":{"id":"10295377","label":"Bora-Bora","value":"10295377","lat":-16.494800000000001460875864722765982151031494140625,"lon":-151.743590000000011741576599888503551483154296875,"poi_name":"Bora-Bora","parent_id":"4034364","long":-151.743590000000011741576599888503551483154296875},"1":{"id":"10295378","label":"Huahine","value":"10295378","lat":-16.75207999999999941564965411089360713958740234375,"lon":-151.02960999999999103238224051892757415771484375,"poi_name":"Huahine","parent_id":"4034364","long":-151.02960999999999103238224051892757415771484375},"2":{"id":"10295379","label":"Maupiti","value":"10295379","lat":-16.446059999999999234887582133524119853973388671875,"lon":-152.256000000000000227373675443232059478759765625,"poi_name":"Maupiti","parent_id":"4034364","long":-152.256000000000000227373675443232059478759765625},"3":{"id":"10297424","label":"Moorea-Maiao","value":"10297424","lat":-17.498259999999998370867615449242293834686279296875,"lon":-149.835319999999995843609212897717952728271484375,"poi_name":"Moorea-Maiao","parent_id":"4034364","long":-149.835319999999995843609212897717952728271484375},"4":{"id":"10295380","label":"Tahaa","value":"10295380","lat":-16.630410000000001247144609806127846240997314453125,"lon":-151.50164000000000896761775948107242584228515625,"poi_name":"Tahaa","parent_id":"4034364","long":-151.50164000000000896761775948107242584228515625},"5":{"id":"10297427","label":"Taputapuatea","value":"10297427","lat":-16.84649999999999891997504164464771747589111328125,"lon":-151.380099999999998772182152606546878814697265625,"poi_name":"Taputapuatea","parent_id":"4034364","long":-151.380099999999998772182152606546878814697265625},"6":{"id":"10297428","label":"Tumaraa","value":"10297428","lat":-16.79111999999999937926986603997647762298583984375,"lon":-151.486700000000013233147910796105861663818359375,"poi_name":"Tumaraa","parent_id":"4034364","long":-151.486700000000013233147910796105861663818359375},"7":{"id":"10295384","label":"Uturoa","value":"10295384","lat":-16.731449999999998823341229581274092197418212890625,"lon":-151.446149999999988722265698015689849853515625,"poi_name":"Uturoa","parent_id":"4034364","long":-151.446149999999988722265698015689849853515625}}