{"success":true,"remaining_lookups":9236,"0":{"id":"10295208","label":"Arue","value":"10295208","lat":-17.533500000000000085265128291212022304534912109375,"lon":-149.512849999999986039256327785551548004150390625,"poi_name":"Arue","parent_id":"4034365","long":-149.512849999999986039256327785551548004150390625},"1":{"id":"10295209","label":"Faaa","value":"10295209","lat":-17.552080000000000126192389870993793010711669921875,"lon":-149.596669999999988931449479423463344573974609375,"poi_name":"Faaa","parent_id":"4034365","long":-149.596669999999988931449479423463344573974609375},"2":{"id":"4034400","label":"Hitiaa O Te Ra","value":"4034400","lat":-17.605740000000000833324520499445497989654541015625,"lon":-149.30522999999999456122168339788913726806640625,"poi_name":"Hitiaa O Te Ra","parent_id":"4034365","long":-149.30522999999999456122168339788913726806640625},"3":{"id":"10295210","label":"Mahina","value":"10295210","lat":-17.508489999999998332214090623892843723297119140625,"lon":-149.490019999999987021510605700314044952392578125,"poi_name":"Mahina","parent_id":"4034365","long":-149.490019999999987021510605700314044952392578125},"4":{"id":"10295211","label":"Paea","value":"10295211","lat":-17.6927400000000005775291356258094310760498046875,"lon":-149.58413999999999077772372402250766754150390625,"poi_name":"Paea","parent_id":"4034365","long":-149.58413999999999077772372402250766754150390625},"5":{"id":"10295212","label":"Papara","value":"10295212","lat":-17.750209999999999155306795728392899036407470703125,"lon":-149.55477999999999383362592197954654693603515625,"poi_name":"Papara","parent_id":"4034365","long":-149.55477999999999383362592197954654693603515625},"6":{"id":"10295213","label":"Papeete","value":"10295213","lat":-17.53500999999999976353137753903865814208984375,"lon":-149.5680399999999963256414048373699188232421875,"poi_name":"Papeete","parent_id":"4034365","long":-149.5680399999999963256414048373699188232421875},"7":{"id":"10295214","label":"Pirae","value":"10295214","lat":-17.53244000000000113459464046172797679901123046875,"lon":-149.521350000000012414602679200470447540283203125,"poi_name":"Pirae","parent_id":"4034365","long":-149.521350000000012414602679200470447540283203125},"8":{"id":"4033777","label":"Punaauia","value":"4033777","lat":-17.6166699999999991632648743689060211181640625,"lon":-149.58332999999998946805135346949100494384765625,"poi_name":"Punaauia","parent_id":"4034365","long":-149.58332999999998946805135346949100494384765625},"9":{"id":"10297425","label":"Taiarapu-Est","value":"10297425","lat":-17.788360000000000837871994008310139179229736328125,"lon":-149.20017000000001416992745362222194671630859375,"poi_name":"Taiarapu-Est","parent_id":"4034365","long":-149.20017000000001416992745362222194671630859375},"10":{"id":"10297426","label":"Taiarapu-Ouest","value":"10297426","lat":-17.55118999999999829242369742132723331451416015625,"lon":-149.534230000000007976268534548580646514892578125,"poi_name":"Taiarapu-Ouest","parent_id":"4034365","long":-149.534230000000007976268534548580646514892578125},"11":{"id":"10297429","label":"Teva I Uta","value":"10297429","lat":-17.739560000000000883346729096956551074981689453125,"lon":-149.409169999999988931449479423463344573974609375,"poi_name":"Teva I Uta","parent_id":"4034365","long":-149.409169999999988931449479423463344573974609375}}