{"success":true,"remaining_lookups":8457,"0":{"id":"6619147","label":"Altants\u00f6gts","value":"6619147","lat":49.04811000000000120735421660356223583221435546875,"lon":90.4617700000000013460521586239337921142578125,"poi_name":"Altants\u00f6gts","parent_id":"1516278","long":90.4617700000000013460521586239337921142578125},"1":{"id":"6619150","label":"Altay","value":"6619150","lat":48.29359000000000179397829924710094928741455078125,"lon":89.51488000000000511136022396385669708251953125,"poi_name":"Altay","parent_id":"1516278","long":89.51488000000000511136022396385669708251953125},"2":{"id":"1516281","label":"Bayannuur","value":"1516281","lat":48.9333299999999979945641825906932353973388671875,"lon":91.1333300000000008367351256310939788818359375,"poi_name":"Bayannuur","parent_id":"1516278","long":91.1333300000000008367351256310939788818359375},"3":{"id":"6619145","label":"Bugat","value":"6619145","lat":48.94742000000000103909769677557051181793212890625,"lon":90.0197399999999987585397320799529552459716796875,"poi_name":"Bugat","parent_id":"1516278","long":90.0197399999999987585397320799529552459716796875},"4":{"id":"6619153","label":"Bulgan","value":"6619153","lat":46.9207200000000028694557840935885906219482421875,"lon":91.0871300000000019281287677586078643798828125,"poi_name":"Bulgan","parent_id":"1516278","long":91.0871300000000019281287677586078643798828125},"5":{"id":"6619151","label":"Buyant","value":"6619151","lat":48.57621000000000321961124427616596221923828125,"lon":89.5475899999999995770849636755883693695068359375,"poi_name":"Buyant","parent_id":"1516278","long":89.5475899999999995770849636755883693695068359375},"6":{"id":"6619152","label":"Del\u00fc\u00fcn","value":"6619152","lat":47.75847999999999871079126023687422275543212890625,"lon":90.8332400000000035333869163878262042999267578125,"poi_name":"Del\u00fc\u00fcn","parent_id":"1516278","long":90.8332400000000035333869163878262042999267578125},"7":{"id":"6619141","label":"Nogoonnuur","value":"6619141","lat":49.6089300000000008594724931754171848297119140625,"lon":90.2423900000000003274180926382541656494140625,"poi_name":"Nogoonnuur","parent_id":"1516278","long":90.2423900000000003274180926382541656494140625},"8":{"id":"6619144","label":"Sagsay sum","value":"6619144","lat":48.8942899999999980309439706616103649139404296875,"lon":89.6360800000000068621375248767435550689697265625,"poi_name":"Sagsay sum","parent_id":"1516278","long":89.6360800000000068621375248767435550689697265625},"9":{"id":"6619149","label":"Tolbo","value":"6619149","lat":48.41120000000000089812601800076663494110107421875,"lon":90.292509999999992942321114242076873779296875,"poi_name":"Tolbo","parent_id":"1516278","long":90.292509999999992942321114242076873779296875},"10":{"id":"6619140","label":"Tsagaannuur","value":"6619140","lat":49.50480999999999909277903498150408267974853515625,"lon":89.73255000000000336513039655983448028564453125,"poi_name":"Tsagaannuur","parent_id":"1516278","long":89.73255000000000336513039655983448028564453125},"11":{"id":"6619143","label":"Tsengel","value":"6619143","lat":48.943139999999999645297066308557987213134765625,"lon":89.1435800000000000409272615797817707061767578125,"poi_name":"Tsengel","parent_id":"1516278","long":89.1435800000000000409272615797817707061767578125},"12":{"id":"6619142","label":"Ulaanhus","value":"6619142","lat":49.03573000000000092768459580838680267333984375,"lon":89.4374700000000046884451876394450664520263671875,"poi_name":"Ulaanhus","parent_id":"1516278","long":89.4374700000000046884451876394450664520263671875},"13":{"id":"6619146","label":"\u00d6lgii","value":"6619146","lat":48.96381999999999834471964277327060699462890625,"lon":89.9621499999999940655470709316432476043701171875,"poi_name":"\u00d6lgii","parent_id":"1516278","long":89.9621499999999940655470709316432476043701171875},"14":{"id":"6998284","label":"\u00d6lgiy Sum","value":"6998284","lat":48.98825000000000073896444519050419330596923828125,"lon":89.895070000000004029061528854072093963623046875,"poi_name":"\u00d6lgiy Sum","parent_id":"1516278","long":89.895070000000004029061528854072093963623046875}}