{"success":true,"remaining_lookups":8438,"0":{"id":"6618795","label":"Bayan-Ovoo","value":"6618795","lat":42.9689800000000019508661353029310703277587890625,"lon":106.1200299999999998590283212251961231231689453125,"poi_name":"Bayan-Ovoo","parent_id":"2029669","long":106.1200299999999998590283212251961231231689453125},"1":{"id":"6987984","label":"Bayan-Ovoo Sum","value":"6987984","lat":42.757080000000001973603502847254276275634765625,"lon":105.9640299999999939473127597011625766754150390625,"poi_name":"Bayan-Ovoo Sum","parent_id":"2029669","long":105.9640299999999939473127597011625766754150390625},"2":{"id":"6618797","label":"Bayandalay","value":"6618797","lat":43.4581500000000033878677641041576862335205078125,"lon":103.51353000000000292857293970882892608642578125,"poi_name":"Bayandalay","parent_id":"2029669","long":103.51353000000000292857293970882892608642578125},"3":{"id":"6618798","label":"Bulgan","value":"6618798","lat":44.09141000000000332192939822562038898468017578125,"lon":103.543049999999993815436027944087982177734375,"poi_name":"Bulgan","parent_id":"2029669","long":103.543049999999993815436027944087982177734375},"4":{"id":"6618802","label":"Dalandzadgad","value":"6618802","lat":43.564470000000000027284841053187847137451171875,"lon":104.424710000000004583853296935558319091796875,"poi_name":"Dalandzadgad","parent_id":"2029669","long":104.424710000000004583853296935558319091796875},"5":{"id":"6618801","label":"Gurvantes","value":"6618801","lat":43.22368999999999772398950881324708461761474609375,"lon":101.047100000000000363797880709171295166015625,"poi_name":"Gurvantes","parent_id":"2029669","long":101.047100000000000363797880709171295166015625},"6":{"id":"6618794","label":"Hanbogd","value":"6618794","lat":43.19140999999999763758751214481890201568603515625,"lon":107.20013000000000147338141687214374542236328125,"poi_name":"Hanbogd","parent_id":"2029669","long":107.20013000000000147338141687214374542236328125},"7":{"id":"6618791","label":"Hanhongor","value":"6618791","lat":43.773449999999996862243278883397579193115234375,"lon":104.4799799999999976307663018815219402313232421875,"poi_name":"Hanhongor","parent_id":"2029669","long":104.4799799999999976307663018815219402313232421875},"8":{"id":"6618796","label":"H\u00fcrmen","value":"6618796","lat":43.29932000000000158479451783932745456695556640625,"lon":104.0741699999999951842255541123449802398681640625,"poi_name":"H\u00fcrmen","parent_id":"2029669","long":104.0741699999999951842255541123449802398681640625},"9":{"id":"6618789","label":"Mandal-Ovoo","value":"6618789","lat":44.642640000000000100044417195022106170654296875,"lon":104.049970000000001846274244599044322967529296875,"poi_name":"Mandal-Ovoo","parent_id":"2029669","long":104.049970000000001846274244599044322967529296875},"10":{"id":"6618793","label":"Manlay","value":"6618793","lat":44.07401999999999731016941950656473636627197265625,"lon":106.8701899999999938017936074174940586090087890625,"poi_name":"Manlay","parent_id":"2029669","long":106.8701899999999938017936074174940586090087890625},"11":{"id":"2029819","label":"Nomgon Sum","value":"2029819","lat":42.4146199999999993224264471791684627532958984375,"lon":105.05639999999999645297066308557987213134765625,"poi_name":"Nomgon Sum","parent_id":"2029669","long":105.05639999999999645297066308557987213134765625},"12":{"id":"6618800","label":"Noyon","value":"6618800","lat":43.1687500000000028421709430404007434844970703125,"lon":102.13200000000000500222085975110530853271484375,"poi_name":"Noyon","parent_id":"2029669","long":102.13200000000000500222085975110530853271484375},"13":{"id":"6618799","label":"Sevrey","value":"6618799","lat":43.61160000000000280806489172391593456268310546875,"lon":102.5330000000000012505552149377763271331787109375,"poi_name":"Sevrey","parent_id":"2029669","long":102.5330000000000012505552149377763271331787109375},"14":{"id":"6618790","label":"Tsogt-Ovoo","value":"6618790","lat":44.41429000000000115733200800605118274688720703125,"lon":105.3211199999999934107108856551349163055419921875,"poi_name":"Tsogt-Ovoo","parent_id":"2029669","long":105.3211199999999934107108856551349163055419921875},"15":{"id":"6618792","label":"Tsogttsetsiy","value":"6618792","lat":43.64477000000000117552190204150974750518798828125,"lon":105.756110000000006721165846101939678192138671875,"poi_name":"Tsogttsetsiy","parent_id":"2029669","long":105.756110000000006721165846101939678192138671875}}