{"success":true,"remaining_lookups":8447,"0":{"id":"6618733","label":"Batnorov","value":"6618733","lat":47.94142000000000081172402133233845233917236328125,"lon":111.49783999999999650754034519195556640625,"poi_name":"Batnorov","parent_id":"2030783","long":111.49783999999999650754034519195556640625},"1":{"id":"6618729","label":"Batshireet","value":"6618729","lat":48.6764500000000026602720026858150959014892578125,"lon":110.18256999999999834471964277327060699462890625,"poi_name":"Batshireet","parent_id":"2030783","long":110.18256999999999834471964277327060699462890625},"2":{"id":"6618731","label":"Bayan-Adarga","value":"6618731","lat":48.5466100000000011505107977427542209625244140625,"lon":111.083449999999999135980033315718173980712890625,"poi_name":"Bayan-Adarga","parent_id":"2030783","long":111.083449999999999135980033315718173980712890625},"3":{"id":"6618734","label":"Bayan-Ovoo","value":"6618734","lat":47.77624999999999744204615126363933086395263671875,"lon":112.1158199999999993679011822678148746490478515625,"poi_name":"Bayan-Ovoo","parent_id":"2030783","long":112.1158199999999993679011822678148746490478515625},"4":{"id":"6618727","label":"Bayanhutag","value":"6618727","lat":47.16100999999999743295120424591004848480224609375,"lon":110.8166899999999941428541205823421478271484375,"poi_name":"Bayanhutag","parent_id":"2030783","long":110.8166899999999941428541205823421478271484375},"5":{"id":"6618720","label":"Bayanm\u00f6nh","value":"6618720","lat":46.894689999999997098711901344358921051025390625,"lon":109.74997999999999365172698162496089935302734375,"poi_name":"Bayanm\u00f6nh","parent_id":"2030783","long":109.74997999999999365172698162496089935302734375},"6":{"id":"6618730","label":"Binder","value":"6618730","lat":48.6118000000000023419488570652902126312255859375,"lon":110.6000499999999959754859446547925472259521484375,"poi_name":"Binder","parent_id":"2030783","long":110.6000499999999959754859446547925472259521484375},"7":{"id":"6618732","label":"Dadal","value":"6618732","lat":49.0090500000000020008883439004421234130859375,"lon":111.6334499999999962938090902753174304962158203125,"poi_name":"Dadal","parent_id":"2030783","long":111.6334499999999962938090902753174304962158203125},"8":{"id":"6618719","label":"Darhan","value":"6618719","lat":46.605580000000003337845555506646633148193359375,"lon":109.4169600000000031059244065545499324798583984375,"poi_name":"Darhan","parent_id":"2030783","long":109.4169600000000031059244065545499324798583984375},"9":{"id":"6988013","label":"Darhan Sum","value":"6988013","lat":46.59165999999999741021383670158684253692626953125,"lon":109.500889999999998281055013649165630340576171875,"poi_name":"Darhan Sum","parent_id":"2030783","long":109.500889999999998281055013649165630340576171875},"10":{"id":"6618721","label":"Delgerhaan","value":"6618721","lat":47.1738399999999984402165864594280719757080078125,"lon":109.1896799999999956298779579810798168182373046875,"poi_name":"Delgerhaan","parent_id":"2030783","long":109.1896799999999956298779579810798168182373046875},"11":{"id":"6618728","label":"Galshar","value":"6618728","lat":46.235669999999998935891198925673961639404296875,"lon":110.8348799999999982901499606668949127197265625,"poi_name":"Galshar","parent_id":"2030783","long":110.8348799999999982901499606668949127197265625},"12":{"id":"6618726","label":"Herlen","value":"6618726","lat":47.3381200000000035288394428789615631103515625,"lon":110.68004999999999427018337883055210113525390625,"poi_name":"Herlen","parent_id":"2030783","long":110.68004999999999427018337883055210113525390625},"13":{"id":"6618722","label":"Jargalthaan","value":"6618722","lat":47.48913999999999902001945883966982364654541015625,"lon":109.4730899999999991223376127891242504119873046875,"poi_name":"Jargalthaan","parent_id":"2030783","long":109.4730899999999991223376127891242504119873046875},"14":{"id":"6618725","label":"M\u00f6r\u00f6n","value":"6618725","lat":47.37557000000000329009708366356790065765380859375,"lon":110.3166400000000066938810050487518310546875,"poi_name":"M\u00f6r\u00f6n","parent_id":"2030783","long":110.3166400000000066938810050487518310546875},"15":{"id":"6618735","label":"Norovlin","value":"6618735","lat":48.68484000000000122554411063902080059051513671875,"lon":111.994630000000000791260390542447566986083984375,"poi_name":"Norovlin","parent_id":"2030783","long":111.994630000000000791260390542447566986083984375},"16":{"id":"6618723","label":"Tsenhermandal","value":"6618723","lat":47.7388600000000025147528504021465778350830078125,"lon":109.0502900000000039426595321856439113616943359375,"poi_name":"Tsenhermandal","parent_id":"2030783","long":109.0502900000000039426595321856439113616943359375},"17":{"id":"6618715","label":"\u00d6mn\u00f6delger","value":"6618715","lat":47.860860000000002401066012680530548095703125,"lon":109.9164999999999992041921359486877918243408203125,"poi_name":"\u00d6mn\u00f6delger","parent_id":"2030783","long":109.9164999999999992041921359486877918243408203125}}