{"success":true,"remaining_lookups":8453,"0":{"id":"6618700","label":"Bayan-Uul","value":"6618700","lat":49.1455600000000032423486118204891681671142578125,"lon":112.73448999999999387000571005046367645263671875,"poi_name":"Bayan-Uul","parent_id":"2031799","long":112.73448999999999387000571005046367645263671875},"1":{"id":"6618699","label":"Bayandun","value":"6618699","lat":49.24080000000000012505552149377763271331787109375,"lon":113.373930000000001427906681783497333526611328125,"poi_name":"Bayandun","parent_id":"2031799","long":113.373930000000001427906681783497333526611328125},"2":{"id":"6618690","label":"Bayant\u00fcmen","value":"6618690","lat":48.0448099999999982401277520693838596343994140625,"lon":114.366299999999995407051756046712398529052734375,"poi_name":"Bayant\u00fcmen","parent_id":"2031799","long":114.366299999999995407051756046712398529052734375},"3":{"id":"6988033","label":"Bayant\u00fcmen Sum","value":"6988033","lat":48.00831000000000159388946485705673694610595703125,"lon":114.9169299999999935835148789919912815093994140625,"poi_name":"Bayant\u00fcmen Sum","parent_id":"2031799","long":114.9169299999999935835148789919912815093994140625},"4":{"id":"6618691","label":"Bulgan","value":"6618691","lat":47.99452000000000140289557748474180698394775390625,"lon":113.933369999999996480255504138767719268798828125,"poi_name":"Bulgan","parent_id":"2031799","long":113.933369999999996480255504138767719268798828125},"5":{"id":"6618693","label":"Choybalsan","value":"6618693","lat":48.42851999999999890178514760918915271759033203125,"lon":114.86687000000000580257619731128215789794921875,"poi_name":"Choybalsan","parent_id":"2031799","long":114.86687000000000580257619731128215789794921875},"6":{"id":"6988038","label":"Choybalsan Sum","value":"6988038","lat":48.89034000000000190766513696871697902679443359375,"lon":115.506110000000006721165846101939678192138671875,"poi_name":"Choybalsan Sum","parent_id":"2031799","long":115.506110000000006721165846101939678192138671875},"7":{"id":"6618694","label":"Chuluunhoroot","value":"6618694","lat":49.85304000000000002046363078989088535308837890625,"lon":115.7176199999999965939423418603837490081787109375,"poi_name":"Chuluunhoroot","parent_id":"2031799","long":115.7176199999999965939423418603837490081787109375},"8":{"id":"6618695","label":"Dashbalbar","value":"6618695","lat":49.5383599999999972851583152078092098236083984375,"lon":114.4028699999999929559635347686707973480224609375,"poi_name":"Dashbalbar","parent_id":"2031799","long":114.4028699999999929559635347686707973480224609375},"9":{"id":"6618696","label":"Gurvandzagal","value":"6618696","lat":49.12713999999999714418663643300533294677734375,"lon":114.8829999999999955662133288569748401641845703125,"poi_name":"Gurvandzagal","parent_id":"2031799","long":114.8829999999999955662133288569748401641845703125},"10":{"id":"6988042","label":"Gurvanzagal Sum","value":"6988042","lat":49.18066999999999922010829322971403598785400390625,"lon":114.9406000000000034333424991928040981292724609375,"poi_name":"Gurvanzagal Sum","parent_id":"2031799","long":114.9406000000000034333424991928040981292724609375},"11":{"id":"6618688","label":"Halhgol","value":"6618688","lat":47.62733999999999667807060177437961101531982421875,"lon":118.6178400000000010550138540565967559814453125,"poi_name":"Halhgol","parent_id":"2031799","long":118.6178400000000010550138540565967559814453125},"12":{"id":"6618701","label":"Herlen","value":"6618701","lat":48.058120000000002391971065662801265716552734375,"lon":114.49882999999999810825102031230926513671875,"poi_name":"Herlen","parent_id":"2031799","long":114.49882999999999810825102031230926513671875},"13":{"id":"6618692","label":"H\u00f6l\u00f6nbuyr","value":"6618692","lat":47.90852000000000288082446786575019359588623046875,"lon":112.9504400000000003956301952712237834930419921875,"poi_name":"H\u00f6l\u00f6nbuyr","parent_id":"2031799","long":112.9504400000000003956301952712237834930419921875},"14":{"id":"10375939","label":"Kherlen","value":"10375939","lat":48.13730000000000330828697769902646541595458984375,"lon":114.552940000000006648406269960105419158935546875,"poi_name":"Kherlen","parent_id":"2031799","long":114.552940000000006648406269960105419158935546875},"15":{"id":"10375940","label":"Kh\u00f6l\u00f6nbuir","value":"10375940","lat":47.92611000000000132104105432517826557159423828125,"lon":112.961669999999998026396497152745723724365234375,"poi_name":"Kh\u00f6l\u00f6nbuir","parent_id":"2031799","long":112.961669999999998026396497152745723724365234375},"16":{"id":"6618689","label":"Matad","value":"6618689","lat":47.14513000000000175759851117618381977081298828125,"lon":115.5332599999999985129761626012623310089111328125,"poi_name":"Matad","parent_id":"2031799","long":115.5332599999999985129761626012623310089111328125},"17":{"id":"6618697","label":"Sergelen","value":"6618697","lat":48.55366000000000070713213062845170497894287109375,"lon":114.084779999999994970494299195706844329833984375,"poi_name":"Sergelen","parent_id":"2031799","long":114.084779999999994970494299195706844329833984375},"18":{"id":"6618698","label":"Tsagaan-Ovoo","value":"6618698","lat":48.3950200000000023692336981184780597686767578125,"lon":113.4331499999999977035258780233561992645263671875,"poi_name":"Tsagaan-Ovoo","parent_id":"2031799","long":113.4331499999999977035258780233561992645263671875},"19":{"id":"6988036","label":"Tsagaan-Ovoo Sum","value":"6988036","lat":48.440010000000000900399754755198955535888671875,"lon":113.1252099999999956025931169278919696807861328125,"poi_name":"Tsagaan-Ovoo Sum","parent_id":"2031799","long":113.1252099999999956025931169278919696807861328125}}