{"success":true,"remaining_lookups":8451,"0":{"id":"6618808","label":"Adaatsag","value":"6618808","lat":46.383409999999997808117768727242946624755859375,"lon":105.7348300000000023146640160121023654937744140625,"poi_name":"Adaatsag","parent_id":"2031740","long":105.7348300000000023146640160121023654937744140625},"1":{"id":"6618813","label":"Bayanjargalan","value":"6618813","lat":45.75650999999999868350641918368637561798095703125,"lon":107.9837600000000037425706977955996990203857421875,"poi_name":"Bayanjargalan","parent_id":"2031740","long":107.9837600000000037425706977955996990203857421875},"2":{"id":"6618804","label":"Delgerhangay","value":"6618804","lat":45.2374300000000033605829230509698390960693359375,"lon":104.8051099999999991041477187536656856536865234375,"poi_name":"Delgerhangay","parent_id":"2031740","long":104.8051099999999991041477187536656856536865234375},"3":{"id":"6618809","label":"Delgertsogt","value":"6618809","lat":46.11905999999999750116330687887966632843017578125,"lon":106.373750000000001136868377216160297393798828125,"poi_name":"Delgertsogt","parent_id":"2031740","long":106.373750000000001136868377216160297393798828125},"4":{"id":"6618810","label":"Deren","value":"6618810","lat":46.17436000000000007048583938740193843841552734375,"lon":106.7163800000000009049472282640635967254638671875,"poi_name":"Deren","parent_id":"2031740","long":106.7163800000000009049472282640635967254638671875},"5":{"id":"6618807","label":"Erdenedalay","value":"6618807","lat":45.996250000000003410605131648480892181396484375,"lon":104.942779999999999063220457173883914947509765625,"poi_name":"Erdenedalay","parent_id":"2031740","long":104.942779999999999063220457173883914947509765625},"6":{"id":"6618812","label":"Gov\u012d-Ugtaal","value":"6618812","lat":46.0341599999999999681676854379475116729736328125,"lon":107.4909200000000026875568437390029430389404296875,"poi_name":"Gov\u012d-Ugtaal","parent_id":"2031740","long":107.4909200000000026875568437390029430389404296875},"7":{"id":"6618814","label":"Gurvansayhan","value":"6618814","lat":45.5249900000000025102053768932819366455078125,"lon":107.0456300000000027239366318099200725555419921875,"poi_name":"Gurvansayhan","parent_id":"2031740","long":107.0456300000000027239366318099200725555419921875},"8":{"id":"6618805","label":"Huld","value":"6618805","lat":45.0407799999999980400389176793396472930908203125,"lon":105.566249999999996589394868351519107818603515625,"poi_name":"Huld","parent_id":"2031740","long":105.566249999999996589394868351519107818603515625},"9":{"id":"6618806","label":"Luus","value":"6618806","lat":45.50177999999999656211002729833126068115234375,"lon":105.7557699999999982765075401403009891510009765625,"poi_name":"Luus","parent_id":"2031740","long":105.7557699999999982765075401403009891510009765625},"10":{"id":"6618817","label":"Saintsagaan","value":"6618817","lat":45.75099999999999766941982670687139034271240234375,"lon":106.2714399999999983492671162821352481842041015625,"poi_name":"Saintsagaan","parent_id":"2031740","long":106.2714399999999983492671162821352481842041015625},"11":{"id":"6618803","label":"Sayhan-Ovoo","value":"6618803","lat":45.4463999999999970214048516936600208282470703125,"lon":103.8997700000000037334757507778704166412353515625,"poi_name":"Sayhan-Ovoo","parent_id":"2031740","long":103.8997700000000037334757507778704166412353515625},"12":{"id":"6997600","label":"Sayntsagaan Sum","value":"6997600","lat":45.7585600000000027876012609340250492095947265625,"lon":106.363560000000006766640581190586090087890625,"poi_name":"Sayntsagaan Sum","parent_id":"2031740","long":106.363560000000006766640581190586090087890625},"13":{"id":"6618769","label":"S\u00fcmber","value":"6618769","lat":46.3421900000000022146195988170802593231201171875,"lon":108.362269999999995206962921656668186187744140625,"poi_name":"S\u00fcmber","parent_id":"2031740","long":108.362269999999995206962921656668186187744140625},"14":{"id":"6618811","label":"Tsagaandelger","value":"6618811","lat":46.40614000000000061163518694229423999786376953125,"lon":107.6509099999999961028152029030025005340576171875,"poi_name":"Tsagaandelger","parent_id":"2031740","long":107.6509099999999961028152029030025005340576171875},"15":{"id":"6618816","label":"\u00d6ldziyt","value":"6618816","lat":45.29059000000000168029146152548491954803466796875,"lon":106.1989999999999980673237587325274944305419921875,"poi_name":"\u00d6ldziyt","parent_id":"2031740","long":106.1989999999999980673237587325274944305419921875},"16":{"id":"6987992","label":"\u00d6ldziyt Sum","value":"6987992","lat":44.79343999999999681449480704031884670257568359375,"lon":106.6724300000000056343196774832904338836669921875,"poi_name":"\u00d6ldziyt Sum","parent_id":"2031740","long":106.6724300000000056343196774832904338836669921875},"17":{"id":"6618815","label":"\u00d6nd\u00f6rshil","value":"6618815","lat":45.22194999999999964757080306299030780792236328125,"lon":108.282790000000005647962098009884357452392578125,"poi_name":"\u00d6nd\u00f6rshil","parent_id":"2031740","long":108.282790000000005647962098009884357452392578125}}