{"success":true,"remaining_lookups":8458,"0":{"id":"6619035","label":"Battsengel","value":"6619035","lat":47.7880200000000030513547244481742382049560546875,"lon":101.9721799999999944930095807649195194244384765625,"poi_name":"Battsengel","parent_id":"2032855","long":101.9721799999999944930095807649195194244384765625},"1":{"id":"6619029","label":"Bulgan","value":"6619029","lat":47.31503000000000014324541552923619747161865234375,"lon":101.115849999999994679455994628369808197021484375,"poi_name":"Bulgan","parent_id":"2032855","long":101.115849999999994679455994628369808197021484375},"2":{"id":"6987826","label":"Bulgan Sum","value":"6987826","lat":47.2089399999999983492671162821352481842041015625,"lon":101.130009999999998626663000322878360748291015625,"poi_name":"Bulgan Sum","parent_id":"2032855","long":101.130009999999998626663000322878360748291015625},"3":{"id":"6619026","label":"Chuluut","value":"6619026","lat":47.52971999999999752617441117763519287109375,"lon":100.216939999999993915480445139110088348388671875,"poi_name":"Chuluut","parent_id":"2032855","long":100.216939999999993915480445139110088348388671875},"4":{"id":"6619023","label":"Erdenebulgan","value":"6619023","lat":47.47149999999999891997504164464771747589111328125,"lon":101.457369999999997389750205911695957183837890625,"poi_name":"Erdenebulgan","parent_id":"2032855","long":101.457369999999997389750205911695957183837890625},"5":{"id":"6998261","label":"Erdenebulgan Sum","value":"6998261","lat":47.44727999999999923375071375630795955657958984375,"lon":101.5125699999999966394170769490301609039306640625,"poi_name":"Erdenebulgan Sum","parent_id":"2032855","long":101.5125699999999966394170769490301609039306640625},"6":{"id":"6619021","label":"Erdenemandal","value":"6619021","lat":48.523200000000002773958840407431125640869140625,"lon":101.3735999999999961573848850093781948089599609375,"poi_name":"Erdenemandal","parent_id":"2032855","long":101.3735999999999961573848850093781948089599609375},"7":{"id":"6619027","label":"Hangay","value":"6619027","lat":47.86178000000000309910319629125297069549560546875,"lon":99.4660899999999941201167530380189418792724609375,"poi_name":"Hangay","parent_id":"2032855","long":99.4660899999999941201167530380189418792724609375},"8":{"id":"6619033","label":"Hashaat","value":"6619033","lat":47.44527000000000072077455115504562854766845703125,"lon":103.1502899999999982583176461048424243927001953125,"poi_name":"Hashaat","parent_id":"2032855","long":103.1502899999999982583176461048424243927001953125},"9":{"id":"6619022","label":"Hayrhan","value":"6619022","lat":48.60363000000000255340637522749602794647216796875,"lon":101.9349299999999942656359053216874599456787109375,"poi_name":"Hayrhan","parent_id":"2032855","long":101.9349299999999942656359053216874599456787109375},"10":{"id":"6619032","label":"Hotont","value":"6619032","lat":47.35976000000000141199052450247108936309814453125,"lon":102.4684500000000042518877307884395122528076171875,"poi_name":"Hotont","parent_id":"2032855","long":102.4684500000000042518877307884395122528076171875},"11":{"id":"6619024","label":"Ihtamir","value":"6619024","lat":47.48971999999999837882569408975541591644287109375,"lon":100.8795499999999947249307297170162200927734375,"poi_name":"Ihtamir","parent_id":"2032855","long":100.8795499999999947249307297170162200927734375},"12":{"id":"6619020","label":"Jargalant","value":"6619020","lat":48.72867999999999710780684836208820343017578125,"lon":100.7623099999999993769961292855441570281982421875,"poi_name":"Jargalant","parent_id":"2032855","long":100.7623099999999993769961292855441570281982421875},"13":{"id":"7667597","label":"Khairkhan","value":"7667597","lat":48.60667000000000115278453449718654155731201171875,"lon":101.9369400000000069894667831249535083770751953125,"poi_name":"Khairkhan","parent_id":"2032855","long":101.9369400000000069894667831249535083770751953125},"14":{"id":"6618894","label":"Rashaant","value":"6618894","lat":47.34976000000000340151018463075160980224609375,"lon":103.43524999999999636202119290828704833984375,"poi_name":"Rashaant","parent_id":"2032855","long":103.43524999999999636202119290828704833984375},"15":{"id":"1515709","label":"Tariat Sum","value":"1515709","lat":48.223939999999998917701304890215396881103515625,"lon":99.861819999999994479367160238325595855712890625,"poi_name":"Tariat Sum","parent_id":"2032855","long":99.861819999999994479367160238325595855712890625},"16":{"id":"6619028","label":"Tsahir","value":"6619028","lat":48.0709700000000026420821086503565311431884765625,"lon":98.8505200000000030513547244481742382049560546875,"poi_name":"Tsahir","parent_id":"2032855","long":98.8505200000000030513547244481742382049560546875},"17":{"id":"6619030","label":"Tsenher","value":"6619030","lat":47.4449800000000010413714335300028324127197265625,"lon":101.7548599999999936471795081160962581634521484375,"poi_name":"Tsenher","parent_id":"2032855","long":101.7548599999999936471795081160962581634521484375},"18":{"id":"6619019","label":"Tsetserleg","value":"6619019","lat":48.87622999999999962028596200980246067047119140625,"lon":101.2391899999999935744199319742619991302490234375,"poi_name":"Tsetserleg","parent_id":"2032855","long":101.2391899999999935744199319742619991302490234375},"19":{"id":"6619031","label":"T\u00fcvshr\u00fc\u00fcleh","value":"6619031","lat":47.37476000000000198042471311055123805999755859375,"lon":101.90832000000000334694050252437591552734375,"poi_name":"T\u00fcvshr\u00fc\u00fcleh","parent_id":"2032855","long":101.90832000000000334694050252437591552734375},"20":{"id":"6619034","label":"\u00d6giynuur","value":"6619034","lat":47.66029999999999944293449516408145427703857421875,"lon":102.550510000000002719389158301055431365966796875,"poi_name":"\u00d6giynuur","parent_id":"2032855","long":102.550510000000002719389158301055431365966796875},"21":{"id":"6619036","label":"\u00d6ldziyt","value":"6619036","lat":48.0979200000000020054358174093067646026611328125,"lon":102.55702999999999747160472907125949859619140625,"poi_name":"\u00d6ldziyt","parent_id":"2032855","long":102.55702999999999747160472907125949859619140625},"22":{"id":"6619025","label":"\u00d6nd\u00f6r-Ulaan","value":"6619025","lat":48.0395299999999991769072948954999446868896484375,"lon":100.508769999999998390194377861917018890380859375,"poi_name":"\u00d6nd\u00f6r-Ulaan","parent_id":"2032855","long":100.508769999999998390194377861917018890380859375}}