{"success":true,"remaining_lookups":9834,"0":{"id":"624028","label":"Asipovitski Rayon","value":"624028","lat":53.33332999999999657347871107049286365509033203125,"lon":28.75,"poi_name":"Asipovitski Rayon","parent_id":"625073","long":28.75},"1":{"id":"630046","label":"Babruyski Rayon","value":"630046","lat":53.08332999999999657347871107049286365509033203125,"lon":29.166669999999999873807610129006206989288330078125,"poi_name":"Babruyski Rayon","parent_id":"625073","long":29.166669999999999873807610129006206989288330078125},"2":{"id":"630244","label":"Byalynitski Rayon","value":"630244","lat":54,"lon":29.75,"poi_name":"Byalynitski Rayon","parent_id":"625073","long":29.75},"3":{"id":"629443","label":"Bykhawski Rayon","value":"629443","lat":53.5,"lon":30.25,"poi_name":"Bykhawski Rayon","parent_id":"625073","long":30.25},"4":{"id":"629396","label":"Chavuski Rayon","value":"629396","lat":53.83332999999999657347871107049286365509033203125,"lon":30.916669999999999873807610129006206989288330078125,"poi_name":"Chavuski Rayon","parent_id":"625073","long":30.916669999999999873807610129006206989288330078125},"5":{"id":"629346","label":"Cherykawski Rayon","value":"629346","lat":53.66667000000000342652128892950713634490966796875,"lon":31.333330000000000126192389870993793010711669921875,"poi_name":"Cherykawski Rayon","parent_id":"625073","long":31.333330000000000126192389870993793010711669921875},"6":{"id":"828843","label":"Drybinski Rayon","value":"828843","lat":54.08332999999999657347871107049286365509033203125,"lon":31,"poi_name":"Drybinski Rayon","parent_id":"625073","long":31},"7":{"id":"628386","label":"Hluski Rayon","value":"628386","lat":52.91667000000000342652128892950713634490966796875,"lon":28.666669999999999873807610129006206989288330078125,"poi_name":"Hluski Rayon","parent_id":"625073","long":28.666669999999999873807610129006206989288330078125},"8":{"id":"828919","label":"Horad Asipovichy","value":"828919","lat":53.293329999999997426129993982613086700439453125,"lon":28.642219999999998236717146937735378742218017578125,"poi_name":"Horad Asipovichy","parent_id":"625073","long":28.642219999999998236717146937735378742218017578125},"9":{"id":"628237","label":"Horatski Rayon","value":"628237","lat":54.33332999999999657347871107049286365509033203125,"lon":31,"poi_name":"Horatski Rayon","parent_id":"625073","long":31},"10":{"id":"626807","label":"Kastsyukovitski Rayon","value":"626807","lat":53.33332999999999657347871107049286365509033203125,"lon":32,"poi_name":"Kastsyukovitski Rayon","parent_id":"625073","long":32},"11":{"id":"627380","label":"Khotsimski Rayon","value":"627380","lat":53.41667000000000342652128892950713634490966796875,"lon":32.5,"poi_name":"Khotsimski Rayon","parent_id":"625073","long":32.5},"12":{"id":"7874038","label":"Kirawsk","value":"7874038","lat":53.2729199999999991632648743689060211181640625,"lon":29.4742600000000010140865924768149852752685546875,"poi_name":"Kirawsk","parent_id":"625073","long":29.4742600000000010140865924768149852752685546875},"13":{"id":"627271","label":"Kirawski Rayon","value":"627271","lat":53.33332999999999657347871107049286365509033203125,"lon":29.5,"poi_name":"Kirawski Rayon","parent_id":"625073","long":29.5},"14":{"id":"627204","label":"Klichawski Rayon","value":"627204","lat":53.5,"lon":29.333330000000000126192389870993793010711669921875,"poi_name":"Klichawski Rayon","parent_id":"625073","long":29.333330000000000126192389870993793010711669921875},"15":{"id":"627199","label":"Klimavitski Rayon","value":"627199","lat":53.58332999999999657347871107049286365509033203125,"lon":32,"poi_name":"Klimavitski Rayon","parent_id":"625073","long":32},"16":{"id":"626626","label":"Krasnapol\u2019ski Rayon","value":"626626","lat":53.33332999999999657347871107049286365509033203125,"lon":31.416669999999999873807610129006206989288330078125,"poi_name":"Krasnapol\u2019ski Rayon","parent_id":"625073","long":31.416669999999999873807610129006206989288330078125},"17":{"id":"626490","label":"Kruhlyanski Rayon","value":"626490","lat":54.16667000000000342652128892950713634490966796875,"lon":29.666669999999999873807610129006206989288330078125,"poi_name":"Kruhlyanski Rayon","parent_id":"625073","long":29.666669999999999873807610129006206989288330078125},"18":{"id":"626545","label":"Krychawski Rayon","value":"626545","lat":53.75,"lon":31.666669999999999873807610129006206989288330078125,"poi_name":"Krychawski Rayon","parent_id":"625073","long":31.666669999999999873807610129006206989288330078125},"19":{"id":"828917","label":"Mahilyow","value":"828917","lat":53.91389000000000208956407732330262660980224609375,"lon":30.33639000000000152112988871522247791290283203125,"poi_name":"Mahilyow","parent_id":"625073","long":30.33639000000000152112988871522247791290283203125},"20":{"id":"625072","label":"Mahilyowski Rayon","value":"625072","lat":53.83332999999999657347871107049286365509033203125,"lon":30.25,"poi_name":"Mahilyowski Rayon","parent_id":"625073","long":30.25},"21":{"id":"624891","label":"Mstsislawski Rayon","value":"624891","lat":54,"lon":31.5,"poi_name":"Mstsislawski Rayon","parent_id":"625073","long":31.5},"22":{"id":"622033","label":"Shklowski Rayon","value":"622033","lat":54.16667000000000342652128892950713634490966796875,"lon":30.333330000000000126192389870993793010711669921875,"poi_name":"Shklowski Rayon","parent_id":"625073","long":30.333330000000000126192389870993793010711669921875},"23":{"id":"621846","label":"Slawharadski Rayon","value":"621846","lat":53.5,"lon":31,"poi_name":"Slawharadski Rayon","parent_id":"625073","long":31}}