{"success":true,"remaining_lookups":9835,"0":{"id":"828907","label":"Barysaw","value":"828907","lat":54.225560000000001537046045996248722076416015625,"lon":28.491389999999999105284587130881845951080322265625,"poi_name":"Barysaw","parent_id":"625142","long":28.491389999999999105284587130881845951080322265625},"1":{"id":"629799","label":"Barysawski Rayon","value":"629799","lat":54.33332999999999657347871107049286365509033203125,"lon":28.583330000000000126192389870993793010711669921875,"poi_name":"Barysawski Rayon","parent_id":"625142","long":28.583330000000000126192389870993793010711669921875},"2":{"id":"630193","label":"Byarezinski Rayon","value":"630193","lat":53.83332999999999657347871107049286365509033203125,"lon":29,"poi_name":"Byarezinski Rayon","parent_id":"625142","long":29},"3":{"id":"629270","label":"Chervyen\u2019ski Rayon","value":"629270","lat":53.75,"lon":28.5,"poi_name":"Chervyen\u2019ski Rayon","parent_id":"625142","long":28.5},"4":{"id":"628641","label":"Dzyarzhynski Rayon","value":"628641","lat":53.75,"lon":27.166669999999999873807610129006206989288330078125,"poi_name":"Dzyarzhynski Rayon","parent_id":"625142","long":27.166669999999999873807610129006206989288330078125},"5":{"id":"828910","label":"Horad Dzyarzhynsk","value":"828910","lat":53.68500000000000227373675443232059478759765625,"lon":27.141940000000001731450538500212132930755615234375,"poi_name":"Horad Dzyarzhynsk","parent_id":"625142","long":27.141940000000001731450538500212132930755615234375},"6":{"id":"828914","label":"Horad Maladzyechna","value":"828914","lat":54.3166700000000020054358174093067646026611328125,"lon":26.849720000000001363105184282176196575164794921875,"poi_name":"Horad Maladzyechna","parent_id":"625142","long":26.849720000000001363105184282176196575164794921875},"7":{"id":"828916","label":"Horad Salihorsk","value":"828916","lat":52.7999999999999971578290569595992565155029296875,"lon":27.53332999999999941564965411089360713958740234375,"poi_name":"Horad Salihorsk","parent_id":"625142","long":27.53332999999999941564965411089360713958740234375},"8":{"id":"828915","label":"Horad Slutsk","value":"828915","lat":53.02721999999999979991116560995578765869140625,"lon":27.56193999999999988403942552395164966583251953125,"poi_name":"Horad Slutsk","parent_id":"625142","long":27.56193999999999988403942552395164966583251953125},"9":{"id":"828908","label":"Horad Vilyeyka","value":"828908","lat":54.49750000000000227373675443232059478759765625,"lon":26.921109999999998763087205588817596435546875,"poi_name":"Horad Vilyeyka","parent_id":"625142","long":26.921109999999998763087205588817596435546875},"10":{"id":"828913","label":"Horad Zaslawye","value":"828913","lat":54,"lon":27.28332999999999941564965411089360713958740234375,"poi_name":"Horad Zaslawye","parent_id":"625142","long":27.28332999999999941564965411089360713958740234375},"11":{"id":"626951","label":"Kapyl\u2019ski Rayon","value":"626951","lat":53.16667000000000342652128892950713634490966796875,"lon":27.083330000000000126192389870993793010711669921875,"poi_name":"Kapyl\u2019ski Rayon","parent_id":"625142","long":27.083330000000000126192389870993793010711669921875},"12":{"id":"627213","label":"Klyetski Rayon","value":"627213","lat":53,"lon":26.666669999999999873807610129006206989288330078125,"poi_name":"Klyetski Rayon","parent_id":"625142","long":26.666669999999999873807610129006206989288330078125},"13":{"id":"626463","label":"Krupski Rayon","value":"626463","lat":54.33332999999999657347871107049286365509033203125,"lon":29.166669999999999873807610129006206989288330078125,"poi_name":"Krupski Rayon","parent_id":"625142","long":29.166669999999999873807610129006206989288330078125},"14":{"id":"625971","label":"Lahoyski Rayon","value":"625971","lat":54.33332999999999657347871107049286365509033203125,"lon":27.75,"poi_name":"Lahoyski Rayon","parent_id":"625142","long":27.75},"15":{"id":"625717","label":"Lyubanski Rayon","value":"625717","lat":52.75,"lon":28,"poi_name":"Lyubanski Rayon","parent_id":"625142","long":28},"16":{"id":"625025","label":"Maladzyechanski Rayon","value":"625025","lat":54.25,"lon":26.833330000000000126192389870993793010711669921875,"poi_name":"Maladzyechanski Rayon","parent_id":"625142","long":26.833330000000000126192389870993793010711669921875},"17":{"id":"625140","label":"Minski Rayon","value":"625140","lat":53.83332999999999657347871107049286365509033203125,"lon":27.583330000000000126192389870993793010711669921875,"poi_name":"Minski Rayon","parent_id":"625142","long":27.583330000000000126192389870993793010711669921875},"18":{"id":"829413","label":"Molodechnenskij Rajon","value":"829413","lat":54.75,"lon":26.75,"poi_name":"Molodechnenskij Rajon","parent_id":"625142","long":26.75},"19":{"id":"624858","label":"Myadzyel\u2019ski Rayon","value":"624858","lat":54.83332999999999657347871107049286365509033203125,"lon":27,"poi_name":"Myadzyel\u2019ski Rayon","parent_id":"625142","long":27},"20":{"id":"624699","label":"Nyasvizhski Rayon","value":"624699","lat":53.25,"lon":26.666669999999999873807610129006206989288330078125,"poi_name":"Nyasvizhski Rayon","parent_id":"625142","long":26.666669999999999873807610129006206989288330078125},"21":{"id":"622968","label":"Pukhavichy Raion","value":"622968","lat":53.5,"lon":28,"poi_name":"Pukhavichy Raion","parent_id":"625142","long":28},"22":{"id":"621664","label":"Salihorski Rayon","value":"621664","lat":52.66667000000000342652128892950713634490966796875,"lon":27.416669999999999873807610129006206989288330078125,"poi_name":"Salihorski Rayon","parent_id":"625142","long":27.416669999999999873807610129006206989288330078125},"23":{"id":"621740","label":"Slutski Rayon","value":"621740","lat":53,"lon":27.666669999999999873807610129006206989288330078125,"poi_name":"Slutski Rayon","parent_id":"625142","long":27.666669999999999873807610129006206989288330078125},"24":{"id":"621728","label":"Smalyavitski Rayon","value":"621728","lat":54,"lon":28.166669999999999873807610129006206989288330078125,"poi_name":"Smalyavitski Rayon","parent_id":"625142","long":28.166669999999999873807610129006206989288330078125},"25":{"id":"621460","label":"Staradarozhski Rayon","value":"621460","lat":53,"lon":28.166669999999999873807610129006206989288330078125,"poi_name":"Staradarozhski Rayon","parent_id":"625142","long":28.166669999999999873807610129006206989288330078125},"26":{"id":"621281","label":"Stawbtsowski Rayon","value":"621281","lat":53.58332999999999657347871107049286365509033203125,"lon":26.666669999999999873807610129006206989288330078125,"poi_name":"Stawbtsowski Rayon","parent_id":"625142","long":26.666669999999999873807610129006206989288330078125},"27":{"id":"620482","label":"Uzdzyenski Rayon","value":"620482","lat":53.41667000000000342652128892950713634490966796875,"lon":27.333330000000000126192389870993793010711669921875,"poi_name":"Uzdzyenski Rayon","parent_id":"625142","long":27.333330000000000126192389870993793010711669921875},"28":{"id":"620025","label":"Valozhynski Rayon","value":"620025","lat":54.03611000000000075260686571709811687469482421875,"lon":26.622219999999998663042788393795490264892578125,"poi_name":"Valozhynski Rayon","parent_id":"625142","long":26.622219999999998663042788393795490264892578125},"29":{"id":"620178","label":"Vilyeyski Rayon","value":"620178","lat":54.5,"lon":27.083330000000000126192389870993793010711669921875,"poi_name":"Vilyeyski Rayon","parent_id":"625142","long":27.083330000000000126192389870993793010711669921875}}