{"success":true,"remaining_lookups":8217,"0":{"id":"8309748","label":"Astor","value":"8309748","lat":35.3135199999999969122654874809086322784423828125,"lon":74.92387999999999692590790800750255584716796875,"poi_name":"Astor","parent_id":"1168878","long":74.92387999999999692590790800750255584716796875},"1":{"id":"11744817","label":"Astore Division","value":"11744817","lat":35.35087999999999652800397598184645175933837890625,"lon":74.3688300000000026557245291769504547119140625,"poi_name":"Astore Division","parent_id":"1168878","long":74.3688300000000026557245291769504547119140625},"2":{"id":"8358421","label":"Diam\u012br","value":"8358421","lat":35.53408999999999906549419392831623554229736328125,"lon":74.0328700000000026193447411060333251953125,"poi_name":"Diam\u012br","parent_id":"1168878","long":74.0328700000000026193447411060333251953125},"3":{"id":"7419077","label":"Ghanche District","value":"7419077","lat":35.216949999999997089616954326629638671875,"lon":76.4242899999999991678123478777706623077392578125,"poi_name":"Ghanche District","parent_id":"1168878","long":76.4242899999999991678123478777706623077392578125},"4":{"id":"7419057","label":"Ghizar District","value":"7419057","lat":36.2919600000000031059244065545499324798583984375,"lon":73.4310200000000037334757507778704166412353515625,"poi_name":"Ghizar District","parent_id":"1168878","long":73.4310200000000037334757507778704166412353515625},"5":{"id":"11594770","label":"Ghizer District","value":"11594770","lat":36.16669999999999873807610129006206989288330078125,"lon":73.75,"poi_name":"Ghizer District","parent_id":"1168878","long":73.75},"6":{"id":"8358419","label":"Gilgit","value":"8358419","lat":35.88013000000000118916432256810367107391357421875,"lon":74.412319999999994024619809351861476898193359375,"poi_name":"Gilgit","parent_id":"1168878","long":74.412319999999994024619809351861476898193359375},"7":{"id":"1176775","label":"Hunza-Nagar District","value":"1176775","lat":36.49721000000000259433363680727779865264892578125,"lon":75.0041400000000066938810050487518310546875,"poi_name":"Hunza-Nagar District","parent_id":"1168878","long":75.0041400000000066938810050487518310546875},"8":{"id":"1183615","label":"Sk\u0101rdu District","value":"1183615","lat":35.40115999999999729652699897997081279754638671875,"lon":75.62632999999999583451426587998867034912109375,"poi_name":"Sk\u0101rdu District","parent_id":"1168878","long":75.62632999999999583451426587998867034912109375}}