{"success":true,"remaining_lookups":8218,"0":{"id":"7419043","label":"Bannu Tribal Area","value":"7419043","lat":33.11444000000000187355908565223217010498046875,"lon":70.608699999999998908606357872486114501953125,"poi_name":"Bannu Tribal Area","parent_id":"1179245","long":70.608699999999998908606357872486114501953125},"1":{"id":"1183781","label":"B\u0101jaur Agency","value":"1183781","lat":34.75731999999999999317878973670303821563720703125,"lon":71.490669999999994388417690061032772064208984375,"poi_name":"B\u0101jaur Agency","parent_id":"1179245","long":71.490669999999994388417690061032772064208984375},"2":{"id":"7732203","label":"Chawkay","value":"7732203","lat":34.50502000000000180079950951039791107177734375,"lon":71.1598099999999931242200545966625213623046875,"poi_name":"Chawkay","parent_id":"1179245","long":71.1598099999999931242200545966625213623046875},"3":{"id":"1180280","label":"Dera Ism\u0101\u012bl Kh\u0101n Tribal Area","value":"1180280","lat":31.556869999999999976125764078460633754730224609375,"lon":70.1648500000000012732925824820995330810546875,"poi_name":"Dera Ism\u0101\u012bl Kh\u0101n Tribal Area","parent_id":"1179245","long":70.1648500000000012732925824820995330810546875},"4":{"id":"1173641","label":"Khyber Agency","value":"1173641","lat":33.961129999999997153281583450734615325927734375,"lon":71.0576999999999969759301166050136089324951171875,"poi_name":"Khyber Agency","parent_id":"1179245","long":71.0576999999999969759301166050136089324951171875},"5":{"id":"7419050","label":"Koh\u0101t Tribal Area","value":"7419050","lat":33.6639899999999983037923811934888362884521484375,"lon":71.592050000000000409272615797817707061767578125,"poi_name":"Koh\u0101t Tribal Area","parent_id":"1179245","long":71.592050000000000409272615797817707061767578125},"6":{"id":"1172574","label":"Kurram Agency","value":"1172574","lat":33.71016999999999796955307829193770885467529296875,"lon":70.3401000000000067302607931196689605712890625,"poi_name":"Kurram Agency","parent_id":"1179245","long":70.3401000000000067302607931196689605712890625},"7":{"id":"7419044","label":"Lakki Marwat Tribal Area","value":"7419044","lat":32.89074000000000097543306765146553516387939453125,"lon":70.3537299999999987676346790976822376251220703125,"poi_name":"Lakki Marwat Tribal Area","parent_id":"1179245","long":70.3537299999999987676346790976822376251220703125},"8":{"id":"1170122","label":"Mohmand Agency","value":"1170122","lat":34.4638599999999968304109643213450908660888671875,"lon":71.35115999999999303327058441936969757080078125,"poi_name":"Mohmand Agency","parent_id":"1179245","long":71.35115999999999303327058441936969757080078125},"9":{"id":"1168875","label":"North Waz\u012brist\u0101n Agency","value":"1168875","lat":32.95087000000000188038029591552913188934326171875,"lon":69.957639999999997826307662762701511383056640625,"poi_name":"North Waz\u012brist\u0101n Agency","parent_id":"1179245","long":69.957639999999997826307662762701511383056640625},"10":{"id":"1168705","label":"Orakzai Agency","value":"1168705","lat":33.7077699999999964575181365944445133209228515625,"lon":71.0023800000000022691892809234559535980224609375,"poi_name":"Orakzai Agency","parent_id":"1179245","long":71.0023800000000022691892809234559535980224609375},"11":{"id":"7419049","label":"Pesh\u0101war Tribal Area","value":"7419049","lat":33.74096999999999724195731687359511852264404296875,"lon":71.7459900000000061481841839849948883056640625,"poi_name":"Pesh\u0101war Tribal Area","parent_id":"1179245","long":71.7459900000000061481841839849948883056640625},"12":{"id":"1164536","label":"South Waz\u012brist\u0101n Agency","value":"1164536","lat":32.30396999999999962938090902753174304962158203125,"lon":69.6820699999999959572960506193339824676513671875,"poi_name":"South Waz\u012brist\u0101n Agency","parent_id":"1179245","long":69.6820699999999959572960506193339824676513671875},"13":{"id":"7419041","label":"T\u0101nk Tribal Area","value":"7419041","lat":32.46450999999999709189069108106195926666259765625,"lon":70.3059700000000020736479200422763824462890625,"poi_name":"T\u0101nk Tribal Area","parent_id":"1179245","long":70.3059700000000020736479200422763824462890625}}