{"success":true,"remaining_lookups":9849,"0":{"id":"1337217","label":"Barguna","value":"1337217","lat":22.1333300000000008367351256310939788818359375,"lon":90.1333300000000008367351256310939788818359375,"poi_name":"Barguna","parent_id":"1337229","long":90.1333300000000008367351256310939788818359375},"1":{"id":"1185286","label":"Barisal","value":"1185286","lat":22.800000000000000710542735760100185871124267578125,"lon":90.5,"poi_name":"Barisal","parent_id":"1337229","long":90.5},"2":{"id":"1337215","label":"Bhola","value":"1337215","lat":22.3666699999999991632648743689060211181640625,"lon":90.8166700000000020054358174093067646026611328125,"poi_name":"Bhola","parent_id":"1337229","long":90.8166700000000020054358174093067646026611328125},"3":{"id":"1337214","label":"Jhalokati","value":"1337214","lat":22.60000000000000142108547152020037174224853515625,"lon":90.2000000000000028421709430404007434844970703125,"poi_name":"Jhalokati","parent_id":"1337229","long":90.2000000000000028421709430404007434844970703125},"4":{"id":"1337216","label":"Patuakhali","value":"1337216","lat":22.333330000000000126192389870993793010711669921875,"lon":90.3333300000000036789060686714947223663330078125,"poi_name":"Patuakhali","parent_id":"1337229","long":90.3333300000000036789060686714947223663330078125},"5":{"id":"1477494","label":"Pirojpur","value":"1477494","lat":22.536709999999999354258761741220951080322265625,"lon":90.0003300000000052705217967741191387176513671875,"poi_name":"Pirojpur","parent_id":"1337229","long":90.0003300000000052705217967741191387176513671875}}