{"success":true,"remaining_lookups":9846,"0":{"id":"1337209","label":"Bagerhat","value":"1337209","lat":22.39999999999999857891452847979962825775146484375,"lon":89.75,"poi_name":"Bagerhat","parent_id":"1337210","long":89.75},"1":{"id":"1337205","label":"Chuadanga","value":"1337205","lat":23.6333300000000008367351256310939788818359375,"lon":88.849999999999994315658113919198513031005859375,"poi_name":"Chuadanga","parent_id":"1337210","long":88.849999999999994315658113919198513031005859375},"2":{"id":"1337207","label":"Jessore","value":"1337207","lat":23.083330000000000126192389870993793010711669921875,"lon":89.1666699999999963210939313285052776336669921875,"poi_name":"Jessore","parent_id":"1337210","long":89.1666699999999963210939313285052776336669921875},"3":{"id":"1337204","label":"Jhenaidah","value":"1337204","lat":23.5,"lon":89.1666699999999963210939313285052776336669921875,"poi_name":"Jhenaidah","parent_id":"1337210","long":89.1666699999999963210939313285052776336669921875},"4":{"id":"1337211","label":"Khulna","value":"1337211","lat":22.5,"lon":89.3333300000000036789060686714947223663330078125,"poi_name":"Khulna","parent_id":"1337210","long":89.3333300000000036789060686714947223663330078125},"5":{"id":"1185185","label":"Kushtia","value":"1185185","lat":23.833330000000000126192389870993793010711669921875,"lon":88.9166699999999963210939313285052776336669921875,"poi_name":"Kushtia","parent_id":"1337210","long":88.9166699999999963210939313285052776336669921875},"6":{"id":"1337206","label":"Magura","value":"1337206","lat":23.433330000000001547277861391194164752960205078125,"lon":89.4333299999999979945641825906932353973388671875,"poi_name":"Magura","parent_id":"1337210","long":89.4333299999999979945641825906932353973388671875},"7":{"id":"1337203","label":"Meherpur","value":"1337203","lat":23.75,"lon":88.7000000000000028421709430404007434844970703125,"poi_name":"Meherpur","parent_id":"1337210","long":88.7000000000000028421709430404007434844970703125},"8":{"id":"1337208","label":"Narail","value":"1337208","lat":23.1333300000000008367351256310939788818359375,"lon":89.599999999999994315658113919198513031005859375,"poi_name":"Narail","parent_id":"1337210","long":89.599999999999994315658113919198513031005859375},"9":{"id":"1337212","label":"Satkhira","value":"1337212","lat":22.35000000000000142108547152020037174224853515625,"lon":89.150000000000005684341886080801486968994140625,"poi_name":"Satkhira","parent_id":"1337210","long":89.150000000000005684341886080801486968994140625}}