{"success":true,"remaining_lookups":9844,"0":{"id":"1337155","label":"Dinajpur","value":"1337155","lat":25.6166699999999991632648743689060211181640625,"lon":88.75,"poi_name":"Dinajpur","parent_id":"7671048","long":88.75},"1":{"id":"1337160","label":"Gaibandha","value":"1337160","lat":25.25,"lon":89.5,"poi_name":"Gaibandha","parent_id":"7671048","long":89.5},"2":{"id":"1337158","label":"Kurigram","value":"1337158","lat":25.75,"lon":89.6666699999999963210939313285052776336669921875,"poi_name":"Kurigram","parent_id":"7671048","long":89.6666699999999963210939313285052776336669921875},"3":{"id":"1337157","label":"Lalmonirhat District","value":"1337157","lat":26,"lon":89.25,"poi_name":"Lalmonirhat District","parent_id":"7671048","long":89.25},"4":{"id":"1337156","label":"Nilphamari Zila","value":"1337156","lat":25.96667000000000058435034588910639286041259765625,"lon":88.9500000000000028421709430404007434844970703125,"poi_name":"Nilphamari Zila","parent_id":"7671048","long":88.9500000000000028421709430404007434844970703125},"5":{"id":"1337153","label":"Panchagarh","value":"1337153","lat":26.333330000000000126192389870993793010711669921875,"lon":88.5666700000000020054358174093067646026611328125,"poi_name":"Panchagarh","parent_id":"7671048","long":88.5666700000000020054358174093067646026611328125},"6":{"id":"1337159","label":"Rangpur","value":"1337159","lat":25.733329999999998705106918350793421268463134765625,"lon":89.25,"poi_name":"Rangpur","parent_id":"7671048","long":89.25},"7":{"id":"1337154","label":"Thakurgaon","value":"1337154","lat":25.96667000000000058435034588910639286041259765625,"lon":88.3333300000000036789060686714947223663330078125,"poi_name":"Thakurgaon","parent_id":"7671048","long":88.3333300000000036789060686714947223663330078125}}