{"success":true,"remaining_lookups":8424,"0":{"id":"2544568","label":"Kenitra Province","value":"2544568","lat":34.58332999999999657347871107049286365509033203125,"lon":-6.333330000000000126192389870993793010711669921875,"poi_name":"Kenitra Province","parent_id":"11281877","long":-6.333330000000000126192389870993793010711669921875},"1":{"id":"2544363","label":"Khemisset","value":"2544363","lat":33.66667000000000342652128892950713634490966796875,"lon":-6.25,"poi_name":"Khemisset","parent_id":"11281877","long":-6.25},"2":{"id":"2538474","label":"Rabat","value":"2538474","lat":33.99110999999999904730429989285767078399658203125,"lon":-6.84006000000000025096369427046738564968109130859375,"poi_name":"Rabat","parent_id":"11281877","long":-6.84006000000000025096369427046738564968109130859375},"3":{"id":"2537762","label":"Sale","value":"2537762","lat":33.99000000000000198951966012828052043914794921875,"lon":-6.63999999999999968025576890795491635799407958984375,"poi_name":"Sale","parent_id":"11281877","long":-6.63999999999999968025576890795491635799407958984375},"4":{"id":"11282167","label":"Sidi Slimane","value":"11282167","lat":34.26221000000000316276782541535794734954833984375,"lon":-5.925489999999999923829818726517260074615478515625,"poi_name":"Sidi Slimane","parent_id":"11281877","long":-5.925489999999999923829818726517260074615478515625},"5":{"id":"2534445","label":"Sidi-Kacem","value":"2534445","lat":34.58332999999999657347871107049286365509033203125,"lon":-5.75,"poi_name":"Sidi-Kacem","parent_id":"11281877","long":-5.75},"6":{"id":"2562053","label":"Skhirate-Temara","value":"2562053","lat":33.77000000000000312638803734444081783294677734375,"lon":-6.87000000000000010658141036401502788066864013671875,"poi_name":"Skhirate-Temara","parent_id":"11281877","long":-6.87000000000000010658141036401502788066864013671875}}