{"success":true,"remaining_lookups":8429,"0":{"id":"2554387","label":"Boulemane","value":"2554387","lat":33.16667000000000342652128892950713634490966796875,"lon":-4,"poi_name":"Boulemane","parent_id":"11281876","long":-4},"1":{"id":"6547296","label":"El-Hajeb","value":"6547296","lat":33.7288300000000020872903405688703060150146484375,"lon":-5.4611900000000002108890839735977351665496826171875,"poi_name":"El-Hajeb","parent_id":"11281876","long":-5.4611900000000002108890839735977351665496826171875},"2":{"id":"6547300","label":"Fes","value":"6547300","lat":34.03999999999999914734871708787977695465087890625,"lon":-4.87000000000000010658141036401502788066864013671875,"poi_name":"Fes","parent_id":"11281876","long":-4.87000000000000010658141036401502788066864013671875},"3":{"id":"2546906","label":"Ifrane","value":"2546906","lat":33.33332999999999657347871107049286365509033203125,"lon":-5.25,"poi_name":"Ifrane","parent_id":"11281876","long":-5.25},"4":{"id":"6547283","label":"Meknes","value":"6547283","lat":33.977609999999998535713530145585536956787109375,"lon":-5.52496000000000009322320693172514438629150390625,"poi_name":"Meknes","parent_id":"11281876","long":-5.52496000000000009322320693172514438629150390625},"5":{"id":"6547295","label":"Moulay-Yacoub","value":"6547295","lat":34.14558000000000248519427259452641010284423828125,"lon":-5.10259000000000018104628907167352735996246337890625,"poi_name":"Moulay-Yacoub","parent_id":"11281876","long":-5.10259000000000018104628907167352735996246337890625},"6":{"id":"6547286","label":"Sefrou","value":"6547286","lat":33.799790000000001555235940031707286834716796875,"lon":-4.67999999999999971578290569595992565155029296875,"poi_name":"Sefrou","parent_id":"11281876","long":-4.67999999999999971578290569595992565155029296875},"7":{"id":"2530153","label":"Taounate","value":"2530153","lat":34.5,"lon":-4.833330000000000126192389870993793010711669921875,"poi_name":"Taounate","parent_id":"11281876","long":-4.833330000000000126192389870993793010711669921875},"8":{"id":"2529313","label":"Taza","value":"2529313","lat":34.25,"lon":-3.75,"poi_name":"Taza","parent_id":"11281876","long":-3.75}}