{"success":true,"remaining_lookups":9186,"0":{"id":"7648924","label":"Adansi North","value":"7648924","lat":6.28333000000000030382807381101883947849273681640625,"lon":-1.516669999999999962625452099018730223178863525390625,"poi_name":"Adansi North","parent_id":"2304116","long":-1.516669999999999962625452099018730223178863525390625},"1":{"id":"7648925","label":"Adansi South","value":"7648925","lat":6.0666700000000002290789780090562999248504638671875,"lon":-1.399999999999999911182158029987476766109466552734375,"poi_name":"Adansi South","parent_id":"2304116","long":-1.399999999999999911182158029987476766109466552734375},"2":{"id":"7648927","label":"Afigya-Kwabre District","value":"7648927","lat":6.9864399999999999835154085303656756877899169921875,"lon":-1.5579400000000001025313167701824568212032318115234375,"poi_name":"Afigya-Kwabre District","parent_id":"2304116","long":-1.5579400000000001025313167701824568212032318115234375},"3":{"id":"7648930","label":"Ahafo Ano North","value":"7648930","lat":7,"lon":-2.166669999999999873807610129006206989288330078125,"poi_name":"Ahafo Ano North","parent_id":"2304116","long":-2.166669999999999873807610129006206989288330078125},"4":{"id":"7648931","label":"Ahafo Ano South","value":"7648931","lat":6.9178399999999999891997504164464771747589111328125,"lon":-1.9576299999999999812416717759333550930023193359375,"poi_name":"Ahafo Ano South","parent_id":"2304116","long":-1.9576299999999999812416717759333550930023193359375},"5":{"id":"7648938","label":"Amansie Central","value":"7648938","lat":6.25420999999999960294871925725601613521575927734375,"lon":-1.750690000000000079438677857979200780391693115234375,"poi_name":"Amansie Central","parent_id":"2304116","long":-1.750690000000000079438677857979200780391693115234375},"6":{"id":"11353026","label":"Amansie East","value":"11353026","lat":6.3489599999999999369038050645031034946441650390625,"lon":-1.3431200000000000915889586394769139587879180908203125,"poi_name":"Amansie East","parent_id":"2304116","long":-1.3431200000000000915889586394769139587879180908203125},"7":{"id":"7648939","label":"Amansie West","value":"7648939","lat":6.46666999999999969617192618898116052150726318359375,"lon":-1.88332999999999994855670593096874654293060302734375,"poi_name":"Amansie West","parent_id":"2304116","long":-1.88332999999999994855670593096874654293060302734375},"8":{"id":"7648942","label":"Asante Akim North","value":"7648942","lat":6.61667000000000005144329406903125345706939697265625,"lon":-1.2166699999999999182165311140124686062335968017578125,"poi_name":"Asante Akim North","parent_id":"2304116","long":-1.2166699999999999182165311140124686062335968017578125},"9":{"id":"7648943","label":"Asante Akim South District","value":"7648943","lat":6.4779999999999997584154698415659368038177490234375,"lon":-1.084000000000000074606987254810519516468048095703125,"poi_name":"Asante Akim South District","parent_id":"2304116","long":-1.084000000000000074606987254810519516468048095703125},"10":{"id":"7648951","label":"Atwima Kwanwoma","value":"7648951","lat":6.6500000000000003552713678800500929355621337890625,"lon":-1.733330000000000037374547900981269776821136474609375,"poi_name":"Atwima Kwanwoma","parent_id":"2304116","long":-1.733330000000000037374547900981269776821136474609375},"11":{"id":"7648952","label":"Atwima Mponua","value":"7648952","lat":6.5999999999999996447286321199499070644378662109375,"lon":-2.11667000000000005144329406903125345706939697265625,"poi_name":"Atwima Mponua","parent_id":"2304116","long":-2.11667000000000005144329406903125345706939697265625},"12":{"id":"7648953","label":"Atwima Nwabiagya","value":"7648953","lat":6.666669999999999873807610129006206989288330078125,"lon":-1.8166700000000000070343730840249918401241302490234375,"poi_name":"Atwima Nwabiagya","parent_id":"2304116","long":-1.8166700000000000070343730840249918401241302490234375},"13":{"id":"7648957","label":"Bekwai","value":"7648957","lat":6.45000000000000017763568394002504646778106689453125,"lon":-1.5833299999999999041477849459624849259853363037109375,"poi_name":"Bekwai","parent_id":"2304116","long":-1.5833299999999999041477849459624849259853363037109375},"14":{"id":"11205295","label":"Bekwai Municipal District","value":"11205295","lat":6.35690000000000043911541069974191486835479736328125,"lon":-1.36850000000000004973799150320701301097869873046875,"poi_name":"Bekwai Municipal District","parent_id":"2304116","long":-1.36850000000000004973799150320701301097869873046875},"15":{"id":"7648967","label":"Bosome Freho","value":"7648967","lat":6.416669999999999873807610129006206989288330078125,"lon":-1.3333299999999999041477849459624849259853363037109375,"poi_name":"Bosome Freho","parent_id":"2304116","long":-1.3333299999999999041477849459624849259853363037109375},"16":{"id":"7648968","label":"Bosomtwe","value":"7648968","lat":6.53333000000000030382807381101883947849273681640625,"lon":-1.483330000000000037374547900981269776821136474609375,"poi_name":"Bosomtwe","parent_id":"2304116","long":-1.483330000000000037374547900981269776821136474609375},"17":{"id":"7648977","label":"Ejisu Juaben","value":"7648977","lat":6.67999999999999971578290569595992565155029296875,"lon":-1.379000000000000003552713678800500929355621337890625,"poi_name":"Ejisu Juaben","parent_id":"2304116","long":-1.379000000000000003552713678800500929355621337890625},"18":{"id":"7648978","label":"Ejura Sekyedumase","value":"7648978","lat":7.375,"lon":-1.431999999999999939603867460391484200954437255859375,"poi_name":"Ejura Sekyedumase","parent_id":"2304116","long":-1.431999999999999939603867460391484200954437255859375},"19":{"id":"7649000","label":"Kumasi","value":"7649000","lat":6.6833299999999997709210219909437000751495361328125,"lon":-1.61667000000000005144329406903125345706939697265625,"poi_name":"Kumasi","parent_id":"2304116","long":-1.61667000000000005144329406903125345706939697265625},"20":{"id":"8299695","label":"Kumasi Metropolitan District","value":"8299695","lat":6.6833299999999997709210219909437000751495361328125,"lon":-1.61667000000000005144329406903125345706939697265625,"poi_name":"Kumasi Metropolitan District","parent_id":"2304116","long":-1.61667000000000005144329406903125345706939697265625},"21":{"id":"7649001","label":"Kwabre District","value":"7649001","lat":6.78333000000000030382807381101883947849273681640625,"lon":-1.5666700000000000070343730840249918401241302490234375,"poi_name":"Kwabre District","parent_id":"2304116","long":-1.5666700000000000070343730840249918401241302490234375},"22":{"id":"7649012","label":"Mampong","value":"7649012","lat":7.0666700000000002290789780090562999248504638671875,"lon":-1.399999999999999911182158029987476766109466552734375,"poi_name":"Mampong","parent_id":"2304116","long":-1.399999999999999911182158029987476766109466552734375},"23":{"id":"7649023","label":"Obuasi","value":"7649023","lat":5.9934799999999999187139110290445387363433837890625,"lon":-1.6706700000000000994049287328380160033702850341796875,"poi_name":"Obuasi","parent_id":"2304116","long":-1.6706700000000000994049287328380160033702850341796875},"24":{"id":"10400449","label":"Obuasi Municipal District","value":"10400449","lat":6.20000000000000017763568394002504646778106689453125,"lon":-1.6833299999999999929656269159750081598758697509765625,"poi_name":"Obuasi Municipal District","parent_id":"2304116","long":-1.6833299999999999929656269159750081598758697509765625},"25":{"id":"7649024","label":"Offinso","value":"7649024","lat":6.9000000000000003552713678800500929355621337890625,"lon":-1.649999999999999911182158029987476766109466552734375,"poi_name":"Offinso","parent_id":"2304116","long":-1.649999999999999911182158029987476766109466552734375},"26":{"id":"11205009","label":"Offinso Municipal District","value":"11205009","lat":6.98899999999999987920773492078296840190887451171875,"lon":-1.689999999999999946709294817992486059665679931640625,"poi_name":"Offinso Municipal District","parent_id":"2304116","long":-1.689999999999999946709294817992486059665679931640625},"27":{"id":"7649025","label":"Offinso North","value":"7649025","lat":7.4000000000000003552713678800500929355621337890625,"lon":-1.9499999999999999555910790149937383830547332763671875,"poi_name":"Offinso North","parent_id":"2304116","long":-1.9499999999999999555910790149937383830547332763671875},"28":{"id":"7647506","label":"Sekyere Afram Plains","value":"7647506","lat":6.9000000000000003552713678800500929355621337890625,"lon":-1.2833300000000000817834688859875313937664031982421875,"poi_name":"Sekyere Afram Plains","parent_id":"2304116","long":-1.2833300000000000817834688859875313937664031982421875},"29":{"id":"7649033","label":"Sekyere Central","value":"7649033","lat":7.01667000000000040671466194908134639263153076171875,"lon":-1.38332999999999994855670593096874654293060302734375,"poi_name":"Sekyere Central","parent_id":"2304116","long":-1.38332999999999994855670593096874654293060302734375},"30":{"id":"7649035","label":"Sekyere East","value":"7649035","lat":6.8468400000000002592059900052845478057861328125,"lon":-1.3961200000000000276401124210678972303867340087890625,"poi_name":"Sekyere East","parent_id":"2304116","long":-1.3961200000000000276401124210678972303867340087890625},"31":{"id":"7649037","label":"Sekyere South","value":"7649037","lat":6.9333299999999997709210219909437000751495361328125,"lon":-1.483330000000000037374547900981269776821136474609375,"poi_name":"Sekyere South","parent_id":"2304116","long":-1.483330000000000037374547900981269776821136474609375}}