{"success":true,"remaining_lookups":7612,"0":{"id":"1679134","label":"Changhua","value":"1679134","lat":23.953610000000001178932507173158228397369384765625,"lon":120.4908300000000025420376914553344249725341796875,"poi_name":"Changhua","parent_id":"7280291","long":120.4908300000000025420376914553344249725341796875},"1":{"id":"1678834","label":"Chiayi","value":"1678834","lat":23.477219999999999089368429849855601787567138671875,"lon":120.44526999999999361534719355404376983642578125,"poi_name":"Chiayi","parent_id":"7280291","long":120.44526999999999361534719355404376983642578125},"2":{"id":"1678835","label":"Chiayi County","value":"1678835","lat":23.4633299999999991314325598068535327911376953125,"lon":120.58165999999999939973349682986736297607421875,"poi_name":"Chiayi County","parent_id":"7280291","long":120.58165999999999939973349682986736297607421875},"3":{"id":"1675103","label":"Hsinchu","value":"1675103","lat":24.81472000000000122099663713015615940093994140625,"lon":120.96721999999999752617441117763519287109375,"poi_name":"Hsinchu","parent_id":"7280291","long":120.96721999999999752617441117763519287109375},"4":{"id":"1675107","label":"Hsinchu County","value":"1675107","lat":24.674160000000000536601874046027660369873046875,"lon":121.1611099999999936471795081160962581634521484375,"poi_name":"Hsinchu County","parent_id":"7280291","long":121.1611099999999936471795081160962581634521484375},"5":{"id":"1674502","label":"Hualien","value":"1674502","lat":23.781659999999998689190761069767177104949951171875,"lon":121.3933300000000059526428231038153171539306640625,"poi_name":"Hualien","parent_id":"7280291","long":121.3933300000000059526428231038153171539306640625},"6":{"id":"6724654","label":"Keelung","value":"6724654","lat":25.11486000000000018417267710901796817779541015625,"lon":121.6898699999999990950527717359364032745361328125,"poi_name":"Keelung","parent_id":"7280291","long":121.6898699999999990950527717359364032745361328125},"7":{"id":"1671968","label":"Miaoli","value":"1671968","lat":24.48971999999999837882569408975541591644287109375,"lon":120.9063799999999986312104738317430019378662109375,"poi_name":"Miaoli","parent_id":"7280291","long":120.9063799999999986312104738317430019378662109375},"8":{"id":"1671564","label":"Nantou","value":"1671564","lat":23.83418999999999954297891235910356044769287109375,"lon":120.927040000000005193214747123420238494873046875,"poi_name":"Nantou","parent_id":"7280291","long":120.927040000000005193214747123420238494873046875},"9":{"id":"1670651","label":"Penghu","value":"1670651","lat":23.571110000000000894715412869118154048919677734375,"lon":119.61137999999999692590790800750255584716796875,"poi_name":"Penghu","parent_id":"7280291","long":119.61137999999999692590790800750255584716796875},"10":{"id":"1670479","label":"Pingtung","value":"1670479","lat":22.49555000000000148929757415316998958587646484375,"lon":120.61444000000000187355908565223217010498046875,"poi_name":"Pingtung","parent_id":"7280291","long":120.61444000000000187355908565223217010498046875},"11":{"id":"9613500","label":"Taichung City","value":"9613500","lat":24.154720000000001078888089978136122226715087890625,"lon":120.6729700000000065074345911853015422821044921875,"poi_name":"Taichung City","parent_id":"7280291","long":120.6729700000000065074345911853015422821044921875},"12":{"id":"1668352","label":"Tainan","value":"1668352","lat":23.00001999999999924284566077403724193572998046875,"lon":120.1887600000000020372681319713592529296875,"poi_name":"Tainan","parent_id":"7280291","long":120.1887600000000020372681319713592529296875},"13":{"id":"1668338","label":"Taipei City","value":"1668338","lat":25.082999999999998408384271897375583648681640625,"lon":121.5533099999999961937646730802953243255615234375,"poi_name":"Taipei City","parent_id":"7280291","long":121.5533099999999961937646730802953243255615234375},"14":{"id":"1668292","label":"Taitung","value":"1668292","lat":22.883610000000000894715412869118154048919677734375,"lon":121.0483300000000070895112003199756145477294921875,"poi_name":"Taitung","parent_id":"7280291","long":121.0483300000000070895112003199756145477294921875},"15":{"id":"1667900","label":"Taoyuan","value":"1667900","lat":24.894999999999999573674358543939888477325439453125,"lon":121.2461100000000016052581486292183399200439453125,"poi_name":"Taoyuan","parent_id":"7280291","long":121.2461100000000016052581486292183399200439453125},"16":{"id":"1674197","label":"Yilan","value":"1674197","lat":24.542500000000000426325641456060111522674560546875,"lon":121.633610000000004447429091669619083404541015625,"poi_name":"Yilan","parent_id":"7280291","long":121.633610000000004447429091669619083404541015625},"17":{"id":"1665194","label":"Yunlin","value":"1665194","lat":23.707010000000000360387275577522814273834228515625,"lon":120.3848100000000016507328837178647518157958984375,"poi_name":"Yunlin","parent_id":"7280291","long":120.3848100000000016507328837178647518157958984375}}