{"success":true,"remaining_lookups":8878,"0":{"id":"11495207","label":"Arcadia","value":"11495207","lat":18.037369999999999237161318887956440448760986328125,"lon":-76.7820099999999996498445398174226284027099609375,"poi_name":"Arcadia","parent_id":"3488716","long":-76.7820099999999996498445398174226284027099609375},"1":{"id":"11495206","label":"Arlene Gardens","value":"11495206","lat":18.037130000000001217586031998507678508758544921875,"lon":-76.8179099999999976944309310056269168853759765625,"poi_name":"Arlene Gardens","parent_id":"3488716","long":-76.8179099999999976944309310056269168853759765625},"2":{"id":"11495264","label":"Arnett Gardens","value":"11495264","lat":17.991499999999998493649400188587605953216552734375,"lon":-76.7982899999999943929651635698974132537841796875,"poi_name":"Arnett Gardens","parent_id":"3488716","long":-76.7982899999999943929651635698974132537841796875},"3":{"id":"11495291","label":"August Town","value":"11495291","lat":17.995560000000001110720404540188610553741455078125,"lon":-76.736729999999994333848007954657077789306640625,"poi_name":"August Town","parent_id":"3488716","long":-76.736729999999994333848007954657077789306640625},"4":{"id":"11494898","label":"Barbican","value":"11494898","lat":18.035489999999999355395630118437111377716064453125,"lon":-76.769869999999997389750205911695957183837890625,"poi_name":"Barbican","parent_id":"3488716","long":-76.769869999999997389750205911695957183837890625},"5":{"id":"11494907","label":"Beverley Hills","value":"11494907","lat":18.0083300000000008367351256310939788818359375,"lon":-76.762079999999997426129993982613086700439453125,"poi_name":"Beverley Hills","parent_id":"3488716","long":-76.762079999999997426129993982613086700439453125},"6":{"id":"11495257","label":"Bito","value":"11495257","lat":17.9736299999999999954525264911353588104248046875,"lon":-76.6662500000000051159076974727213382720947265625,"poi_name":"Bito","parent_id":"3488716","long":-76.6662500000000051159076974727213382720947265625},"7":{"id":"11495236","label":"Bloxborough","value":"11495236","lat":17.99580999999999875171852181665599346160888671875,"lon":-76.64767000000000507498043589293956756591796875,"poi_name":"Bloxborough","parent_id":"3488716","long":-76.64767000000000507498043589293956756591796875},"8":{"id":"11495247","label":"Boucher Park","value":"11495247","lat":18.003440000000001219859768752939999103546142578125,"lon":-76.81256999999999379724613390862941741943359375,"poi_name":"Boucher Park","parent_id":"3488716","long":-76.81256999999999379724613390862941741943359375},"9":{"id":"11495150","label":"Brandon Hill","value":"11495150","lat":18.148219999999998464090822380967438220977783203125,"lon":-76.8051300000000054524207371287047863006591796875,"poi_name":"Brandon Hill","parent_id":"3488716","long":-76.8051300000000054524207371287047863006591796875},"10":{"id":"11494919","label":"Bull Bay\/ Seven Mile","value":"11494919","lat":17.952470000000001704165697447024285793304443359375,"lon":-76.6840399999999959845808916725218296051025390625,"poi_name":"Bull Bay\/ Seven Mile","parent_id":"3488716","long":-76.6840399999999959845808916725218296051025390625},"11":{"id":"11495255","label":"Cane River","value":"11495255","lat":17.980979999999998852899807388894259929656982421875,"lon":-76.6862399999999979627318680286407470703125,"poi_name":"Cane River","parent_id":"3488716","long":-76.6862399999999979627318680286407470703125},"12":{"id":"11495223","label":"Cassia Park","value":"11495223","lat":18.020469999999999544115780736319720745086669921875,"lon":-76.8066500000000047521098167635500431060791015625,"poi_name":"Cassia Park","parent_id":"3488716","long":-76.8066500000000047521098167635500431060791015625},"13":{"id":"11495183","label":"Cavaliers","value":"11495183","lat":18.09676999999999935653249849565327167510986328125,"lon":-76.8432099999999991268850862979888916015625,"poi_name":"Cavaliers","parent_id":"3488716","long":-76.8432099999999991268850862979888916015625},"14":{"id":"11495196","label":"Cherry Gardens","value":"11495196","lat":18.04963000000000050704329623840749263763427734375,"lon":-76.778670000000005302354111336171627044677734375,"poi_name":"Cherry Gardens","parent_id":"3488716","long":-76.778670000000005302354111336171627044677734375},"15":{"id":"11495249","label":"Cockburn Gardens","value":"11495249","lat":18.003569999999999851070242584683001041412353515625,"lon":-76.8243499999999954752638586796820163726806640625,"poi_name":"Cockburn Gardens","parent_id":"3488716","long":-76.8243499999999954752638586796820163726806640625},"16":{"id":"11494915","label":"Constant Spring","value":"11494915","lat":18.05031999999999925421434454619884490966796875,"lon":-76.794669999999996434780769050121307373046875,"poi_name":"Constant Spring","parent_id":"3488716","long":-76.794669999999996434780769050121307373046875},"17":{"id":"11494896","label":"Constant Spring Gardens","value":"11494896","lat":18.029419999999998225348463165573775768280029296875,"lon":-76.7995599999999996043698047287762165069580078125,"poi_name":"Constant Spring Gardens","parent_id":"3488716","long":-76.7995599999999996043698047287762165069580078125},"18":{"id":"11494922","label":"Constitution Hill","value":"11494922","lat":18.014880000000001558646545163355767726898193359375,"lon":-76.705150000000003274180926382541656494140625,"poi_name":"Constitution Hill","parent_id":"3488716","long":-76.705150000000003274180926382541656494140625},"19":{"id":"11495193","label":"Content Gap","value":"11495193","lat":18.040820000000000078443918027915060520172119140625,"lon":-76.6907000000000067529981606639921665191650390625,"poi_name":"Content Gap","parent_id":"3488716","long":-76.6907000000000067529981606639921665191650390625},"20":{"id":"11495216","label":"Cooreville Gardens","value":"11495216","lat":18.022439999999999571400621789507567882537841796875,"lon":-76.8485199999999935016603558324277400970458984375,"poi_name":"Cooreville Gardens","parent_id":"3488716","long":-76.8485199999999935016603558324277400970458984375},"21":{"id":"11494903","label":"Cross Roads","value":"11494903","lat":17.994540000000000645741238258779048919677734375,"lon":-76.7881000000000000227373675443232059478759765625,"poi_name":"Cross Roads","parent_id":"3488716","long":-76.7881000000000000227373675443232059478759765625},"22":{"id":"11495290","label":"Dallas","value":"11495290","lat":17.984629999999999228066371870227158069610595703125,"lon":-76.71255999999999630745151080191135406494140625,"poi_name":"Dallas","parent_id":"3488716","long":-76.71255999999999630745151080191135406494140625},"23":{"id":"11495258","label":"Delacree Park\/ Union Gardens","value":"11495258","lat":17.99210000000000064801497501321136951446533203125,"lon":-76.8224000000000017962520360015332698822021484375,"poi_name":"Delacree Park\/ Union Gardens","parent_id":"3488716","long":-76.8224000000000017962520360015332698822021484375},"24":{"id":"11495256","label":"Delacree Pen","value":"11495256","lat":17.99578999999999950887286104261875152587890625,"lon":-76.8170899999999932106220512650907039642333984375,"poi_name":"Delacree Pen","parent_id":"3488716","long":-76.8170899999999932106220512650907039642333984375},"25":{"id":"11495226","label":"Drewsland","value":"11495226","lat":18.023810000000000997033566818572580814361572265625,"lon":-76.8262600000000048794390750117599964141845703125,"poi_name":"Drewsland","parent_id":"3488716","long":-76.8262600000000048794390750117599964141845703125},"26":{"id":"11494905","label":"Drumblair","value":"11494905","lat":18.023540000000000560476109967567026615142822265625,"lon":-76.787589999999994461177266202867031097412109375,"poi_name":"Drumblair","parent_id":"3488716","long":-76.787589999999994461177266202867031097412109375},"27":{"id":"11495211","label":"Duhaney Park","value":"11495211","lat":18.030860000000000553654899704270064830780029296875,"lon":-76.846170000000000754880602471530437469482421875,"poi_name":"Duhaney Park","parent_id":"3488716","long":-76.846170000000000754880602471530437469482421875},"28":{"id":"11495224","label":"Eastwood Park Gardens","value":"11495224","lat":18.018910000000001758735379553399980068206787109375,"lon":-76.8007199999999983219822752289474010467529296875,"poi_name":"Eastwood Park Gardens","parent_id":"3488716","long":-76.8007199999999983219822752289474010467529296875},"29":{"id":"11495287","label":"Elleston Flats\/ Mona Commons","value":"11495287","lat":18.0094500000000010686562745831906795501708984375,"lon":-76.74034000000000332875060848891735076904296875,"poi_name":"Elleston Flats\/ Mona Commons","parent_id":"3488716","long":-76.74034000000000332875060848891735076904296875},"30":{"id":"11495198","label":"Ferry","value":"11495198","lat":18.0277099999999990131982485763728618621826171875,"lon":-76.867199999999996862243278883397579193115234375,"poi_name":"Ferry","parent_id":"3488716","long":-76.867199999999996862243278883397579193115234375},"31":{"id":"11495200","label":"Forest Hills Gardens","value":"11495200","lat":18.03847999999999984765963745303452014923095703125,"lon":-76.8286800000000056343196774832904338836669921875,"poi_name":"Forest Hills Gardens","parent_id":"3488716","long":-76.8286800000000056343196774832904338836669921875},"32":{"id":"11494897","label":"Forest Hills\/ Plantation Height","value":"11494897","lat":18.04299999999999926103555480949580669403076171875,"lon":-76.8513999999999981582732289098203182220458984375,"poi_name":"Forest Hills\/ Plantation Height","parent_id":"3488716","long":-76.8513999999999981582732289098203182220458984375},"33":{"id":"11495285","label":"Golden Spring","value":"11495285","lat":18.094460000000001542730387882329523563385009765625,"lon":-76.797269999999997480699676088988780975341796875,"poi_name":"Golden Spring","parent_id":"3488716","long":-76.797269999999997480699676088988780975341796875},"34":{"id":"11495286","label":"Gordon Town","value":"11495286","lat":18.037620000000000430873114964924752712249755859375,"lon":-76.7235299999999966757968650199472904205322265625,"poi_name":"Gordon Town","parent_id":"3488716","long":-76.7235299999999966757968650199472904205322265625},"35":{"id":"11495210","label":"Grants Pen","value":"11495210","lat":18.032579999999999387227944680489599704742431640625,"lon":-76.788870000000002846718416549265384674072265625,"poi_name":"Grants Pen","parent_id":"3488716","long":-76.788870000000002846718416549265384674072265625},"36":{"id":"11494920","label":"Greenwich Town\/ Newport West","value":"11494920","lat":17.9843800000000015870682545937597751617431640625,"lon":-76.825590000000005375113687478005886077880859375,"poi_name":"Greenwich Town\/ Newport West","parent_id":"3488716","long":-76.825590000000005375113687478005886077880859375},"37":{"id":"11495229","label":"Half-Way-Tree","value":"11495229","lat":18.012589999999999434976416523568332195281982421875,"lon":-76.7958200000000061891114455647766590118408203125,"poi_name":"Half-Way-Tree","parent_id":"3488716","long":-76.7958200000000061891114455647766590118408203125},"38":{"id":"11495282","label":"Harbour View","value":"11495282","lat":17.951460000000000860609361552633345127105712890625,"lon":-76.716620000000006029949872754514217376708984375,"poi_name":"Harbour View","parent_id":"3488716","long":-76.716620000000006029949872754514217376708984375},"39":{"id":"11494916","label":"Havendale","value":"11494916","lat":18.05429000000000172576619661413133144378662109375,"lon":-76.8087000000000017507773009128868579864501953125,"poi_name":"Havendale","parent_id":"3488716","long":-76.8087000000000017507773009128868579864501953125},"40":{"id":"11495262","label":"Hermitage","value":"11495262","lat":17.983509999999998996145222918130457401275634765625,"lon":-76.7410200000000060072125052101910114288330078125,"poi_name":"Hermitage","parent_id":"3488716","long":-76.7410200000000060072125052101910114288330078125},"41":{"id":"11494923","label":"Hope Pastures\/ UTECH","value":"11494923","lat":18.0230600000000009686118573881685733795166015625,"lon":-76.7498700000000013687895261682569980621337890625,"poi_name":"Hope Pastures\/ UTECH","parent_id":"3488716","long":-76.7498700000000013687895261682569980621337890625},"42":{"id":"11495288","label":"Hope Tavern","value":"11495288","lat":18.01232999999999861984179005958139896392822265625,"lon":-76.732020000000005666151992045342922210693359375,"poi_name":"Hope Tavern","parent_id":"3488716","long":-76.732020000000005666151992045342922210693359375},"43":{"id":"11495209","label":"Hughenden","value":"11495209","lat":18.030370000000001340367816737852990627288818359375,"lon":-76.8172799999999966757968650199472904205322265625,"poi_name":"Hughenden","parent_id":"3488716","long":-76.8172799999999966757968650199472904205322265625},"44":{"id":"11495157","label":"Irish Town","value":"11495157","lat":18.06233999999999895180735620670020580291748046875,"lon":-76.702619999999996025508153252303600311279296875,"poi_name":"Irish Town","parent_id":"3488716","long":-76.702619999999996025508153252303600311279296875},"45":{"id":"11494917","label":"Jacks Hill","value":"11494917","lat":18.038720000000001419948603142984211444854736328125,"lon":-76.748919999999998253770172595977783203125,"poi_name":"Jacks Hill","parent_id":"3488716","long":-76.748919999999998253770172595977783203125},"46":{"id":"11495267","label":"Jones Town","value":"11495267","lat":17.98422000000000053887561080045998096466064453125,"lon":-76.796909999999996898623066954314708709716796875,"poi_name":"Jones Town","parent_id":"3488716","long":-76.796909999999996898623066954314708709716796875},"47":{"id":"11495253","label":"Kencot","value":"11495253","lat":18.000409999999998689190761069767177104949951171875,"lon":-76.798349999999999226929503493010997772216796875,"poi_name":"Kencot","parent_id":"3488716","long":-76.798349999999999226929503493010997772216796875},"48":{"id":"11495289","label":"Kintyre","value":"11495289","lat":18.02132999999999896090230322442948818206787109375,"lon":-76.72687999999999419742380268871784210205078125,"poi_name":"Kintyre","parent_id":"3488716","long":-76.72687999999999419742380268871784210205078125},"49":{"id":"11494892","label":"Lawrence Tavern","value":"11494892","lat":18.13741999999999876536094234324991703033447265625,"lon":-76.8473599999999947840478853322565555572509765625,"poi_name":"Lawrence Tavern","parent_id":"3488716","long":-76.8473599999999947840478853322565555572509765625},"50":{"id":"11494899","label":"Liguanea","value":"11494899","lat":18.02096999999999837882569408975541591644287109375,"lon":-76.768270000000001118678483180701732635498046875,"poi_name":"Liguanea","parent_id":"3488716","long":-76.768270000000001118678483180701732635498046875},"51":{"id":"11495252","label":"Majestic Gardens","value":"11495252","lat":18.000229999999998398152456502430140972137451171875,"lon":-76.8329499999999967485564411617815494537353515625,"poi_name":"Majestic Gardens","parent_id":"3488716","long":-76.8329499999999967485564411617815494537353515625},"52":{"id":"11494914","label":"Mannings Hill","value":"11494914","lat":18.070519999999998361772668431513011455535888671875,"lon":-76.81288000000000693034962750971317291259765625,"poi_name":"Mannings Hill","parent_id":"3488716","long":-76.81288000000000693034962750971317291259765625},"53":{"id":"11495261","label":"Mannings Hill (Rural)","value":"11495261","lat":18.081689999999998264001987990923225879669189453125,"lon":-76.8232799999999969031705404631793498992919921875,"poi_name":"Mannings Hill (Rural)","parent_id":"3488716","long":-76.8232799999999969031705404631793498992919921875},"54":{"id":"11495214","label":"Marverley","value":"11495214","lat":18.026759999999999450892573804594576358795166015625,"lon":-76.8265200000000021418600226752460002899169921875,"poi_name":"Marverley","parent_id":"3488716","long":-76.8265200000000021418600226752460002899169921875},"55":{"id":"11495194","label":"Maryland","value":"11495194","lat":18.051659999999998262865119613707065582275390625,"lon":-76.7432000000000016370904631912708282470703125,"poi_name":"Maryland","parent_id":"3488716","long":-76.7432000000000016370904631912708282470703125},"56":{"id":"11494893","label":"Mavis Bank","value":"11494893","lat":18.038419999999998566408976330421864986419677734375,"lon":-76.658770000000004074536263942718505859375,"poi_name":"Mavis Bank","parent_id":"3488716","long":-76.658770000000004074536263942718505859375},"57":{"id":"11495254","label":"Maxfield Park","value":"11495254","lat":17.99936999999999898136593401432037353515625,"lon":-76.8080000000000069348971010185778141021728515625,"poi_name":"Maxfield Park","parent_id":"3488716","long":-76.8080000000000069348971010185778141021728515625},"58":{"id":"11495197","label":"Meadowbrook","value":"11495197","lat":18.04708000000000112095221993513405323028564453125,"lon":-76.815529999999995425241650082170963287353515625,"poi_name":"Meadowbrook","parent_id":"3488716","long":-76.815529999999995425241650082170963287353515625},"59":{"id":"11495203","label":"Meadowbrook Estate","value":"11495203","lat":18.0373799999999988585841492749750614166259765625,"lon":-76.8296399999999977126208250410854816436767578125,"poi_name":"Meadowbrook Estate","parent_id":"3488716","long":-76.8296399999999977126208250410854816436767578125},"60":{"id":"11494908","label":"Molynes Four Roads","value":"11494908","lat":18.010349999999998971134118619374930858612060546875,"lon":-76.8111200000000025056579033844172954559326171875,"poi_name":"Molynes Four Roads","parent_id":"3488716","long":-76.8111200000000025056579033844172954559326171875},"61":{"id":"11494906","label":"Molynes Gardens","value":"11494906","lat":18.019800000000000039790393202565610408782958984375,"lon":-76.8162099999999981037035468034446239471435546875,"poi_name":"Molynes Gardens","parent_id":"3488716","long":-76.8162099999999981037035468034446239471435546875},"62":{"id":"11495235","label":"Mona Heights","value":"11495235","lat":18.013310000000000599129634792916476726531982421875,"lon":-76.7508600000000029695002012886106967926025390625,"poi_name":"Mona Heights","parent_id":"3488716","long":-76.7508600000000029695002012886106967926025390625},"63":{"id":"11495155","label":"Mount James","value":"11495155","lat":18.120689999999999741930878371931612491607666015625,"lon":-76.7739399999999960755303618498146533966064453125,"poi_name":"Mount James","parent_id":"3488716","long":-76.7739399999999960755303618498146533966064453125},"64":{"id":"11494911","label":"Mountain View Gardens","value":"11494911","lat":17.991859999999999075726009323261678218841552734375,"lon":-76.7606999999999999317878973670303821563720703125,"poi_name":"Mountain View Gardens","parent_id":"3488716","long":-76.7606999999999999317878973670303821563720703125},"65":{"id":"11495205","label":"Nannyville","value":"11495205","lat":17.996770000000001488160705775953829288482666015625,"lon":-76.7694900000000046702552936039865016937255859375,"poi_name":"Nannyville","parent_id":"3488716","long":-76.7694900000000046702552936039865016937255859375},"66":{"id":"11495202","label":"New Haven","value":"11495202","lat":18.02953000000000116642695502378046512603759765625,"lon":-76.8542499999999932924765744246542453765869140625,"poi_name":"New Haven","parent_id":"3488716","long":-76.8542499999999932924765744246542453765869140625},"67":{"id":"11495241","label":"New Kingston","value":"11495241","lat":18.005199999999998539124135277234017848968505859375,"lon":-76.7858599999999995588950696401298046112060546875,"poi_name":"New Kingston","parent_id":"3488716","long":-76.7858599999999995588950696401298046112060546875},"68":{"id":"11494894","label":"Norbrook","value":"11494894","lat":18.054829999999999046167431515641510486602783203125,"lon":-76.7849800000000044519765651784837245941162109375,"poi_name":"Norbrook","parent_id":"3488716","long":-76.7849800000000044519765651784837245941162109375},"69":{"id":"11495192","label":"Oaklands","value":"11495192","lat":18.035579999999999500914782402105629444122314453125,"lon":-76.7956300000000027239366318099200725555419921875,"poi_name":"Oaklands","parent_id":"3488716","long":-76.7956300000000027239366318099200725555419921875},"70":{"id":"11494924","label":"Papine","value":"11494924","lat":18.0153600000000011505107977427542209625244140625,"lon":-76.7386800000000022237145458348095417022705078125,"poi_name":"Papine","parent_id":"3488716","long":-76.7386800000000022237145458348095417022705078125},"71":{"id":"11495182","label":"Parks Road","value":"11495182","lat":18.098020000000001772377800079993903636932373046875,"lon":-76.859409999999996898623066954314708709716796875,"poi_name":"Parks Road","parent_id":"3488716","long":-76.859409999999996898623066954314708709716796875},"72":{"id":"11494895","label":"Patrick City","value":"11494895","lat":18.03184999999999860165189602412283420562744140625,"lon":-76.83773999999999659848981536924839019775390625,"poi_name":"Patrick City","parent_id":"3488716","long":-76.83773999999999659848981536924839019775390625},"73":{"id":"11495208","label":"Pembroke Hall","value":"11495208","lat":18.031130000000000990212356555275619029998779296875,"lon":-76.830029999999993606252246536314487457275390625,"poi_name":"Pembroke Hall","parent_id":"3488716","long":-76.830029999999993606252246536314487457275390625},"74":{"id":"11495220","label":"Penwood","value":"11495220","lat":18.01951999999999998181010596454143524169921875,"lon":-76.83093999999999823558027856051921844482421875,"poi_name":"Penwood","parent_id":"3488716","long":-76.83093999999999823558027856051921844482421875},"75":{"id":"11495199","label":"Queensborough\/ Tunbridge","value":"11495199","lat":18.04288999999999987267074175179004669189453125,"lon":-76.8211900000000014188117347657680511474609375,"poi_name":"Queensborough\/ Tunbridge","parent_id":"3488716","long":-76.8211900000000014188117347657680511474609375},"76":{"id":"11495190","label":"Red Hills (Rural)","value":"11495190","lat":18.067769999999999441797626786865293979644775390625,"lon":-76.86092999999999619831214658915996551513671875,"poi_name":"Red Hills (Rural)","parent_id":"3488716","long":-76.86092999999999619831214658915996551513671875},"77":{"id":"11495187","label":"Red Hills Gardens","value":"11495187","lat":18.030000000000001136868377216160297393798828125,"lon":-76.8099399999999974397724145092070102691650390625,"poi_name":"Red Hills Gardens","parent_id":"3488716","long":-76.8099399999999974397724145092070102691650390625},"78":{"id":"11495191","label":"Red Hills\/ Sterling Castle","value":"11495191","lat":18.05946000000000140062184073030948638916015625,"lon":-76.8402800000000070212990976870059967041015625,"poi_name":"Red Hills\/ Sterling Castle","parent_id":"3488716","long":-76.8402800000000070212990976870059967041015625},"79":{"id":"11495244","label":"Richmond Park","value":"11495244","lat":18.0056000000000011596057447604835033416748046875,"lon":-76.80464000000000623913365416228771209716796875,"poi_name":"Richmond Park","parent_id":"3488716","long":-76.80464000000000623913365416228771209716796875},"80":{"id":"11495225","label":"Riverton City","value":"11495225","lat":18.014430000000000831050783745013177394866943359375,"lon":-76.8489699999999942292561172507703304290771484375,"poi_name":"Riverton City","parent_id":"3488716","long":-76.8489699999999942292561172507703304290771484375},"81":{"id":"11495204","label":"Roehampton","value":"11495204","lat":18.0431999999999987949195201508700847625732421875,"lon":-76.8084099999999949659468256868422031402587890625,"poi_name":"Roehampton","parent_id":"3488716","long":-76.8084099999999949659468256868422031402587890625},"82":{"id":"11495266","label":"Rose Town","value":"11495266","lat":17.9869699999999994588506524451076984405517578125,"lon":-76.8072599999999994224708643741905689239501953125,"poi_name":"Rose Town","parent_id":"3488716","long":-76.8072599999999994224708643741905689239501953125},"83":{"id":"11495239","label":"Seaview Gardens","value":"11495239","lat":18.006190000000000139834810397587716579437255859375,"lon":-76.841059999999998808561940677464008331298828125,"poi_name":"Seaview Gardens","parent_id":"3488716","long":-76.841059999999998808561940677464008331298828125},"84":{"id":"11495228","label":"Seaward Pen","value":"11495228","lat":18.01899999999999835154085303656756877899169921875,"lon":-76.823679999999995970938471145927906036376953125,"poi_name":"Seaward Pen","parent_id":"3488716","long":-76.823679999999995970938471145927906036376953125},"85":{"id":"11494900","label":"Seymour Lands","value":"11494900","lat":18.012910000000001531361704110167920589447021484375,"lon":-76.7770600000000058571458794176578521728515625,"poi_name":"Seymour Lands","parent_id":"3488716","long":-76.7770600000000058571458794176578521728515625},"86":{"id":"11495189","label":"St. Peter's","value":"11495189","lat":18.078810000000000712816472514532506465911865234375,"lon":-76.672020000000003392415237613022327423095703125,"poi_name":"St. Peter's","parent_id":"3488716","long":-76.672020000000003392415237613022327423095703125},"87":{"id":"11494901","label":"Stadium Gardens","value":"11494901","lat":17.99501000000000061618266045115888118743896484375,"lon":-76.7764399999999938017936074174940586090087890625,"poi_name":"Stadium Gardens","parent_id":"3488716","long":-76.7764399999999938017936074174940586090087890625},"88":{"id":"11494913","label":"Stony Hill","value":"11494913","lat":18.079139999999998877910911687649786472320556640625,"lon":-76.7845200000000005502442945726215839385986328125,"poi_name":"Stony Hill","parent_id":"3488716","long":-76.7845200000000005502442945726215839385986328125},"89":{"id":"11495242","label":"Swallowfield","value":"11495242","lat":18.00486000000000075260686571709811687469482421875,"lon":-76.7743899999999968031261232681572437286376953125,"poi_name":"Swallowfield","parent_id":"3488716","long":-76.7743899999999968031261232681572437286376953125},"90":{"id":"11495188","label":"Temple Hall","value":"11495188","lat":18.104710000000000746922523831017315387725830078125,"lon":-76.8181799999999981309883878566324710845947265625,"poi_name":"Temple Hall","parent_id":"3488716","long":-76.8181799999999981309883878566324710845947265625},"91":{"id":"11495212","label":"Three Oaks\/ Glendale","value":"11495212","lat":18.031279999999998864268491161055862903594970703125,"lon":-76.8244700000000051431925385259091854095458984375,"poi_name":"Three Oaks\/ Glendale","parent_id":"3488716","long":-76.8244700000000051431925385259091854095458984375},"92":{"id":"11495237","label":"Tower Hill","value":"11495237","lat":18.011829999999999785131876706145703792572021484375,"lon":-76.828069999999996753103914670646190643310546875,"poi_name":"Tower Hill","parent_id":"3488716","long":-76.828069999999996753103914670646190643310546875},"93":{"id":"11495231","label":"Trafalgar Park","value":"11495231","lat":18.012799999999998590283212251961231231689453125,"lon":-76.78464999999999918145476840436458587646484375,"poi_name":"Trafalgar Park","parent_id":"3488716","long":-76.78464999999999918145476840436458587646484375},"94":{"id":"11495263","label":"Trench Town","value":"11495263","lat":17.987429999999999807869244250468909740447998046875,"lon":-76.8011800000000022237145458348095417022705078125,"poi_name":"Trench Town","parent_id":"3488716","long":-76.8011800000000022237145458348095417022705078125},"95":{"id":"11494925","label":"University","value":"11494925","lat":18.0009399999999999408828443847596645355224609375,"lon":-76.747690000000005738911568187177181243896484375,"poi_name":"University","parent_id":"3488716","long":-76.747690000000005738911568187177181243896484375},"96":{"id":"11495140","label":"Vineyard Town","value":"11495140","lat":17.98689999999999855617716093547642230987548828125,"lon":-76.770589999999998553903424181044101715087890625,"poi_name":"Vineyard Town","parent_id":"3488716","long":-76.770589999999998553903424181044101715087890625},"97":{"id":"11495238","label":"Waltham Gardens","value":"11495238","lat":18.010850000000001358557710773311555385589599609375,"lon":-76.82049000000000660293153487145900726318359375,"poi_name":"Waltham Gardens","parent_id":"3488716","long":-76.82049000000000660293153487145900726318359375},"98":{"id":"11495222","label":"Washington Gardens","value":"11495222","lat":18.02174000000000120280674309469759464263916015625,"lon":-76.8401999999999958390617393888533115386962890625,"poi_name":"Washington Gardens","parent_id":"3488716","long":-76.8401999999999958390617393888533115386962890625},"99":{"id":"11495233","label":"Waterhouse","value":"11495233","lat":18.0123099999999993769961292855441570281982421875,"lon":-76.835049999999995407051756046712398529052734375,"poi_name":"Waterhouse","parent_id":"3488716","long":-76.835049999999995407051756046712398529052734375}}