{"success":true,"remaining_lookups":8877,"0":{"id":"11495356","label":"Above Rocks","value":"11495356","lat":18.11431999999999931105776340700685977935791015625,"lon":-76.8759000000000014551915228366851806640625,"poi_name":"Above Rocks","parent_id":"3488711","long":-76.8759000000000014551915228366851806640625},"1":{"id":"11495377","label":"Bartons","value":"11495377","lat":18.028949999999998254907040973193943500518798828125,"lon":-77.13321999999999434294295497238636016845703125,"poi_name":"Bartons","parent_id":"3488711","long":-77.13321999999999434294295497238636016845703125},"2":{"id":"11495378","label":"Bellas Gate","value":"11495378","lat":18.047149999999998470912032644264400005340576171875,"lon":-77.1490600000000057434590416960418224334716796875,"poi_name":"Bellas Gate","parent_id":"3488711","long":-77.1490600000000057434590416960418224334716796875},"3":{"id":"11495049","label":"Bogwalk","value":"11495049","lat":18.104679999999998329940353869460523128509521484375,"lon":-76.987920000000002573870006017386913299560546875,"poi_name":"Bogwalk","parent_id":"3488711","long":-76.987920000000002573870006017386913299560546875},"4":{"id":"11495066","label":"Braeton","value":"11495066","lat":17.941739999999999355395630118437111377716064453125,"lon":-76.886349999999993087840266525745391845703125,"poi_name":"Braeton","parent_id":"3488711","long":-76.886349999999993087840266525745391845703125},"5":{"id":"11495064","label":"Bridgeport","value":"11495064","lat":17.96264000000000038426151149906218051910400390625,"lon":-76.8780900000000002592059900052845478057861328125,"poi_name":"Bridgeport","parent_id":"3488711","long":-76.8780900000000002592059900052845478057861328125},"6":{"id":"11495051","label":"Browns Hill","value":"11495051","lat":18.053580000000000183035808731801807880401611328125,"lon":-77.118549999999999045030563138425350189208984375,"poi_name":"Browns Hill","parent_id":"3488711","long":-77.118549999999999045030563138425350189208984375},"7":{"id":"11495052","label":"Caymanas","value":"11495052","lat":18.038239999999998275370671763084828853607177734375,"lon":-76.8983300000000014051693142391741275787353515625,"poi_name":"Caymanas","parent_id":"3488711","long":-76.8983300000000014051693142391741275787353515625},"8":{"id":"11495056","label":"Central Village","value":"11495056","lat":17.999919999999999475903678103350102901458740234375,"lon":-76.9239299999999985857357387430965900421142578125,"poi_name":"Central Village","parent_id":"3488711","long":-76.9239299999999985857357387430965900421142578125},"9":{"id":"11495053","label":"Crescent","value":"11495053","lat":18.036210000000000519548848387785255908966064453125,"lon":-76.976259999999996352926245890557765960693359375,"poi_name":"Crescent","parent_id":"3488711","long":-76.976259999999996352926245890557765960693359375},"10":{"id":"11494941","label":"Cromarty","value":"11494941","lat":17.958400000000001028865881380625069141387939453125,"lon":-76.9845700000000050522430683486163616180419921875,"poi_name":"Cromarty","parent_id":"3488711","long":-76.9845700000000050522430683486163616180419921875},"11":{"id":"11495432","label":"Cumberland","value":"11495432","lat":17.9765000000000014779288903810083866119384765625,"lon":-76.882080000000001973603502847254276275634765625,"poi_name":"Cumberland","parent_id":"3488711","long":-76.882080000000001973603502847254276275634765625},"12":{"id":"11495061","label":"Edgewater","value":"11495061","lat":17.964479999999998227622199920006096363067626953125,"lon":-76.8654700000000019599610823206603527069091796875,"poi_name":"Edgewater","parent_id":"3488711","long":-76.8654700000000019599610823206603527069091796875},"13":{"id":"11495042","label":"Ensom","value":"11495042","lat":18.017779999999998352677721413783729076385498046875,"lon":-76.962209999999998899511410854756832122802734375,"poi_name":"Ensom","parent_id":"3488711","long":-76.962209999999998899511410854756832122802734375},"14":{"id":"11495047","label":"Ewarton","value":"11495047","lat":18.16745999999999838792064110748469829559326171875,"lon":-77.1038300000000020872903405688703060150146484375,"poi_name":"Ewarton","parent_id":"3488711","long":-77.1038300000000020872903405688703060150146484375},"15":{"id":"11495473","label":"Ginger Ridge","value":"11495473","lat":18.076879999999999171222953009419143199920654296875,"lon":-77.1686499999999995225152815692126750946044921875,"poi_name":"Ginger Ridge","parent_id":"3488711","long":-77.1686499999999995225152815692126750946044921875},"16":{"id":"11495474","label":"Glengoffe","value":"11495474","lat":18.152139999999999275814843713305890560150146484375,"lon":-76.890569999999996753103914670646190643310546875,"poi_name":"Glengoffe","parent_id":"3488711","long":-76.890569999999996753103914670646190643310546875},"17":{"id":"11495055","label":"Golden Acres","value":"11495055","lat":18.01950000000000073896444519050419330596923828125,"lon":-76.980400000000003046807250939309597015380859375,"poi_name":"Golden Acres","parent_id":"3488711","long":-76.980400000000003046807250939309597015380859375},"18":{"id":"11495062","label":"Greater Portmore","value":"11495062","lat":17.952279999999998238990883692167699337005615234375,"lon":-76.9113300000000066347638494335114955902099609375,"poi_name":"Greater Portmore","parent_id":"3488711","long":-76.9113300000000066347638494335114955902099609375},"19":{"id":"11495481","label":"Greendale","value":"11495481","lat":18.01250999999999891088009462691843509674072265625,"lon":-76.9483100000000064255800680257380008697509765625,"poi_name":"Greendale","parent_id":"3488711","long":-76.9483100000000064255800680257380008697509765625},"20":{"id":"11495059","label":"Gregory Park","value":"11495059","lat":17.994900000000001227817847393453121185302734375,"lon":-76.8830200000000019144863472320139408111572265625,"poi_name":"Gregory Park","parent_id":"3488711","long":-76.8830200000000019144863472320139408111572265625},"21":{"id":"11495101","label":"Hampton Green","value":"11495101","lat":18.00544000000000011141310096718370914459228515625,"lon":-76.9681800000000038153302739374339580535888671875,"poi_name":"Hampton Green","parent_id":"3488711","long":-76.9681800000000038153302739374339580535888671875},"22":{"id":"11495491","label":"Harewood","value":"11495491","lat":18.1727699999999998681232682429254055023193359375,"lon":-76.943950000000000954969436861574649810791015625,"poi_name":"Harewood","parent_id":"3488711","long":-76.943950000000000954969436861574649810791015625},"23":{"id":"11495048","label":"Harkers Hall","value":"11495048","lat":18.1314899999999994406607584096491336822509765625,"lon":-76.9134999999999990905052982270717620849609375,"poi_name":"Harkers Hall","parent_id":"3488711","long":-76.9134999999999990905052982270717620849609375},"24":{"id":"11495065","label":"Hellshire","value":"11495065","lat":17.89668999999999954297891235910356044769287109375,"lon":-76.961870000000004665707820095121860504150390625,"poi_name":"Hellshire","parent_id":"3488711","long":-76.961870000000004665707820095121860504150390625},"25":{"id":"11495503","label":"Independence City","value":"11495503","lat":17.977830000000000865156835061497986316680908203125,"lon":-76.87497999999999365172698162496089935302734375,"poi_name":"Independence City","parent_id":"3488711","long":-76.87497999999999365172698162496089935302734375},"26":{"id":"11495515","label":"Keystone","value":"11495515","lat":18.0165199999999998681232682429254055023193359375,"lon":-76.93524999999999636202119290828704833984375,"poi_name":"Keystone","parent_id":"3488711","long":-76.93524999999999636202119290828704833984375},"27":{"id":"11495036","label":"Kitson Town","value":"11495036","lat":18.034870000000001510898073320277035236358642578125,"lon":-77.04027999999999565261532552540302276611328125,"poi_name":"Kitson Town","parent_id":"3488711","long":-77.04027999999999565261532552540302276611328125},"28":{"id":"11495046","label":"Linstead","value":"11495046","lat":18.153420000000000555928636458702385425567626953125,"lon":-77.039410000000003719833330251276493072509765625,"poi_name":"Linstead","parent_id":"3488711","long":-77.039410000000003719833330251276493072509765625},"29":{"id":"11495529","label":"Lluidas Vale","value":"11495529","lat":18.149770000000000180762071977369487285614013671875,"lon":-77.168530000000004065441316924989223480224609375,"poi_name":"Lluidas Vale","parent_id":"3488711","long":-77.168530000000004065441316924989223480224609375},"30":{"id":"11495063","label":"Naggo Head","value":"11495063","lat":17.964150000000000062527760746888816356658935546875,"lon":-76.8881999999999976580511429347097873687744140625,"poi_name":"Naggo Head","parent_id":"3488711","long":-76.8881999999999976580511429347097873687744140625},"31":{"id":"11495054","label":"Old Harbour","value":"11495054","lat":17.95842999999999989313437254168093204498291015625,"lon":-77.1037000000000034560798667371273040771484375,"poi_name":"Old Harbour","parent_id":"3488711","long":-77.1037000000000034560798667371273040771484375},"32":{"id":"11495580","label":"Old Harbour Bay","value":"11495580","lat":17.910090000000000287627699435688555240631103515625,"lon":-77.099050000000005411493475548923015594482421875,"poi_name":"Old Harbour Bay","parent_id":"3488711","long":-77.099050000000005411493475548923015594482421875},"33":{"id":"11495057","label":"Old Harbour Road","value":"11495057","lat":17.957969999999999544115780736319720745086669921875,"lon":-77.027299999999996771293808706104755401611328125,"poi_name":"Old Harbour Road","parent_id":"3488711","long":-77.027299999999996771293808706104755401611328125},"34":{"id":"11495177","label":"Part of Guys Hill","value":"11495177","lat":18.24524999999999863575794734060764312744140625,"lon":-76.9908099999999961937646730802953243255615234375,"poi_name":"Part of Guys Hill","parent_id":"3488711","long":-76.9908099999999961937646730802953243255615234375},"35":{"id":"11495572","label":"Part of Keystone","value":"11495572","lat":18.03965000000000173940861714072525501251220703125,"lon":-76.951130000000006248228601180016994476318359375,"poi_name":"Part of Keystone","parent_id":"3488711","long":-76.951130000000006248228601180016994476318359375},"36":{"id":"11495574","label":"Part of Rock Hall","value":"11495574","lat":18.091190000000000992486093309707939624786376953125,"lon":-76.8880400000000037152858567424118518829345703125,"poi_name":"Part of Rock Hall","parent_id":"3488711","long":-76.8880400000000037152858567424118518829345703125},"37":{"id":"11495583","label":"Passage Fort","value":"11495583","lat":17.977879999999998972270986996591091156005859375,"lon":-76.8679300000000012005330063402652740478515625,"poi_name":"Passage Fort","parent_id":"3488711","long":-76.8679300000000012005330063402652740478515625},"38":{"id":"11495587","label":"Pear Tree Grove","value":"11495587","lat":18.2251499999999992951416061259806156158447265625,"lon":-76.9529299999999949477569316513836383819580078125,"poi_name":"Pear Tree Grove","parent_id":"3488711","long":-76.9529299999999949477569316513836383819580078125},"39":{"id":"11495594","label":"Point Hill","value":"11495594","lat":18.093610000000001747366695781238377094268798828125,"lon":-77.1047999999999973397279973141849040985107421875,"poi_name":"Point Hill","parent_id":"3488711","long":-77.1047999999999973397279973141849040985107421875},"40":{"id":"11495608","label":"Redwood","value":"11495608","lat":18.210260000000001667785909376107156276702880859375,"lon":-76.9853600000000000136424205265939235687255859375,"poi_name":"Redwood","parent_id":"3488711","long":-76.9853600000000000136424205265939235687255859375},"41":{"id":"11495617","label":"Riversdale","value":"11495617","lat":18.178020000000000067075234255753457546234130859375,"lon":-76.9663599999999945566742098890244960784912109375,"poi_name":"Riversdale","parent_id":"3488711","long":-76.9663599999999945566742098890244960784912109375},"42":{"id":"11495050","label":"Sligoville","value":"11495050","lat":18.082029999999999603232936351560056209564208984375,"lon":-76.93990999999999758074409328401088714599609375,"poi_name":"Sligoville","parent_id":"3488711","long":-76.93990999999999758074409328401088714599609375},"43":{"id":"11495060","label":"Spanish Town Central","value":"11495060","lat":17.98013999999999867895894567482173442840576171875,"lon":-76.9229399999999969850250636227428913116455078125,"poi_name":"Spanish Town Central","parent_id":"3488711","long":-76.9229399999999969850250636227428913116455078125},"44":{"id":"11495162","label":"St. John's East","value":"11495162","lat":18.0009000000000014551915228366851806640625,"lon":-76.974660000000000081854523159563541412353515625,"poi_name":"St. John's East","parent_id":"3488711","long":-76.974660000000000081854523159563541412353515625},"45":{"id":"11495041","label":"St. John's West","value":"11495041","lat":18.00538999999999845158527023158967494964599609375,"lon":-77.0075499999999948386175674386322498321533203125,"poi_name":"St. John's West","parent_id":"3488711","long":-77.0075499999999948386175674386322498321533203125},"46":{"id":"11495667","label":"Troja","value":"11495667","lat":18.20485000000000042064129956997931003570556640625,"lon":-76.9319600000000036743585951626300811767578125,"poi_name":"Troja","parent_id":"3488711","long":-76.9319600000000036743585951626300811767578125},"47":{"id":"11495680","label":"Waterford","value":"11495680","lat":17.99340000000000117097442853264510631561279296875,"lon":-76.8609000000000008867573342286050319671630859375,"poi_name":"Waterford","parent_id":"3488711","long":-76.8609000000000008867573342286050319671630859375},"48":{"id":"11495681","label":"Watermount","value":"11495681","lat":18.06685999999999836518327356316149234771728515625,"lon":-77.0911200000000036425262806005775928497314453125,"poi_name":"Watermount","parent_id":"3488711","long":-77.0911200000000036425262806005775928497314453125},"49":{"id":"11495686","label":"West Cumberland","value":"11495686","lat":17.978899999999999437250153278000652790069580078125,"lon":-76.886619999999993524397723376750946044921875,"poi_name":"West Cumberland","parent_id":"3488711","long":-76.886619999999993524397723376750946044921875},"50":{"id":"11495058","label":"Willowdene","value":"11495058","lat":17.991890000000001492708179284818470478057861328125,"lon":-76.981989999999996143742464482784271240234375,"poi_name":"Willowdene","parent_id":"3488711","long":-76.981989999999996143742464482784271240234375}}