{"success":true,"remaining_lookups":8873,"0":{"id":"11495360","label":"Airy Castle","value":"11495360","lat":17.925059999999998439079718082211911678314208984375,"lon":-76.342160000000006903064786456525325775146484375,"poi_name":"Airy Castle","parent_id":"3488688","long":-76.342160000000006903064786456525325775146484375},"1":{"id":"11495363","label":"Albion","value":"11495363","lat":17.9011899999999997135091689415276050567626953125,"lon":-76.607609999999993988240021280944347381591796875,"poi_name":"Albion","parent_id":"3488688","long":-76.607609999999993988240021280944347381591796875},"2":{"id":"11495128","label":"Amity Hall","value":"11495128","lat":17.967590000000001282387529499828815460205078125,"lon":-76.2569799999999986539478413760662078857421875,"poi_name":"Amity Hall","parent_id":"3488688","long":-76.2569799999999986539478413760662078857421875},"3":{"id":"11495372","label":"Arcadia","value":"11495372","lat":17.92229999999999989768184605054557323455810546875,"lon":-76.3002999999999929059413261711597442626953125,"poi_name":"Arcadia","parent_id":"3488688","long":-76.3002999999999929059413261711597442626953125},"4":{"id":"11495701","label":"Baptist","value":"11495701","lat":17.8766600000000011050360626541078090667724609375,"lon":-76.57837000000000671207089908421039581298828125,"poi_name":"Baptist","parent_id":"3488688","long":-76.57837000000000671207089908421039581298828125},"5":{"id":"11495137","label":"Barking Lodge","value":"11495137","lat":17.892790000000001526814230601303279399871826171875,"lon":-76.2892200000000002546585164964199066162109375,"poi_name":"Barking Lodge","parent_id":"3488688","long":-76.2892200000000002546585164964199066162109375},"6":{"id":"11495379","label":"Bath","value":"11495379","lat":17.957300000000000039790393202565610408782958984375,"lon":-76.34615999999999758074409328401088714599609375,"poi_name":"Bath","parent_id":"3488688","long":-76.34615999999999758074409328401088714599609375},"7":{"id":"11495385","label":"Bethel","value":"11495385","lat":17.9852699999999998681232682429254055023193359375,"lon":-76.580500000000000682121026329696178436279296875,"poi_name":"Bethel","parent_id":"3488688","long":-76.580500000000000682121026329696178436279296875},"8":{"id":"11495407","label":"Cedar Valley","value":"11495407","lat":18.028150000000000119371179607696831226348876953125,"lon":-76.595560000000006084519554860889911651611328125,"poi_name":"Cedar Valley","parent_id":"3488688","long":-76.595560000000006084519554860889911651611328125},"9":{"id":"11495705","label":"Church Corner","value":"11495705","lat":17.88718000000000074578565545380115509033203125,"lon":-76.418980000000004793037078343331813812255859375,"poi_name":"Church Corner","parent_id":"3488688","long":-76.418980000000004793037078343331813812255859375},"10":{"id":"11495434","label":"Dalvey","value":"11495434","lat":17.902409999999999712372300564311444759368896484375,"lon":-76.250010000000003174136509187519550323486328125,"poi_name":"Dalvey","parent_id":"3488688","long":-76.250010000000003174136509187519550323486328125},"11":{"id":"11495436","label":"Danvers Pen","value":"11495436","lat":17.928799999999998959765434847213327884674072265625,"lon":-76.4758599999999972851583152078092098236083984375,"poi_name":"Danvers Pen","parent_id":"3488688","long":-76.4758599999999972851583152078092098236083984375},"12":{"id":"11495132","label":"Duckenfield","value":"11495132","lat":17.9220499999999987039700499735772609710693359375,"lon":-76.2265699999999952751750242896378040313720703125,"poi_name":"Duckenfield","parent_id":"3488688","long":-76.2265699999999952751750242896378040313720703125},"13":{"id":"11495444","label":"Duhaney Pen","value":"11495444","lat":17.894020000000001147100192611105740070343017578125,"lon":-76.431929999999994151949067600071430206298828125,"poi_name":"Duhaney Pen","parent_id":"3488688","long":-76.431929999999994151949067600071430206298828125},"14":{"id":"11495131","label":"Easington","value":"11495131","lat":17.939350000000001017497197608463466167449951171875,"lon":-76.5926199999999965939423418603837490081787109375,"poi_name":"Easington","parent_id":"3488688","long":-76.5926199999999965939423418603837490081787109375},"15":{"id":"11495447","label":"Eleven Miles","value":"11495447","lat":17.9374499999999983401721692644059658050537109375,"lon":-76.643370000000004438334144651889801025390625,"poi_name":"Eleven Miles","parent_id":"3488688","long":-76.643370000000004438334144651889801025390625},"16":{"id":"11495465","label":"Font Hill","value":"11495465","lat":17.940550000000001773514668457210063934326171875,"lon":-76.5116900000000015324985724873840808868408203125,"poi_name":"Font Hill","parent_id":"3488688","long":-76.5116900000000015324985724873840808868408203125},"17":{"id":"11495475","label":"Golden Grove","value":"11495475","lat":17.922460000000000945874489843845367431640625,"lon":-76.273380000000003064997144974768161773681640625,"poi_name":"Golden Grove","parent_id":"3488688","long":-76.273380000000003064997144974768161773681640625},"18":{"id":"11495487","label":"Hagley Gap","value":"11495487","lat":18.048449999999998993871486163698136806488037109375,"lon":-76.62776999999999816282070241868495941162109375,"poi_name":"Hagley Gap","parent_id":"3488688","long":-76.62776999999999816282070241868495941162109375},"19":{"id":"11495152","label":"Hampton Court","value":"11495152","lat":17.91781999999999896999725024215877056121826171875,"lon":-76.2613099999999946021489449776709079742431640625,"poi_name":"Hampton Court","parent_id":"3488688","long":-76.2613099999999946021489449776709079742431640625},"20":{"id":"11495129","label":"Hayfield","value":"11495129","lat":17.981989999999999696456143283285200595855712890625,"lon":-76.3684099999999972396835801191627979278564453125,"poi_name":"Hayfield","parent_id":"3488688","long":-76.3684099999999972396835801191627979278564453125},"21":{"id":"11495124","label":"Hillside","value":"11495124","lat":17.9961899999999985766407917253673076629638671875,"lon":-76.4908199999999993679011822678148746490478515625,"poi_name":"Hillside","parent_id":"3488688","long":-76.4908199999999993679011822678148746490478515625},"22":{"id":"11495509","label":"Johns Town","value":"11495509","lat":17.896589999999999776036929688416421413421630859375,"lon":-76.3613600000000047884896048344671726226806640625,"poi_name":"Johns Town","parent_id":"3488688","long":-76.3613600000000047884896048344671726226806640625},"23":{"id":"11495127","label":"Johnson Mountain","value":"11495127","lat":17.98091000000000150293999467976391315460205078125,"lon":-76.31986000000000558429746888577938079833984375,"poi_name":"Johnson Mountain","parent_id":"3488688","long":-76.31986000000000558429746888577938079833984375},"24":{"id":"11495510","label":"Jones Pen","value":"11495510","lat":17.95067999999999841520548216067254543304443359375,"lon":-76.5477499999999935198502498678863048553466796875,"poi_name":"Jones Pen","parent_id":"3488688","long":-76.5477499999999935198502498678863048553466796875},"25":{"id":"11495497","label":"Leith Hall","value":"11495497","lat":17.879729999999998568682713084854185581207275390625,"lon":-76.343310000000002446540747769176959991455078125,"poi_name":"Leith Hall","parent_id":"3488688","long":-76.343310000000002446540747769176959991455078125},"26":{"id":"11495528","label":"Llandewey","value":"11495528","lat":17.94476999999999833335095900110900402069091796875,"lon":-76.6224500000000006139089236967265605926513671875,"poi_name":"Llandewey","parent_id":"3488688","long":-76.6224500000000006139089236967265605926513671875},"27":{"id":"11495181","label":"Lloyds","value":"11495181","lat":17.915040000000001185753717436455190181732177734375,"lon":-76.540850000000006048139766789972782135009765625,"poi_name":"Lloyds","parent_id":"3488688","long":-76.540850000000006048139766789972782135009765625},"28":{"id":"11495536","label":"Lyssons","value":"11495536","lat":17.887080000000000978843672783114016056060791015625,"lon":-76.3796099999999995588950696401298046112060546875,"poi_name":"Lyssons","parent_id":"3488688","long":-76.3796099999999995588950696401298046112060546875},"29":{"id":"11495368","label":"Middleton","value":"11495368","lat":17.939710000000001599573806743137538433074951171875,"lon":-76.4355800000000016325429896824061870574951171875,"poi_name":"Middleton","parent_id":"3488688","long":-76.4355800000000016325429896824061870574951171875},"30":{"id":"11495134","label":"Morant Bay","value":"11495134","lat":17.90080999999999988858689903281629085540771484375,"lon":-76.40663000000000693034962750971317291259765625,"poi_name":"Morant Bay","parent_id":"3488688","long":-76.40663000000000693034962750971317291259765625},"31":{"id":"11495708","label":"Mount Lebanus","value":"11495708","lat":17.97543999999999897454472375102341175079345703125,"lon":-76.5389100000000013324097380973398685455322265625,"poi_name":"Mount Lebanus","parent_id":"3488688","long":-76.5389100000000013324097380973398685455322265625},"32":{"id":"11495576","label":"New Monkland","value":"11495576","lat":17.9915799999999990177457220852375030517578125,"lon":-76.57332999999999856299837119877338409423828125,"poi_name":"New Monkland","parent_id":"3488688","long":-76.57332999999999856299837119877338409423828125},"33":{"id":"11495154","label":"Pamphret","value":"11495154","lat":17.875699999999998368593878694809973239898681640625,"lon":-76.51735999999999648935045115649700164794921875,"poi_name":"Pamphret","parent_id":"3488688","long":-76.51735999999999648935045115649700164794921875},"34":{"id":"11495586","label":"Pear Tree","value":"11495586","lat":17.911619999999999208739609457552433013916015625,"lon":-76.3167600000000021509549696929752826690673828125,"poi_name":"Pear Tree","parent_id":"3488688","long":-76.3167600000000021509549696929752826690673828125},"35":{"id":"11495599","label":"Poormans Corner","value":"11495599","lat":17.8915199999999998681232682429254055023193359375,"lon":-76.5835100000000039699443732388317584991455078125,"poi_name":"Poormans Corner","parent_id":"3488688","long":-76.5835100000000039699443732388317584991455078125},"36":{"id":"11495136","label":"Port Morant","value":"11495136","lat":17.89947000000000087993612396530807018280029296875,"lon":-76.342860000000001718944986350834369659423828125,"poi_name":"Port Morant","parent_id":"3488688","long":-76.342860000000001718944986350834369659423828125},"37":{"id":"11495601","label":"Prospect","value":"11495601","lat":17.87404000000000081627149484120309352874755859375,"lon":-76.3495599999999967621988616883754730224609375,"poi_name":"Prospect","parent_id":"3488688","long":-76.3495599999999967621988616883754730224609375},"38":{"id":"11495605","label":"Ramble","value":"11495605","lat":17.967909999999999826059138285927474498748779296875,"lon":-76.6263000000000005229594535194337368011474609375,"poi_name":"Ramble","parent_id":"3488688","long":-76.6263000000000005229594535194337368011474609375},"39":{"id":"11495611","label":"Retreat","value":"11495611","lat":17.877600000000001045918907038867473602294921875,"lon":-76.3679499999999933379513095133006572723388671875,"poi_name":"Retreat","parent_id":"3488688","long":-76.3679499999999933379513095133006572723388671875},"40":{"id":"11495612","label":"Richmond Vale","value":"11495612","lat":17.9743500000000011596057447604835033416748046875,"lon":-76.59044000000000096406438387930393218994140625,"poi_name":"Richmond Vale","parent_id":"3488688","long":-76.59044000000000096406438387930393218994140625},"41":{"id":"11495615","label":"River Head","value":"11495615","lat":17.99237000000000108457243186421692371368408203125,"lon":-76.6108200000000039153746911324560642242431640625,"poi_name":"River Head","parent_id":"3488688","long":-76.6108200000000039153746911324560642242431640625},"42":{"id":"11495627","label":"Rowlandsfield","value":"11495627","lat":17.973549999999999471356204594485461711883544921875,"lon":-76.2878099999999932379068923182785511016845703125,"poi_name":"Rowlandsfield","parent_id":"3488688","long":-76.2878099999999932379068923182785511016845703125},"43":{"id":"11495613","label":"Seaforth","value":"11495613","lat":17.944210000000001770104063325561583042144775390625,"lon":-76.4566099999999977399056660942733287811279296875,"poi_name":"Seaforth","parent_id":"3488688","long":-76.4566099999999977399056660942733287811279296875},"44":{"id":"11495126","label":"Somerset","value":"11495126","lat":18.009759999999999990905052982270717620849609375,"lon":-76.54595000000000482032191939651966094970703125,"poi_name":"Somerset","parent_id":"3488688","long":-76.54595000000000482032191939651966094970703125},"45":{"id":"11495631","label":"Spring Bank","value":"11495631","lat":17.95994999999999919282345217652618885040283203125,"lon":-76.3259599999999949204720905981957912445068359375,"poi_name":"Spring Bank","parent_id":"3488688","long":-76.3259599999999949204720905981957912445068359375},"46":{"id":"11495637","label":"Spring Garden","value":"11495637","lat":17.9174900000000008049028110690414905548095703125,"lon":-76.42977999999999383362592197954654693603515625,"poi_name":"Spring Garden","parent_id":"3488688","long":-76.42977999999999383362592197954654693603515625},"47":{"id":"11495662","label":"Sunning Hill","value":"11495662","lat":17.95611999999999852661858312785625457763671875,"lon":-76.4093100000000049476511776447296142578125,"poi_name":"Sunning Hill","parent_id":"3488688","long":-76.4093100000000049476511776447296142578125},"48":{"id":"11495668","label":"Trinityville","value":"11495668","lat":17.95720000000000027284841053187847137451171875,"lon":-76.494200000000006411937647499144077301025390625,"poi_name":"Trinityville","parent_id":"3488688","long":-76.494200000000006411937647499144077301025390625},"49":{"id":"11495688","label":"Wheelerfield","value":"11495688","lat":17.95873999999999881538315094076097011566162109375,"lon":-76.2962299999999942201611702330410480499267578125,"poi_name":"Wheelerfield","parent_id":"3488688","long":-76.2962299999999942201611702330410480499267578125},"50":{"id":"11495125","label":"White Hall","value":"11495125","lat":17.99804999999999921556081972084939479827880859375,"lon":-76.431049999999999045030563138425350189208984375,"poi_name":"White Hall","parent_id":"3488688","long":-76.431049999999999045030563138425350189208984375},"51":{"id":"11495135","label":"White Horses","value":"11495135","lat":17.89620000000000032969182939268648624420166015625,"lon":-76.4707599999999985129761626012623310089111328125,"poi_name":"White Horses","parent_id":"3488688","long":-76.4707599999999985129761626012623310089111328125},"52":{"id":"11495142","label":"Wilmington","value":"11495142","lat":17.928560000000000940190147957764565944671630859375,"lon":-76.3896199999999936380845610983669757843017578125,"poi_name":"Wilmington","parent_id":"3488688","long":-76.3896199999999936380845610983669757843017578125},"53":{"id":"11495692","label":"Winchester","value":"11495692","lat":17.941770000000001772377800079993903636932373046875,"lon":-76.2982300000000037698555388487875461578369140625,"poi_name":"Winchester","parent_id":"3488688","long":-76.2982300000000037698555388487875461578369140625},"54":{"id":"11495141","label":"Yallahs","value":"11495141","lat":17.875350000000000960653778747655451297760009765625,"lon":-76.5602899999999948477125144563615322113037109375,"poi_name":"Yallahs","parent_id":"3488688","long":-76.5602899999999948477125144563615322113037109375},"55":{"id":"11495697","label":"York","value":"11495697","lat":17.928490000000000037516656448133289813995361328125,"lon":-76.439830000000000609361450187861919403076171875,"poi_name":"York","parent_id":"3488688","long":-76.439830000000000609361450187861919403076171875}}