{"success":true,"remaining_lookups":8874,"0":{"id":"11495369","label":"Amiel Town","value":"11495369","lat":18.340270000000000294448909698985517024993896484375,"lon":-76.9761199999999945475792628712952136993408203125,"poi_name":"Amiel Town","parent_id":"3488693","long":-76.9761199999999945475792628712952136993408203125},"1":{"id":"11495365","label":"Annotto Bay","value":"11495365","lat":18.264970000000001704165697447024285793304443359375,"lon":-76.7669700000000005957190296612679958343505859375,"poi_name":"Annotto Bay","parent_id":"3488693","long":-76.7669700000000005957190296612679958343505859375},"2":{"id":"11495374","label":"Baileys Vale","value":"11495374","lat":18.345269999999999299689079634845256805419921875,"lon":-76.9259299999999939245753921568393707275390625,"poi_name":"Baileys Vale","parent_id":"3488693","long":-76.9259299999999939245753921568393707275390625},"3":{"id":"11495381","label":"Baxter Mountain","value":"11495381","lat":18.204049999999998732391759403981268405914306640625,"lon":-76.7719799999999992223820299841463565826416015625,"poi_name":"Baxter Mountain","parent_id":"3488693","long":-76.7719799999999992223820299841463565826416015625},"4":{"id":"11495118","label":"Belfield","value":"11495118","lat":18.273469999999999657802618457935750484466552734375,"lon":-76.8357400000000012596501619555056095123291015625,"poi_name":"Belfield","parent_id":"3488693","long":-76.8357400000000012596501619555056095123291015625},"5":{"id":"11495110","label":"Bonnygate","value":"11495110","lat":18.32869000000000170302882906980812549591064453125,"lon":-76.9460600000000027876012609340250492095947265625,"poi_name":"Bonnygate","parent_id":"3488693","long":-76.9460600000000027876012609340250492095947265625},"6":{"id":"11495713","label":"Brainerd","value":"11495713","lat":18.16987999999999914280124357901513576507568359375,"lon":-76.86889999999999645297066308557987213134765625,"poi_name":"Brainerd","parent_id":"3488693","long":-76.86889999999999645297066308557987213134765625},"7":{"id":"11495396","label":"Broadgate","value":"11495396","lat":18.2284700000000015052137314341962337493896484375,"lon":-76.8078799999999972669684211723506450653076171875,"poi_name":"Broadgate","parent_id":"3488693","long":-76.8078799999999972669684211723506450653076171875},"8":{"id":"11495121","label":"Camberwell","value":"11495121","lat":18.2393000000000000682121026329696178436279296875,"lon":-76.780879999999996243786881677806377410888671875,"poi_name":"Camberwell","parent_id":"3488693","long":-76.780879999999996243786881677806377410888671875},"9":{"id":"11495117","label":"Carron Hall","value":"11495117","lat":18.277969999999999828332875040359795093536376953125,"lon":-76.952460000000002082742867060005664825439453125,"poi_name":"Carron Hall","parent_id":"3488693","long":-76.952460000000002082742867060005664825439453125},"10":{"id":"11495119","label":"Castleton","value":"11495119","lat":18.176179999999998671000867034308612346649169921875,"lon":-76.783400000000000318323145620524883270263671875,"poi_name":"Castleton","parent_id":"3488693","long":-76.783400000000000318323145620524883270263671875},"11":{"id":"11495411","label":"Charles Town","value":"11495411","lat":18.389179999999999637338987668044865131378173828125,"lon":-77.0397799999999932651917333714663982391357421875,"poi_name":"Charles Town","parent_id":"3488693","long":-77.0397799999999932651917333714663982391357421875},"12":{"id":"11495122","label":"Clonmel","value":"11495122","lat":18.24280999999999863803168409503996372222900390625,"lon":-76.8313700000000068257577368058264255523681640625,"poi_name":"Clonmel","parent_id":"3488693","long":-76.8313700000000068257577368058264255523681640625},"13":{"id":"11495438","label":"Devon Pen","value":"11495438","lat":18.215610000000001633679858059622347354888916015625,"lon":-76.824399999999997135091689415276050567626953125,"poi_name":"Devon Pen","parent_id":"3488693","long":-76.824399999999997135091689415276050567626953125},"14":{"id":"11495441","label":"Dover","value":"11495441","lat":18.255340000000000344471118296496570110321044921875,"lon":-76.708110000000004902176442556083202362060546875,"poi_name":"Dover","parent_id":"3488693","long":-76.708110000000004902176442556083202362060546875},"15":{"id":"11495450","label":"Enfield","value":"11495450","lat":18.220359999999999445208231918513774871826171875,"lon":-76.737449999999995498001226224005222320556640625,"poi_name":"Enfield","parent_id":"3488693","long":-76.737449999999995498001226224005222320556640625},"16":{"id":"11495451","label":"Epson","value":"11495451","lat":18.252199999999998425437297555617988109588623046875,"lon":-76.7264100000000013324097380973398685455322265625,"poi_name":"Epson","parent_id":"3488693","long":-76.7264100000000013324097380973398685455322265625},"17":{"id":"11495464","label":"Flint River","value":"11495464","lat":18.237899999999999778310666442848742008209228515625,"lon":-76.921729999999996607584762386977672576904296875,"poi_name":"Flint River","parent_id":"3488693","long":-76.921729999999996607584762386977672576904296875},"18":{"id":"11495442","label":"Free Hill","value":"11495442","lat":18.354389999999998650537236244417726993560791015625,"lon":-76.9431699999999949568518786691129207611083984375,"poi_name":"Free Hill","parent_id":"3488693","long":-76.9431699999999949568518786691129207611083984375},"19":{"id":"11495469","label":"Friendship Gap","value":"11495469","lat":18.19718999999999908823156147263944149017333984375,"lon":-76.8195999999999941110218060202896595001220703125,"poi_name":"Friendship Gap","parent_id":"3488693","long":-76.8195999999999941110218060202896595001220703125},"20":{"id":"11495472","label":"Galina","value":"11495472","lat":18.40265000000000128466126625426113605499267578125,"lon":-76.900409999999993715391610749065876007080078125,"poi_name":"Galina","parent_id":"3488693","long":-76.900409999999993715391610749065876007080078125},"21":{"id":"11495115","label":"Gayle","value":"11495115","lat":18.342780000000001194848664454184472560882568359375,"lon":-77.0021100000000018326318240724503993988037109375,"poi_name":"Gayle","parent_id":"3488693","long":-77.0021100000000018326318240724503993988037109375},"22":{"id":"11495269","label":"Guys Hill","value":"11495269","lat":18.262429999999998386783772730268537998199462890625,"lon":-76.99560999999999921783455647528171539306640625,"poi_name":"Guys Hill","parent_id":"3488693","long":-76.99560999999999921783455647528171539306640625},"23":{"id":"11495488","label":"Hampstead","value":"11495488","lat":18.3205099999999987403498380444943904876708984375,"lon":-76.9047699999999991860022419132292270660400390625,"poi_name":"Hampstead","parent_id":"3488693","long":-76.9047699999999991860022419132292270660400390625},"24":{"id":"11495120","label":"Highgate","value":"11495120","lat":18.277390000000000469526639790274202823638916015625,"lon":-76.8955399999999968940755934454500675201416015625,"poi_name":"Highgate","parent_id":"3488693","long":-76.8955399999999968940755934454500675201416015625},"25":{"id":"11495112","label":"Islington","value":"11495112","lat":18.321600000000000108002495835535228252410888671875,"lon":-76.8410200000000003228706191293895244598388671875,"poi_name":"Islington","parent_id":"3488693","long":-76.8410200000000003228706191293895244598388671875},"26":{"id":"11495507","label":"Jacks River","value":"11495507","lat":18.37219999999999942019712761975824832916259765625,"lon":-76.94101000000000567524693906307220458984375,"poi_name":"Jacks River","parent_id":"3488693","long":-76.94101000000000567524693906307220458984375},"27":{"id":"11495508","label":"Jeffery Town","value":"11495508","lat":18.28956000000000159388946485705673694610595703125,"lon":-77.0034299999999944930095807649195194244384765625,"poi_name":"Jeffery Town","parent_id":"3488693","long":-77.0034299999999944930095807649195194244384765625},"28":{"id":"11495519","label":"Labyrinth","value":"11495519","lat":18.344190000000001106172931031323969364166259765625,"lon":-77.0322699999999969122654874809086322784423828125,"poi_name":"Labyrinth","parent_id":"3488693","long":-77.0322699999999969122654874809086322784423828125},"29":{"id":"11495454","label":"Long Road","value":"11495454","lat":18.213370000000001169837560155428946018218994140625,"lon":-76.75009000000000014551915228366851806640625,"poi_name":"Long Road","parent_id":"3488693","long":-76.75009000000000014551915228366851806640625},"30":{"id":"11495530","label":"Lucky Hill","value":"11495530","lat":18.3025200000000012323653209023177623748779296875,"lon":-77.0167799999999971305442159064114093780517578125,"poi_name":"Lucky Hill","parent_id":"3488693","long":-77.0167799999999971305442159064114093780517578125},"31":{"id":"11495541","label":"Mango Valley","value":"11495541","lat":18.374810000000000087538865045644342899322509765625,"lon":-76.9769399999999990313881426118314266204833984375,"poi_name":"Mango Valley","parent_id":"3488693","long":-76.9769399999999990313881426118314266204833984375},"32":{"id":"11495543","label":"Martin","value":"11495543","lat":18.301179999999998671000867034308612346649169921875,"lon":-76.87256999999999607098288834095001220703125,"poi_name":"Martin","parent_id":"3488693","long":-76.87256999999999607098288834095001220703125},"33":{"id":"11495548","label":"Mason Hall","value":"11495548","lat":18.3966199999999986403054208494722843170166015625,"lon":-76.9206300000000027239366318099200725555419921875,"poi_name":"Mason Hall","parent_id":"3488693","long":-76.9206300000000027239366318099200725555419921875},"34":{"id":"11495554","label":"Mile Gully","value":"11495554","lat":18.3180100000000010140865924768149852752685546875,"lon":-76.9605099999999993087840266525745391845703125,"poi_name":"Mile Gully","parent_id":"3488693","long":-76.9605099999999993087840266525745391845703125},"35":{"id":"11495114","label":"Oracabessa","value":"11495114","lat":18.39677999999999968849806464277207851409912109375,"lon":-76.9717399999999969395503285340964794158935546875,"poi_name":"Oracabessa","parent_id":"3488693","long":-76.9717399999999969395503285340964794158935546875},"36":{"id":"11495113","label":"Port Maria","value":"11495113","lat":18.36771999999999849251253181137144565582275390625,"lon":-76.9020699999999948204276734031736850738525390625,"poi_name":"Port Maria","parent_id":"3488693","long":-76.9020699999999948204276734031736850738525390625},"37":{"id":"11495600","label":"Prospect","value":"11495600","lat":18.412729999999999819237928022630512714385986328125,"lon":-77.041190000000000281943357549607753753662109375,"poi_name":"Prospect","parent_id":"3488693","long":-77.041190000000000281943357549607753753662109375},"38":{"id":"11495111","label":"Retreat","value":"11495111","lat":18.37865000000000037516656448133289813995361328125,"lon":-77.0159000000000020236257114447653293609619140625,"poi_name":"Retreat","parent_id":"3488693","long":-77.0159000000000020236257114447653293609619140625},"39":{"id":"11495123","label":"Richmond","value":"11495123","lat":18.211130000000000705995262251235544681549072265625,"lon":-76.8830099999999987403498380444943904876708984375,"poi_name":"Richmond","parent_id":"3488693","long":-76.8830099999999987403498380444943904876708984375},"40":{"id":"11495597","label":"Robins Bay","value":"11495597","lat":18.312360000000001747366695781238377094268798828125,"lon":-76.8178300000000007230482879094779491424560546875,"poi_name":"Robins Bay","parent_id":"3488693","long":-76.8178300000000007230482879094779491424560546875},"41":{"id":"11495116","label":"Sandside","value":"11495116","lat":18.338879999999999625970303895883262157440185546875,"lon":-76.89551000000000158252078108489513397216796875,"poi_name":"Sandside","parent_id":"3488693","long":-76.89551000000000158252078108489513397216796875},"42":{"id":"11495633","label":"Scotts Hall","value":"11495633","lat":18.19082999999999827878127689473330974578857421875,"lon":-76.8394200000000040517988963983952999114990234375,"poi_name":"Scotts Hall","parent_id":"3488693","long":-76.8394200000000040517988963983952999114990234375},"43":{"id":"11494891","label":"Woodpark","value":"11494891","lat":18.29733999999999838337316759862005710601806640625,"lon":-76.9811399999999963483787723816931247711181640625,"poi_name":"Woodpark","parent_id":"3488693","long":-76.9811399999999963483787723816931247711181640625},"44":{"id":"11495695","label":"Woodside","value":"11495695","lat":18.252579999999998250359567464329302310943603515625,"lon":-76.9267899999999968940755934454500675201416015625,"poi_name":"Woodside","parent_id":"3488693","long":-76.9267899999999968940755934454500675201416015625}}