{"success":true,"remaining_lookups":8879,"0":{"id":"11495375","label":"Balcarres","value":"11495375","lat":18.16734999999999899955582804977893829345703125,"lon":-76.720609999999993533492670394480228424072265625,"poi_name":"Balcarres","parent_id":"3488997","long":-76.720609999999993533492670394480228424072265625},"1":{"id":"11495023","label":"Bangor Ridge","value":"11495023","lat":18.13636999999999943611328490078449249267578125,"lon":-76.68903000000000247382558882236480712890625,"poi_name":"Bangor Ridge","parent_id":"3488997","long":-76.68903000000000247382558882236480712890625},"2":{"id":"11495158","label":"Belvedere","value":"11495158","lat":18.207719999999998350403984659351408481597900390625,"lon":-76.69670999999999594365363009274005889892578125,"poi_name":"Belvedere","parent_id":"3488997","long":-76.69670999999999594365363009274005889892578125},"3":{"id":"11495390","label":"Black Hill","value":"11495390","lat":18.217860000000001718944986350834369659423828125,"lon":-76.5975799999999935607775114476680755615234375,"poi_name":"Black Hill","parent_id":"3488997","long":-76.5975799999999935607775114476680755615234375},"4":{"id":"11495395","label":"Boundbrook","value":"11495395","lat":18.1757300000000014961187844164669513702392578125,"lon":-76.470789999999993824530974961817264556884765625,"poi_name":"Boundbrook","parent_id":"3488997","long":-76.470789999999993824530974961817264556884765625},"5":{"id":"11495021","label":"Breastworks","value":"11495021","lat":18.160000000000000142108547152020037174224853515625,"lon":-76.4661200000000036425262806005775928497314453125,"poi_name":"Breastworks","parent_id":"3488997","long":-76.4661200000000036425262806005775928497314453125},"6":{"id":"11495186","label":"Buff Bay","value":"11495186","lat":18.232530000000000569571056985296308994293212890625,"lon":-76.66037000000000034560798667371273040771484375,"poi_name":"Buff Bay","parent_id":"3488997","long":-76.66037000000000034560798667371273040771484375},"7":{"id":"11495704","label":"Bybrook","value":"11495704","lat":18.146409999999999484998625121079385280609130859375,"lon":-76.6572599999999937381289782933890819549560546875,"poi_name":"Bybrook","parent_id":"3488997","long":-76.6572599999999937381289782933890819549560546875},"8":{"id":"11495246","label":"Cascade","value":"11495246","lat":18.09376999999999924284566077403724193572998046875,"lon":-76.712230000000005247784429229795932769775390625,"poi_name":"Cascade","parent_id":"3488997","long":-76.712230000000005247784429229795932769775390625},"9":{"id":"11495408","label":"Castle Comfort","value":"11495408","lat":18.14217000000000012960299500264227390289306640625,"lon":-76.34633999999999787178239785134792327880859375,"poi_name":"Castle Comfort","parent_id":"3488997","long":-76.34633999999999787178239785134792327880859375},"10":{"id":"11494889","label":"Central Port Antonio","value":"11494889","lat":18.1876299999999986312104738317430019378662109375,"lon":-76.453429999999997335180523805320262908935546875,"poi_name":"Central Port Antonio","parent_id":"3488997","long":-76.453429999999997335180523805320262908935546875},"11":{"id":"11495160","label":"Charles Town","value":"11495160","lat":18.205259999999999109832060639746487140655517578125,"lon":-76.6638999999999981582732289098203182220458984375,"poi_name":"Charles Town","parent_id":"3488997","long":-76.6638999999999981582732289098203182220458984375},"12":{"id":"11494890","label":"Claverty Cottage","value":"11494890","lat":18.148759999999999337205736082978546619415283203125,"lon":-76.639229999999997744453139603137969970703125,"poi_name":"Claverty Cottage","parent_id":"3488997","long":-76.639229999999997744453139603137969970703125},"13":{"id":"11495173","label":"Comfort Castle","value":"11495173","lat":18.04832999999999998408384271897375583648681640625,"lon":-76.4161399999999986221155268140137195587158203125,"poi_name":"Comfort Castle","parent_id":"3488997","long":-76.4161399999999986221155268140137195587158203125},"14":{"id":"11495020","label":"Drapers","value":"11495020","lat":18.171209999999998530029188259504735469818115234375,"lon":-76.4061200000000013687895261682569980621337890625,"poi_name":"Drapers","parent_id":"3488997","long":-76.4061200000000013687895261682569980621337890625},"15":{"id":"11495448","label":"Durham","value":"11495448","lat":18.085660000000000735553840058855712413787841796875,"lon":-76.5156199999999984129317454062402248382568359375,"poi_name":"Durham","parent_id":"3488997","long":-76.5156199999999984129317454062402248382568359375},"16":{"id":"11495026","label":"Fairy Hill","value":"11495026","lat":18.165079999999999671445038984529674053192138671875,"lon":-76.3659499999999979991116560995578765869140625,"poi_name":"Fairy Hill","parent_id":"3488997","long":-76.3659499999999979991116560995578765869140625},"17":{"id":"11495462","label":"Fellowship","value":"11495462","lat":18.127829999999999444071363541297614574432373046875,"lon":-76.4720200000000005502442945726215839385986328125,"poi_name":"Fellowship","parent_id":"3488997","long":-76.4720200000000005502442945726215839385986328125},"18":{"id":"11495022","label":"Fruitfulvale","value":"11495022","lat":18.10891000000000161662683240137994289398193359375,"lon":-76.5861699999999956389729049988090991973876953125,"poi_name":"Fruitfulvale","parent_id":"3488997","long":-76.5861699999999956389729049988090991973876953125},"19":{"id":"11495184","label":"Hectors River","value":"11495184","lat":18.000889999999998281055013649165630340576171875,"lon":-76.2705500000000000682121026329696178436279296875,"poi_name":"Hectors River","parent_id":"3488997","long":-76.2705500000000000682121026329696178436279296875},"20":{"id":"11495171","label":"Hope Bay","value":"11495171","lat":18.1875399999999984856913215480744838714599609375,"lon":-76.5757899999999978035702952183783054351806640625,"poi_name":"Hope Bay","parent_id":"3488997","long":-76.5757899999999978035702952183783054351806640625},"21":{"id":"11495174","label":"Kensington","value":"11495174","lat":18.0676500000000004320099833421409130096435546875,"lon":-76.3005299999999948568074614740908145904541015625,"poi_name":"Kensington","parent_id":"3488997","long":-76.3005299999999948568074614740908145904541015625},"22":{"id":"11495531","label":"Long Bay","value":"11495531","lat":18.085809999999998609609974664635956287384033203125,"lon":-76.3251499999999936107997200451791286468505859375,"poi_name":"Long Bay","parent_id":"3488997","long":-76.3251499999999936107997200451791286468505859375},"23":{"id":"11495161","label":"Long Road","value":"11495161","lat":18.0086399999999997589839040301740169525146484375,"lon":-76.2948200000000014142642612569034099578857421875,"poi_name":"Long Road","parent_id":"3488997","long":-76.2948200000000014142642612569034099578857421875},"24":{"id":"11495175","label":"Manchioneal","value":"11495175","lat":18.045970000000000510453901370055973529815673828125,"lon":-76.30104000000000041836756281554698944091796875,"poi_name":"Manchioneal","parent_id":"3488997","long":-76.30104000000000041836756281554698944091796875},"25":{"id":"11495562","label":"Moore Town","value":"11495562","lat":18.067009999999999791953086969442665576934814453125,"lon":-76.3748700000000013687895261682569980621337890625,"poi_name":"Moore Town","parent_id":"3488997","long":-76.3748700000000013687895261682569980621337890625},"26":{"id":"11495169","label":"Mount Pleasant","value":"11495169","lat":18.163250000000001449507180950604379177093505859375,"lon":-76.5047200000000060526872402988374233245849609375,"poi_name":"Mount Pleasant","parent_id":"3488997","long":-76.5047200000000060526872402988374233245849609375},"27":{"id":"11495025","label":"Nonsuch","value":"11495025","lat":18.13819000000000158934199134819209575653076171875,"lon":-76.4046699999999958663465804420411586761474609375,"poi_name":"Nonsuch","parent_id":"3488997","long":-76.4046699999999958663465804420411586761474609375},"28":{"id":"11495581","label":"Norwich","value":"11495581","lat":18.18818999999999874717104830779135227203369140625,"lon":-76.4770500000000055251803132705390453338623046875,"poi_name":"Norwich","parent_id":"3488997","long":-76.4770500000000055251803132705390453338623046875},"29":{"id":"11495159","label":"Orange Bay","value":"11495159","lat":18.20306000000000068439476308412849903106689453125,"lon":-76.62250000000000227373675443232059478759765625,"poi_name":"Orange Bay","parent_id":"3488997","long":-76.62250000000000227373675443232059478759765625},"30":{"id":"11495603","label":"Prospect","value":"11495603","lat":18.17481000000000079808160080574452877044677734375,"lon":-76.4355000000000046611603465862572193145751953125,"poi_name":"Prospect","parent_id":"3488997","long":-76.4355000000000046611603465862572193145751953125},"31":{"id":"11495623","label":"Rock Hall","value":"11495623","lat":18.161699999999999732835931354202330112457275390625,"lon":-76.5305000000000035242919693700969219207763671875,"poi_name":"Rock Hall","parent_id":"3488997","long":-76.5305000000000035242919693700969219207763671875},"32":{"id":"11495170","label":"Sherwood Forest","value":"11495170","lat":18.154279999999999972715158946812152862548828125,"lon":-76.378209999999995716279954649507999420166015625,"poi_name":"Sherwood Forest","parent_id":"3488997","long":-76.378209999999995716279954649507999420166015625},"33":{"id":"11495647","label":"Shirley Castle","value":"11495647","lat":18.156569999999998543671608786098659038543701171875,"lon":-76.611119999999999663486960344016551971435546875,"poi_name":"Shirley Castle","parent_id":"3488997","long":-76.611119999999999663486960344016551971435546875},"34":{"id":"11495648","label":"Skibo","value":"11495648","lat":18.173179999999998557314029312692582607269287109375,"lon":-76.627520000000004074536263942718505859375,"poi_name":"Skibo","parent_id":"3488997","long":-76.627520000000004074536263942718505859375},"35":{"id":"11495176","label":"Snow Hill","value":"11495176","lat":18.194739999999999469082467840053141117095947265625,"lon":-76.4934999999999973852027324028313159942626953125,"poi_name":"Snow Hill","parent_id":"3488997","long":-76.4934999999999973852027324028313159942626953125},"36":{"id":"11495172","label":"Spring Hill","value":"11495172","lat":18.125910000000001076614353223703801631927490234375,"lon":-76.7290899999999993497112882323563098907470703125,"poi_name":"Spring Hill","parent_id":"3488997","long":-76.7290899999999993497112882323563098907470703125},"37":{"id":"11495659","label":"St. Margaret's Bay","value":"11495659","lat":18.19084000000000145291778608225286006927490234375,"lon":-76.5288800000000009049472282640635967254638671875,"poi_name":"St. Margaret's Bay","parent_id":"3488997","long":-76.5288800000000009049472282640635967254638671875},"38":{"id":"11495024","label":"Swift River","value":"11495024","lat":18.15769999999999839701558812521398067474365234375,"lon":-76.57868999999999459760147146880626678466796875,"poi_name":"Swift River","parent_id":"3488997","long":-76.57868999999999459760147146880626678466796875},"39":{"id":"11495669","label":"Tranquility","value":"11495669","lat":18.180279999999999773763192933984100818634033203125,"lon":-76.681499999999999772626324556767940521240234375,"poi_name":"Tranquility","parent_id":"3488997","long":-76.681499999999999772626324556767940521240234375},"40":{"id":"11495698","label":"Windsor","value":"11495698","lat":18.106729999999998881321516819298267364501953125,"lon":-76.4463099999999968758856994099915027618408203125,"poi_name":"Windsor","parent_id":"3488997","long":-76.4463099999999968758856994099915027618408203125},"41":{"id":"11495185","label":"Windsor Castle","value":"11495185","lat":18.2488799999999997680788510479032993316650390625,"lon":-76.69029000000000451109372079372406005859375,"poi_name":"Windsor Castle","parent_id":"3488997","long":-76.69029000000000451109372079372406005859375},"42":{"id":"11495699","label":"Windsor Forest","value":"11495699","lat":18.1205700000000007321432349272072315216064453125,"lon":-76.3387599999999935107553028501570224761962890625,"poi_name":"Windsor Forest","parent_id":"3488997","long":-76.3387599999999935107553028501570224761962890625}}