{"success":true,"remaining_lookups":8883,"0":{"id":"11495270","label":"Allman Town","value":"11495270","lat":17.98297000000000167574398801662027835845947265625,"lon":-76.7868500000000011596057447604835033416748046875,"poi_name":"Allman Town","parent_id":"3489853","long":-76.7868500000000011596057447604835033416748046875},"1":{"id":"11495227","label":"Bournemouth Gardens","value":"11495227","lat":17.970089999999999008650775067508220672607421875,"lon":-76.7626599999999967849362292326986789703369140625,"poi_name":"Bournemouth Gardens","parent_id":"3489853","long":-76.7626599999999967849362292326986789703369140625},"2":{"id":"11495272","label":"Campbell Town","value":"11495272","lat":17.979140000000001009539118967950344085693359375,"lon":-76.78134000000000014551915228366851806640625,"poi_name":"Campbell Town","parent_id":"3489853","long":-76.78134000000000014551915228366851806640625},"3":{"id":"11495278","label":"Central Down Town","value":"11495278","lat":17.96958000000000055251803132705390453338623046875,"lon":-76.7926400000000057843863032758235931396484375,"poi_name":"Central Down Town","parent_id":"3489853","long":-76.7926400000000057843863032758235931396484375},"4":{"id":"11495273","label":"D'Aguilar Town\/ Rennock Lodge","value":"11495273","lat":17.970009999999998484554453170858323574066162109375,"lon":-76.73700999999999794454197399318218231201171875,"poi_name":"D'Aguilar Town\/ Rennock Lodge","parent_id":"3489853","long":-76.73700999999999794454197399318218231201171875},"5":{"id":"11495230","label":"Denham Town","value":"11495230","lat":17.978120000000000544559952686540782451629638671875,"lon":-76.7998400000000032150637707673013210296630859375,"poi_name":"Denham Town","parent_id":"3489853","long":-76.7998400000000032150637707673013210296630859375},"6":{"id":"11495280","label":"East Down Town","value":"11495280","lat":17.97196999999999889041646383702754974365234375,"lon":-76.7847100000000040154191083274781703948974609375,"poi_name":"East Down Town","parent_id":"3489853","long":-76.7847100000000040154191083274781703948974609375},"7":{"id":"11495215","label":"Fletchers Land","value":"11495215","lat":17.979679999999998329940353869460523128509521484375,"lon":-76.79099999999999681676854379475116729736328125,"poi_name":"Fletchers Land","parent_id":"3489853","long":-76.79099999999999681676854379475116729736328125},"8":{"id":"11495274","label":"Franklyn Town","value":"11495274","lat":17.977869999999999350848156609572470188140869140625,"lon":-76.77339000000000623913365416228771209716796875,"poi_name":"Franklyn Town","parent_id":"3489853","long":-76.77339000000000623913365416228771209716796875},"9":{"id":"11495271","label":"Hannah Town\/ Craig Town","value":"11495271","lat":17.979980000000001183479980682022869586944580078125,"lon":-76.7943000000000068894223659299314022064208984375,"poi_name":"Hannah Town\/ Craig Town","parent_id":"3489853","long":-76.7943000000000068894223659299314022064208984375},"10":{"id":"11495163","label":"Johnson Town","value":"11495163","lat":17.977709999999998302655512816272675991058349609375,"lon":-76.755930000000006430127541534602642059326171875,"poi_name":"Johnson Town","parent_id":"3489853","long":-76.755930000000006430127541534602642059326171875},"11":{"id":"11495213","label":"Kingston Gardens","value":"11495213","lat":17.978359999999998564135239575989544391632080078125,"lon":-76.78681000000000267391442321240901947021484375,"poi_name":"Kingston Gardens","parent_id":"3489853","long":-76.78681000000000267391442321240901947021484375},"12":{"id":"11495180","label":"Manley Meadows","value":"11495180","lat":17.969069999999998543671608786098659038543701171875,"lon":-76.7711599999999947385731502436101436614990234375,"poi_name":"Manley Meadows","parent_id":"3489853","long":-76.7711599999999947385731502436101436614990234375},"13":{"id":"11495164","label":"Newport East","value":"11495164","lat":17.974209999999999354258761741220951080322265625,"lon":-76.8066299999999984038367983885109424591064453125,"poi_name":"Newport East","parent_id":"3489853","long":-76.8066299999999984038367983885109424591064453125},"14":{"id":"11495275","label":"Newton Square","value":"11495275","lat":17.97352000000000060708771343342959880828857421875,"lon":-76.7720699999999993679011822678148746490478515625,"poi_name":"Newton Square","parent_id":"3489853","long":-76.7720699999999993679011822678148746490478515625},"15":{"id":"11495251","label":"Norman Gardens","value":"11495251","lat":17.978030000000000399040800402872264385223388671875,"lon":-76.759399999999999408828443847596645355224609375,"poi_name":"Norman Gardens","parent_id":"3489853","long":-76.759399999999999408828443847596645355224609375},"16":{"id":"11495277","label":"Passmore Town","value":"11495277","lat":17.973009999999998598241290892474353313446044921875,"lon":-76.77649999999999863575794734060764312744140625,"poi_name":"Passmore Town","parent_id":"3489853","long":-76.77649999999999863575794734060764312744140625},"17":{"id":"11494918","label":"Port Royal","value":"11494918","lat":17.938990000000000435420588473789393901824951171875,"lon":-76.7928399999999982128429110161960124969482421875,"poi_name":"Port Royal","parent_id":"3489853","long":-76.7928399999999982128429110161960124969482421875},"18":{"id":"11495283","label":"Rae Town","value":"11495283","lat":17.967729999999999535020833718590438365936279296875,"lon":-76.77965000000000372892827726900577545166015625,"poi_name":"Rae Town","parent_id":"3489853","long":-76.77965000000000372892827726900577545166015625},"19":{"id":"11495260","label":"Rollington Town","value":"11495260","lat":17.976870000000001681428329902701079845428466796875,"lon":-76.765230000000002519300323911011219024658203125,"poi_name":"Rollington Town","parent_id":"3489853","long":-76.765230000000002519300323911011219024658203125},"20":{"id":"11494921","label":"Southside","value":"11494921","lat":17.965689999999998605062501155771315097808837890625,"lon":-76.7862400000000064892446971498429775238037109375,"poi_name":"Southside","parent_id":"3489853","long":-76.7862400000000064892446971498429775238037109375},"21":{"id":"11495219","label":"Springfield","value":"11495219","lat":17.971170000000000754880602471530437469482421875,"lon":-76.756069999999994024619809351861476898193359375,"poi_name":"Springfield","parent_id":"3489853","long":-76.756069999999994024619809351861476898193359375},"22":{"id":"11495276","label":"Tivoli Gardens","value":"11495276","lat":17.973259999999999791953086969442665576934814453125,"lon":-76.8008999999999986130205797962844371795654296875,"poi_name":"Tivoli Gardens","parent_id":"3489853","long":-76.8008999999999986130205797962844371795654296875},"23":{"id":"11495279","label":"West Down Town","value":"11495279","lat":17.97294000000000124828147818334400653839111328125,"lon":-76.7970399999999955298335407860577106475830078125,"poi_name":"West Down Town","parent_id":"3489853","long":-76.7970399999999955298335407860577106475830078125}}