{"success":true,"remaining_lookups":8881,"0":{"id":"11495007","label":"Askenish","value":"11495007","lat":18.38492000000000103909769677557051181793212890625,"lon":-78.149100000000004229150363244116306304931640625,"poi_name":"Askenish","parent_id":"3490145","long":-78.149100000000004229150363244116306304931640625},"1":{"id":"11495401","label":"Cacoon","value":"11495401","lat":18.416419999999998680095814052037894725799560546875,"lon":-78.207300000000003592504072003066539764404296875,"poi_name":"Cacoon","parent_id":"3490145","long":-78.207300000000003592504072003066539764404296875},"2":{"id":"11495005","label":"Cacoon Castle","value":"11495005","lat":18.40247000000000099362296168692409992218017578125,"lon":-78.013360000000005811671144329011440277099609375,"poi_name":"Cacoon Castle","parent_id":"3490145","long":-78.013360000000005811671144329011440277099609375},"3":{"id":"11495006","label":"Cascade","value":"11495006","lat":18.4065599999999989222487783990800380706787109375,"lon":-78.096350000000001045918907038867473602294921875,"poi_name":"Cascade","parent_id":"3490145","long":-78.096350000000001045918907038867473602294921875},"4":{"id":"11495405","label":"Cash Hill","value":"11495405","lat":18.36919999999999930651028989814221858978271484375,"lon":-78.1093800000000015870682545937597751617431640625,"poi_name":"Cash Hill","parent_id":"3490145","long":-78.1093800000000015870682545937597751617431640625},"5":{"id":"11495406","label":"Cauldwell","value":"11495406","lat":18.38582999999999856299837119877338409423828125,"lon":-78.2411000000000029785951483063399791717529296875,"poi_name":"Cauldwell","parent_id":"3490145","long":-78.2411000000000029785951483063399791717529296875},"6":{"id":"11495409","label":"Chambers Pen","value":"11495409","lat":18.40520000000000067075234255753457546234130859375,"lon":-78.159750000000002501110429875552654266357421875,"poi_name":"Chambers Pen","parent_id":"3490145","long":-78.159750000000002501110429875552654266357421875},"7":{"id":"11494997","label":"Chester Castle","value":"11494997","lat":18.33821999999999974306774674914777278900146484375,"lon":-77.9472200000000015052137314341962337493896484375,"poi_name":"Chester Castle","parent_id":"3490145","long":-77.9472200000000015052137314341962337493896484375},"8":{"id":"11495430","label":"Copse","value":"11495430","lat":18.394659999999998234443410183303058147430419921875,"lon":-77.9767800000000050886228564195334911346435546875,"poi_name":"Copse","parent_id":"3490145","long":-77.9767800000000050886228564195334911346435546875},"9":{"id":"11495427","label":"Cousins Cove","value":"11495427","lat":18.424250000000000682121026329696178436279296875,"lon":-78.2375200000000035061020753346383571624755859375,"poi_name":"Cousins Cove","parent_id":"3490145","long":-78.2375200000000035061020753346383571624755859375},"10":{"id":"11495439","label":"Dias","value":"11495439","lat":18.393789999999999196234057308174669742584228515625,"lon":-78.185620000000000118234311230480670928955078125,"poi_name":"Dias","parent_id":"3490145","long":-78.185620000000000118234311230480670928955078125},"11":{"id":"11495479","label":"Great Valley","value":"11495479","lat":18.41169000000000011141310096718370914459228515625,"lon":-78.05022999999999910869519226253032684326171875,"poi_name":"Great Valley","parent_id":"3490145","long":-78.05022999999999910869519226253032684326171875},"12":{"id":"11494999","label":"Green Island","value":"11494999","lat":18.383990000000000719637682777829468250274658203125,"lon":-78.27015000000000100044417195022106170654296875,"poi_name":"Green Island","parent_id":"3490145","long":-78.27015000000000100044417195022106170654296875},"13":{"id":"11495486","label":"Haddington","value":"11495486","lat":18.420429999999999637338987668044865131378173828125,"lon":-78.0038299999999935607775114476680755615234375,"poi_name":"Haddington","parent_id":"3490145","long":-78.0038299999999935607775114476680755615234375},"14":{"id":"11495500","label":"Hopewell","value":"11495500","lat":18.44321000000000054797055781818926334381103515625,"lon":-78.0263599999999968304109643213450908660888671875,"poi_name":"Hopewell","parent_id":"3490145","long":-78.0263599999999968304109643213450908660888671875},"15":{"id":"11494943","label":"Jericho","value":"11494943","lat":18.437439999999998718749338877387344837188720703125,"lon":-78.130279999999999063220457173883914947509765625,"poi_name":"Jericho","parent_id":"3490145","long":-78.130279999999999063220457173883914947509765625},"16":{"id":"11495512","label":"Kendal","value":"11495512","lat":18.3628700000000009140421752817928791046142578125,"lon":-78.2271999999999962938090902753174304962158203125,"poi_name":"Kendal","parent_id":"3490145","long":-78.2271999999999962938090902753174304962158203125},"17":{"id":"11495516","label":"Kingsvale","value":"11495516","lat":18.3808700000000015961632016114890575408935546875,"lon":-78.205230000000000245563569478690624237060546875,"poi_name":"Kingsvale","parent_id":"3490145","long":-78.205230000000000245563569478690624237060546875},"18":{"id":"11495522","label":"Lances Bay","value":"11495522","lat":18.43818999999999874717104830779135227203369140625,"lon":-78.2144200000000040517988963983952999114990234375,"poi_name":"Lances Bay","parent_id":"3490145","long":-78.2144200000000040517988963983952999114990234375},"19":{"id":"11495523","label":"Logwood","value":"11495523","lat":18.348780000000001422222339897416532039642333984375,"lon":-78.296199999999998908606357872486114501953125,"poi_name":"Logwood","parent_id":"3490145","long":-78.296199999999998908606357872486114501953125},"20":{"id":"11494998","label":"Lucea East","value":"11494998","lat":18.421980000000001354010237264446914196014404296875,"lon":-78.1667499999999932924765744246542453765869140625,"poi_name":"Lucea East","parent_id":"3490145","long":-78.1667499999999932924765744246542453765869140625},"21":{"id":"11494995","label":"Lucea West","value":"11494995","lat":18.4423799999999999954525264911353588104248046875,"lon":-78.1866299999999938563632895238697528839111328125,"poi_name":"Lucea West","parent_id":"3490145","long":-78.1866299999999938563632895238697528839111328125},"22":{"id":"11495542","label":"March Town","value":"11495542","lat":18.329509999999999081410351209342479705810546875,"lon":-78.2765600000000034697222872637212276458740234375,"poi_name":"March Town","parent_id":"3490145","long":-78.2765600000000034697222872637212276458740234375},"23":{"id":"11495545","label":"Maryland","value":"11495545","lat":18.386790000000001299440555158071219921112060546875,"lon":-78.1282499999999942019712761975824832916259765625,"poi_name":"Maryland","parent_id":"3490145","long":-78.1282499999999942019712761975824832916259765625},"24":{"id":"11495012","label":"Mount Peto","value":"11495012","lat":18.35746999999999928832039586268365383148193359375,"lon":-78.0228900000000038517100620083510875701904296875,"poi_name":"Mount Peto","parent_id":"3490145","long":-78.0228900000000038517100620083510875701904296875},"25":{"id":"11495014","label":"Orange Bay","value":"11495014","lat":18.342659999999998632347342208959162235260009765625,"lon":-78.3200499999999948386175674386322498321533203125,"poi_name":"Orange Bay","parent_id":"3490145","long":-78.3200499999999948386175674386322498321533203125},"26":{"id":"11495709","label":"Pell River","value":"11495709","lat":18.378859999999999530473360209725797176361083984375,"lon":-78.21904000000000678483047522604465484619140625,"poi_name":"Pell River","parent_id":"3490145","long":-78.21904000000000678483047522604465484619140625},"27":{"id":"11495596","label":"Pondside","value":"11495596","lat":18.40221999999999979991116560995578765869140625,"lon":-78.0734400000000050567905418574810028076171875,"poi_name":"Pondside","parent_id":"3490145","long":-78.0734400000000050567905418574810028076171875},"28":{"id":"11495604","label":"Ramble","value":"11495604","lat":18.346740000000000492264007334597408771514892578125,"lon":-77.988020000000005893525667488574981689453125,"poi_name":"Ramble","parent_id":"3490145","long":-77.988020000000005893525667488574981689453125},"29":{"id":"11495619","label":"Rock Spring","value":"11495619","lat":18.347970000000000112549969344399869441986083984375,"lon":-78.2439200000000028012436814606189727783203125,"poi_name":"Rock Spring","parent_id":"3490145","long":-78.2439200000000028012436814606189727783203125},"30":{"id":"11494996","label":"Sandy Bay","value":"11494996","lat":18.4375,"lon":-78.083830000000006066329660825431346893310546875,"poi_name":"Sandy Bay","parent_id":"3490145","long":-78.083830000000006066329660825431346893310546875},"31":{"id":"11495632","label":"Santoy","value":"11495632","lat":18.3587500000000005684341886080801486968994140625,"lon":-78.28386000000000422005541622638702392578125,"poi_name":"Santoy","parent_id":"3490145","long":-78.28386000000000422005541622638702392578125},"32":{"id":"11495660","label":"Success","value":"11495660","lat":18.377289999999998570956449839286506175994873046875,"lon":-78.051050000000003592504072003066539764404296875,"poi_name":"Success","parent_id":"3490145","long":-78.051050000000003592504072003066539764404296875},"33":{"id":"11495694","label":"Woodlands","value":"11495694","lat":18.445550000000000778754838393069803714752197265625,"lon":-77.999629999999996243786881677806377410888671875,"poi_name":"Woodlands","parent_id":"3490145","long":-77.999629999999996243786881677806377410888671875},"34":{"id":"11495696","label":"Woodsville","value":"11495696","lat":18.369499999999998607336237910203635692596435546875,"lon":-78.072169999999999845385900698602199554443359375,"poi_name":"Woodsville","parent_id":"3490145","long":-78.072169999999999845385900698602199554443359375}}