{"success":true,"remaining_lookups":8119,"0":{"id":"6690154","label":"Krak\u00f3w","value":"6690154","lat":50.072620000000000572981662116944789886474609375,"lon":19.932500000000000994759830064140260219573974609375,"poi_name":"Krak\u00f3w","parent_id":"858786","long":19.932500000000000994759830064140260219573974609375},"1":{"id":"6690149","label":"Powiat boche\u0144ski","value":"6690149","lat":49.969110000000000582076609134674072265625,"lon":20.430779999999998608473106287419795989990234375,"poi_name":"Powiat boche\u0144ski","parent_id":"858786","long":20.430779999999998608473106287419795989990234375},"2":{"id":"6690150","label":"Powiat brzeski","value":"6690150","lat":49.97169999999999845385900698602199554443359375,"lon":20.605720000000001590478859725408256053924560546875,"poi_name":"Powiat brzeski","parent_id":"858786","long":20.605720000000001590478859725408256053924560546875},"3":{"id":"6690151","label":"Powiat chrzanowski","value":"6690151","lat":50.13564999999999827196006663143634796142578125,"lon":19.404340000000001253965820069424808025360107421875,"poi_name":"Powiat chrzanowski","parent_id":"858786","long":19.404340000000001253965820069424808025360107421875},"4":{"id":"6690152","label":"Powiat d\u0105browski","value":"6690152","lat":50.1757199999999983219822752289474010467529296875,"lon":20.978950000000001097077984013594686985015869140625,"poi_name":"Powiat d\u0105browski","parent_id":"858786","long":20.978950000000001097077984013594686985015869140625},"5":{"id":"6690153","label":"Powiat gorlicki","value":"6690153","lat":49.66452000000000310819814330898225307464599609375,"lon":21.168420000000001124362825066782534122467041015625,"poi_name":"Powiat gorlicki","parent_id":"858786","long":21.168420000000001124362825066782534122467041015625},"6":{"id":"7530768","label":"Powiat krakowski","value":"7530768","lat":50.14347000000000065256244852207601070404052734375,"lon":19.9140900000000016234480426646769046783447265625,"poi_name":"Powiat krakowski","parent_id":"858786","long":19.9140900000000016234480426646769046783447265625},"7":{"id":"6690155","label":"Powiat limanowski","value":"6690155","lat":49.7076100000000025147528504021465778350830078125,"lon":20.424440000000000594582161284051835536956787109375,"poi_name":"Powiat limanowski","parent_id":"858786","long":20.424440000000000594582161284051835536956787109375},"8":{"id":"6690130","label":"Powiat miechowski","value":"6690130","lat":50.35714999999999719193510827608406543731689453125,"lon":20.032900000000001483613232267089188098907470703125,"poi_name":"Powiat miechowski","parent_id":"858786","long":20.032900000000001483613232267089188098907470703125},"9":{"id":"6690156","label":"Powiat my\u015blenicki","value":"6690156","lat":49.8339399999999983492671162821352481842041015625,"lon":19.94481999999999999317878973670303821563720703125,"poi_name":"Powiat my\u015blenicki","parent_id":"858786","long":19.94481999999999999317878973670303821563720703125},"10":{"id":"6690157","label":"Powiat nowos\u0105decki","value":"6690157","lat":49.634669999999999845385900698602199554443359375,"lon":20.69823999999999841747921891510486602783203125,"poi_name":"Powiat nowos\u0105decki","parent_id":"858786","long":20.69823999999999841747921891510486602783203125},"11":{"id":"7530824","label":"Powiat nowos\u0105decki","value":"7530824","lat":49.55131999999999692363417125307023525238037109375,"lon":20.73001000000000004774847184307873249053955078125,"poi_name":"Powiat nowos\u0105decki","parent_id":"858786","long":20.73001000000000004774847184307873249053955078125},"12":{"id":"6690158","label":"Powiat nowotarski","value":"6690158","lat":49.4766300000000001091393642127513885498046875,"lon":20.04305000000000092086338554508984088897705078125,"poi_name":"Powiat nowotarski","parent_id":"858786","long":20.04305000000000092086338554508984088897705078125},"13":{"id":"6690159","label":"Powiat olkuski","value":"6690159","lat":50.2793199999999984584064804948866367340087890625,"lon":19.557719999999999771489456179551780223846435546875,"poi_name":"Powiat olkuski","parent_id":"858786","long":19.557719999999999771489456179551780223846435546875},"14":{"id":"6690160","label":"Powiat o\u015bwi\u0119cimski","value":"6690160","lat":50.0379599999999982173903845250606536865234375,"lon":19.227709999999998302655512816272675991058349609375,"poi_name":"Powiat o\u015bwi\u0119cimski","parent_id":"858786","long":19.227709999999998302655512816272675991058349609375},"15":{"id":"6690161","label":"Powiat proszowicki","value":"6690161","lat":50.19241000000000241243469645269215106964111328125,"lon":20.284130000000001103899194276891648769378662109375,"poi_name":"Powiat proszowicki","parent_id":"858786","long":20.284130000000001103899194276891648769378662109375},"16":{"id":"6690162","label":"Powiat suski","value":"6690162","lat":49.74461999999999761712388135492801666259765625,"lon":19.591029999999999944293449516408145427703857421875,"poi_name":"Powiat suski","parent_id":"858786","long":19.591029999999999944293449516408145427703857421875},"17":{"id":"6690163","label":"Powiat tarnowski","value":"6690163","lat":50.01545999999999736473910161294043064117431640625,"lon":20.978570000000001272155714104883372783660888671875,"poi_name":"Powiat tarnowski","parent_id":"858786","long":20.978570000000001272155714104883372783660888671875},"18":{"id":"7530825","label":"Powiat tarnowski","value":"7530825","lat":50.0544900000000012596501619555056095123291015625,"lon":20.905270000000001573425834067165851593017578125,"poi_name":"Powiat tarnowski","parent_id":"858786","long":20.905270000000001573425834067165851593017578125},"19":{"id":"6690164","label":"Powiat tatrza\u0144ski","value":"6690164","lat":49.30420000000000158024704433046281337738037109375,"lon":19.94800000000000039790393202565610408782958984375,"poi_name":"Powiat tatrza\u0144ski","parent_id":"858786","long":19.94800000000000039790393202565610408782958984375},"20":{"id":"6690165","label":"Powiat wadowicki","value":"6690165","lat":49.890320000000002664819476194679737091064453125,"lon":19.483740000000000947011358221061527729034423828125,"poi_name":"Powiat wadowicki","parent_id":"858786","long":19.483740000000000947011358221061527729034423828125},"21":{"id":"6690166","label":"Powiat wielicki","value":"6690166","lat":49.98570000000000135287336888723075389862060546875,"lon":20.054939999999998434532244573347270488739013671875,"poi_name":"Powiat wielicki","parent_id":"858786","long":20.054939999999998434532244573347270488739013671875}}