{"success":true,"remaining_lookups":7244,"0":{"id":"11820773","label":"Aigu\u00e1","value":"11820773","lat":-34.25468000000000046156856114976108074188232421875,"lon":-54.6434799999999967212716001085937023162841796875,"poi_name":"Aigu\u00e1","parent_id":"3441890","long":-54.6434799999999967212716001085937023162841796875},"1":{"id":"11820774","label":"Garz\u00f3n","value":"11820774","lat":-34.62830999999999903593561612069606781005859375,"lon":-54.61227000000000231239027925767004489898681640625,"poi_name":"Garz\u00f3n","parent_id":"3441890","long":-54.61227000000000231239027925767004489898681640625},"2":{"id":"11820867","label":"Maldonado","value":"11820867","lat":-34.84389999999999787405613460578024387359619140625,"lon":-54.98297000000000167574398801662027835845947265625,"poi_name":"Maldonado","parent_id":"3441890","long":-54.98297000000000167574398801662027835845947265625},"3":{"id":"11820772","label":"Pan De Azucar","value":"11820772","lat":-34.7024100000000004229150363244116306304931640625,"lon":-55.20468000000000330373950419016182422637939453125,"poi_name":"Pan De Azucar","parent_id":"3441890","long":-55.20468000000000330373950419016182422637939453125},"4":{"id":"11820860","label":"Piriapolis","value":"11820860","lat":-34.84794000000000124828147818334400653839111328125,"lon":-55.22417999999999693727659177966415882110595703125,"poi_name":"Piriapolis","parent_id":"3441890","long":-55.22417999999999693727659177966415882110595703125},"5":{"id":"11820843","label":"Punta Del Este","value":"11820843","lat":-34.931950000000000500222085975110530853271484375,"lon":-54.92141000000000161662683240137994289398193359375,"poi_name":"Punta Del Este","parent_id":"3441890","long":-54.92141000000000161662683240137994289398193359375},"6":{"id":"11820778","label":"San Carlos","value":"11820778","lat":-34.65095000000000169393388205207884311676025390625,"lon":-54.904099999999999681676854379475116729736328125,"poi_name":"San Carlos","parent_id":"3441890","long":-54.904099999999999681676854379475116729736328125},"7":{"id":"11820775","label":"Solis Grande","value":"11820775","lat":-34.7096999999999979991116560995578765869140625,"lon":-55.38662000000000062982508097775280475616455078125,"poi_name":"Solis Grande","parent_id":"3441890","long":-55.38662000000000062982508097775280475616455078125}}