{"success":true,"remaining_lookups":7249,"0":{"id":"11820875","label":"Carmelo","value":"11820875","lat":-34.07370999999999838792064110748469829559326171875,"lon":-58.16169000000000011141310096718370914459228515625,"poi_name":"Carmelo","parent_id":"3443025","long":-58.16169000000000011141310096718370914459228515625},"1":{"id":"11820863","label":"Colonia Valdense","value":"11820863","lat":-34.388069999999999026840669102966785430908203125,"lon":-57.1944299999999969941200106404721736907958984375,"poi_name":"Colonia Valdense","parent_id":"3443025","long":-57.1944299999999969941200106404721736907958984375},"2":{"id":"11820862","label":"Florencio Sanchez","value":"11820862","lat":-33.96887000000000256250132224522531032562255859375,"lon":-57.36326999999999998181010596454143524169921875,"poi_name":"Florencio Sanchez","parent_id":"3443025","long":-57.36326999999999998181010596454143524169921875},"3":{"id":"11820876","label":"Juan Lacaze","value":"11820876","lat":-34.39211999999999846977516426704823970794677734375,"lon":-57.43193999999999732608557678759098052978515625,"poi_name":"Juan Lacaze","parent_id":"3443025","long":-57.43193999999999732608557678759098052978515625},"4":{"id":"11820828","label":"Nueva Helvecia","value":"11820828","lat":-34.3030499999999989313437254168093204498291015625,"lon":-57.2070700000000016416379367001354694366455078125,"poi_name":"Nueva Helvecia","parent_id":"3443025","long":-57.2070700000000016416379367001354694366455078125},"5":{"id":"11820811","label":"Nueva Palmira","value":"11820811","lat":-33.8897400000000033060132409445941448211669921875,"lon":-58.3451900000000023283064365386962890625,"poi_name":"Nueva Palmira","parent_id":"3443025","long":-58.3451900000000023283064365386962890625},"6":{"id":"11820861","label":"Ombues De Lavalle","value":"11820861","lat":-33.9590400000000016689227777533233165740966796875,"lon":-57.826650000000000773070496506989002227783203125,"poi_name":"Ombues De Lavalle","parent_id":"3443025","long":-57.826650000000000773070496506989002227783203125},"7":{"id":"11820868","label":"Rosario","value":"11820868","lat":-34.3075400000000030331648304127156734466552734375,"lon":-57.36498000000000274667399935424327850341796875,"poi_name":"Rosario","parent_id":"3443025","long":-57.36498000000000274667399935424327850341796875},"8":{"id":"11820816","label":"Tarariras","value":"11820816","lat":-34.2625900000000029876900953240692615509033203125,"lon":-57.585970000000003210516297258436679840087890625,"poi_name":"Tarariras","parent_id":"3443025","long":-57.585970000000003210516297258436679840087890625}}