{"success":true,"remaining_lookups":8945,"0":{"id":"6783103","label":"Al-Daur District","value":"6783103","lat":34.46188000000000073441697168163955211639404296875,"lon":43.80792000000000285808710032142698764801025390625,"poi_name":"Al-Daur District","parent_id":"91695","long":43.80792000000000285808710032142698764801025390625},"1":{"id":"9166616","label":"Al-Faris","value":"9166616","lat":33.84651999999999816282070241868495941162109375,"lon":44.20116999999999762849256512708961963653564453125,"poi_name":"Al-Faris","parent_id":"91695","long":44.20116999999999762849256512708961963653564453125},"2":{"id":"6804454","label":"Al-Shirqat District","value":"6804454","lat":35.52920000000000300133251585066318511962890625,"lon":43.21997999999999962028596200980246067047119140625,"poi_name":"Al-Shirqat District","parent_id":"91695","long":43.21997999999999962028596200980246067047119140625},"3":{"id":"9167093","label":"Al-Thethar District","value":"9167093","lat":33.972790000000003374225343577563762664794921875,"lon":43.54979999999999762394509161822497844696044921875,"poi_name":"Al-Thethar District","parent_id":"91695","long":43.54979999999999762394509161822497844696044921875},"4":{"id":"6872046","label":"Baiji District","value":"6872046","lat":34.92960000000000064801497501321136951446533203125,"lon":43.4931600000000031513991416431963443756103515625,"poi_name":"Baiji District","parent_id":"91695","long":43.4931600000000031513991416431963443756103515625},"5":{"id":"6805736","label":"Balad District","value":"6805736","lat":33.99613000000000084810380940325558185577392578125,"lon":44.13826000000000249201548285782337188720703125,"poi_name":"Balad District","parent_id":"91695","long":44.13826000000000249201548285782337188720703125},"6":{"id":"91594","label":"Qa\u1e11\u0101\u2019 S\u0101marr\u0101\u2019","value":"91594","lat":34.2611399999999974852471495978534221649169921875,"lon":43.40597000000000349473339156247675418853759765625,"poi_name":"Qa\u1e11\u0101\u2019 S\u0101marr\u0101\u2019","parent_id":"91695","long":43.40597000000000349473339156247675418853759765625},"7":{"id":"90148","label":"Tikrit District","value":"90148","lat":34.75,"lon":43.64999999999999857891452847979962825775146484375,"poi_name":"Tikrit District","parent_id":"91695","long":43.64999999999999857891452847979962825775146484375},"8":{"id":"9166598","label":"Tooz District","value":"9166598","lat":34.84145000000000180762071977369487285614013671875,"lon":44.6314399999999977808329276740550994873046875,"poi_name":"Tooz District","parent_id":"91695","long":44.6314399999999977808329276740550994873046875}}