{"success":true,"remaining_lookups":8937,"0":{"id":"9166557","label":"Al Kahla District","value":"9166557","lat":31.64835000000000064801497501321136951446533203125,"lon":47.5550700000000006184563972055912017822265625,"poi_name":"Al Kahla District","parent_id":"93540","long":47.5550700000000006184563972055912017822265625},"1":{"id":"9166562","label":"Al-Maimouna District","value":"9166562","lat":31.39999999999999857891452847979962825775146484375,"lon":46.73333000000000225782059715129435062408447265625,"poi_name":"Al-Maimouna District","parent_id":"93540","long":46.73333000000000225782059715129435062408447265625},"2":{"id":"99097","label":"Al-Mejar Al-Kabi District","value":"99097","lat":31.4294000000000011141310096718370914459228515625,"lon":47.20354999999999989768184605054557323455810546875,"poi_name":"Al-Mejar Al-Kabi District","parent_id":"93540","long":47.20354999999999989768184605054557323455810546875},"3":{"id":"99305","label":"Ali Al-Gharbi District","value":"99305","lat":32.3960900000000009413270163349807262420654296875,"lon":46.72321000000000168483893503434956073760986328125,"poi_name":"Ali Al-Gharbi District","parent_id":"93540","long":46.72321000000000168483893503434956073760986328125},"4":{"id":"99610","label":"Amara District","value":"99610","lat":31.994060000000001053876985679380595684051513671875,"lon":47.1574499999999972033037920482456684112548828125,"poi_name":"Amara District","parent_id":"93540","long":47.1574499999999972033037920482456684112548828125},"5":{"id":"92536","label":"Qa\u1e11\u0101\u2019 Qal\u2018at \u015e\u0101li\u1e29","value":"92536","lat":31.428509999999999280362317222170531749725341796875,"lon":47.51245000000000118234311230480670928955078125,"poi_name":"Qa\u1e11\u0101\u2019 Qal\u2018at \u015e\u0101li\u1e29","parent_id":"93540","long":47.51245000000000118234311230480670928955078125},"6":{"id":"9873407","label":"Qa\u1e11\u0101\u2019 al Majar al Kab\u012br","value":"9873407","lat":31.448969999999999203055267571471631526947021484375,"lon":47.20463000000000164391167345456779003143310546875,"poi_name":"Qa\u1e11\u0101\u2019 al Majar al Kab\u012br","parent_id":"93540","long":47.20463000000000164391167345456779003143310546875},"7":{"id":"9873408","label":"Qa\u1e11\u0101\u2019 al Maym\u016bnah","value":"9873408","lat":31.49340000000000117097442853264510631561279296875,"lon":46.85116000000000013869794202037155628204345703125,"poi_name":"Qa\u1e11\u0101\u2019 al Maym\u016bnah","parent_id":"93540","long":46.85116000000000013869794202037155628204345703125}}