{"success":true,"remaining_lookups":8933,"0":{"id":"9166626","label":"Al-Khidir District","value":"9166626","lat":31.211220000000000851514414534904062747955322265625,"lon":45.59094999999999942019712761975824832916259765625,"poi_name":"Al-Khidir District","parent_id":"99032","long":45.59094999999999942019712761975824832916259765625},"1":{"id":"9166568","label":"Al-Rumaitha District","value":"9166568","lat":31.497769999999999157580532482825219631195068359375,"lon":45.29542000000000001591615728102624416351318359375,"poi_name":"Al-Rumaitha District","parent_id":"99032","long":45.29542000000000001591615728102624416351318359375},"2":{"id":"98534","label":"Al-Salman District","value":"98534","lat":30.5,"lon":44.53332999999999941564965411089360713958740234375,"poi_name":"Al-Salman District","parent_id":"99032","long":44.53332999999999941564965411089360713958740234375},"3":{"id":"98532","label":"Al-Samawa District","value":"98532","lat":31.226389999999998536850398522801697254180908203125,"lon":45.26196999999999803776518092490732669830322265625,"poi_name":"Al-Samawa District","parent_id":"99032","long":45.26196999999999803776518092490732669830322265625},"4":{"id":"9873264","label":"Qa\u1e11\u0101\u2019 al Khi\u1e11r","value":"9873264","lat":31.210750000000000881072992342524230480194091796875,"lon":45.60775000000000289901436190120875835418701171875,"poi_name":"Qa\u1e11\u0101\u2019 al Khi\u1e11r","parent_id":"99032","long":45.60775000000000289901436190120875835418701171875},"5":{"id":"9873260","label":"Qa\u1e11\u0101\u2019 ar Rumaythah","value":"9873260","lat":31.52317000000000035697667044587433338165283203125,"lon":45.31947000000000258523868978954851627349853515625,"poi_name":"Qa\u1e11\u0101\u2019 ar Rumaythah","parent_id":"99032","long":45.31947000000000258523868978954851627349853515625}}