{"success":true,"remaining_lookups":8585,"0":{"id":"9610135","label":"Elektr\u0117nai","value":"9610135","lat":54.7860399999999998499333742074668407440185546875,"lon":24.6611299999999999954525264911353588104248046875,"poi_name":"Elektr\u0117nai","parent_id":"864485","long":24.6611299999999999954525264911353588104248046875},"1":{"id":"864521","label":"Sirvintos","value":"864521","lat":55.0499999999999971578290569595992565155029296875,"lon":24.949999999999999289457264239899814128875732421875,"poi_name":"Sirvintos","parent_id":"864485","long":24.949999999999999289457264239899814128875732421875},"2":{"id":"864522","label":"Svencionys","value":"864522","lat":55.14999999999999857891452847979962825775146484375,"lon":26.166669999999999873807610129006206989288330078125,"poi_name":"Svencionys","parent_id":"864485","long":26.166669999999999873807610129006206989288330078125},"3":{"id":"864523","label":"Trakai","value":"864523","lat":54.6333300000000008367351256310939788818359375,"lon":24.933330000000001547277861391194164752960205078125,"poi_name":"Trakai","parent_id":"864485","long":24.933330000000001547277861391194164752960205078125},"4":{"id":"864524","label":"Ukmerg\u0117","value":"864524","lat":55.25,"lon":24.75,"poi_name":"Ukmerg\u0117","parent_id":"864485","long":24.75},"5":{"id":"593118","label":"Vilnius","value":"593118","lat":54.6833299999999979945641825906932353973388671875,"lon":25.316669999999998452722138608805835247039794921875,"poi_name":"Vilnius","parent_id":"864485","long":25.316669999999998452722138608805835247039794921875},"6":{"id":"593120","label":"Vilnius District Municipality","value":"593120","lat":54.73333000000000225782059715129435062408447265625,"lon":25.3833300000000008367351256310939788818359375,"poi_name":"Vilnius District Municipality","parent_id":"864485","long":25.3833300000000008367351256310939788818359375},"7":{"id":"864520","label":"\u0160al\u010dininkai","value":"864520","lat":54.2999999999999971578290569595992565155029296875,"lon":25.3833300000000008367351256310939788818359375,"poi_name":"\u0160al\u010dininkai","parent_id":"864485","long":25.3833300000000008367351256310939788818359375}}