{"success":true,"remaining_lookups":8590,"0":{"id":"9610085","label":"Kalvarija Municipality","value":"9610085","lat":54.41467999999999705096342950128018856048583984375,"lon":23.224840000000000372892827726900577545166015625,"poi_name":"Kalvarija Municipality","parent_id":"864479","long":23.224840000000000372892827726900577545166015625},"1":{"id":"9610102","label":"Kazl\u0173 R\u016bda Municipality","value":"9610102","lat":54.74750999999999834244590601883828639984130859375,"lon":23.49271999999999849251253181137144565582275390625,"poi_name":"Kazl\u0173 R\u016bda Municipality","parent_id":"864479","long":23.49271999999999849251253181137144565582275390625},"2":{"id":"597233","label":"Marijampol\u0117 Municipality","value":"597233","lat":54.5666700000000020054358174093067646026611328125,"lon":23.35000000000000142108547152020037174224853515625,"poi_name":"Marijampol\u0117 Municipality","parent_id":"864479","long":23.35000000000000142108547152020037174224853515625},"3":{"id":"597229","label":"Marijampol\u0117s Rajonas","value":"597229","lat":54.5666700000000020054358174093067646026611328125,"lon":23.35000000000000142108547152020037174224853515625,"poi_name":"Marijampol\u0117s Rajonas","parent_id":"864479","long":23.35000000000000142108547152020037174224853515625},"4":{"id":"864497","label":"Sakiai","value":"864497","lat":54.9500000000000028421709430404007434844970703125,"lon":23.050000000000000710542735760100185871124267578125,"poi_name":"Sakiai","parent_id":"864479","long":23.050000000000000710542735760100185871124267578125},"5":{"id":"864498","label":"Vilkavi\u0161kis District Municipality","value":"864498","lat":54.64999999999999857891452847979962825775146484375,"lon":23.03332999999999941564965411089360713958740234375,"poi_name":"Vilkavi\u0161kis District Municipality","parent_id":"864479","long":23.03332999999999941564965411089360713958740234375}}