{"success":true,"remaining_lookups":7460,"0":{"id":"11108357","label":"Bizerte Nord","value":"11108357","lat":37.308390000000002828528522513806819915771484375,"lon":9.8324300000000004473577064345590770244598388671875,"poi_name":"Bizerte Nord","parent_id":"2472699","long":9.8324300000000004473577064345590770244598388671875},"1":{"id":"2472701","label":"Bizerte Sud","value":"2472701","lat":37.255279999999999063220457173883914947509765625,"lon":9.67914999999999992041921359486877918243408203125,"poi_name":"Bizerte Sud","parent_id":"2472699","long":9.67914999999999992041921359486877918243408203125},"2":{"id":"11108360","label":"El Alia","value":"11108360","lat":37.1577300000000008139977580867707729339599609375,"lon":9.9955300000000004700950739788822829723358154296875,"poi_name":"El Alia","parent_id":"2472699","long":9.9955300000000004700950739788822829723358154296875},"3":{"id":"11108361","label":"Ghar El Melh","value":"11108361","lat":37.17090999999999922920324024744331836700439453125,"lon":10.1040100000000006019718057359568774700164794921875,"poi_name":"Ghar El Melh","parent_id":"2472699","long":10.1040100000000006019718057359568774700164794921875},"4":{"id":"7870603","label":"Ghazala","value":"7870603","lat":37.0786599999999992860466591082513332366943359375,"lon":9.5104799999999993787014318513683974742889404296875,"poi_name":"Ghazala","parent_id":"2472699","long":9.5104799999999993787014318513683974742889404296875},"5":{"id":"7870602","label":"Joumine","value":"7870602","lat":36.8860499999999973397279973141849040985107421875,"lon":9.421279999999999432702679769136011600494384765625,"poi_name":"Joumine","parent_id":"2472699","long":9.421279999999999432702679769136011600494384765625},"6":{"id":"11108359","label":"Menzel Jemil","value":"11108359","lat":37.2255200000000030513547244481742382049560546875,"lon":9.9510799999999992593302522436715662479400634765625,"poi_name":"Menzel Jemil","parent_id":"2472699","long":9.9510799999999992593302522436715662479400634765625},"7":{"id":"7870601","label":"Sejnane","value":"7870601","lat":37.132689999999996643964550457894802093505859375,"lon":9.3041000000000000369482222595252096652984619140625,"poi_name":"Sejnane","parent_id":"2472699","long":9.3041000000000000369482222595252096652984619140625},"8":{"id":"11108355","label":"Tinja","value":"11108355","lat":37.1230699999999984584064804948866367340087890625,"lon":9.740899999999999891997504164464771747589111328125,"poi_name":"Tinja","parent_id":"2472699","long":9.740899999999999891997504164464771747589111328125},"9":{"id":"11108356","label":"Utique","value":"11108356","lat":37.05037999999999698275132686831057071685791015625,"lon":9.9759399999999995856114765047095715999603271484375,"poi_name":"Utique","parent_id":"2472699","long":9.9759399999999995856114765047095715999603271484375},"10":{"id":"11108358","label":"Zarzouna","value":"11108358","lat":37.2597999999999984765963745303452014923095703125,"lon":9.8863000000000003097966327914036810398101806640625,"poi_name":"Zarzouna","parent_id":"2472699","long":9.8863000000000003097966327914036810398101806640625}}