{"success":true,"remaining_lookups":7459,"0":{"id":"7870605","label":"Beja Sud","value":"7870605","lat":36.642549999999999954525264911353588104248046875,"lon":9.20852000000000003865352482534945011138916015625,"poi_name":"Beja Sud","parent_id":"2472770","long":9.20852000000000003865352482534945011138916015625},"1":{"id":"2472772","label":"D\u00e9l\u00e9gation de B\u00e9ja Nord","value":"2472772","lat":36.80353000000000207592165679670870304107666015625,"lon":9.2498400000000007281641956069506704807281494140625,"poi_name":"D\u00e9l\u00e9gation de B\u00e9ja Nord","parent_id":"2472770","long":9.2498400000000007281641956069506704807281494140625},"2":{"id":"7870606","label":"Goubellat","value":"7870606","lat":36.52718999999999738292899564839899539947509765625,"lon":9.700829999999999841975295566953718662261962890625,"poi_name":"Goubellat","parent_id":"2472770","long":9.700829999999999841975295566953718662261962890625},"3":{"id":"2473663","label":"Nefza","value":"2473663","lat":36.9868000000000023419488570652902126312255859375,"lon":9.0757600000000007156586434575729072093963623046875,"poi_name":"Nefza","parent_id":"2472770","long":9.0757600000000007156586434575729072093963623046875},"4":{"id":"7870604","label":"Nefza","value":"7870604","lat":36.99414999999999764668245916254818439483642578125,"lon":9.09027999999999991587174008600413799285888671875,"poi_name":"Nefza","parent_id":"2472770","long":9.09027999999999991587174008600413799285888671875},"5":{"id":"11108351","label":"Tibar","value":"11108351","lat":36.51145000000000351292328559793531894683837890625,"lon":9.1015999999999994685140336514450609683990478515625,"poi_name":"Tibar","parent_id":"2472770","long":9.1015999999999994685140336514450609683990478515625}}