{"success":true,"remaining_lookups":7461,"0":{"id":"11109019","label":"Bou Mhel El Bassatine","value":"11109019","lat":36.722859999999997171471477486193180084228515625,"lon":10.2835400000000003473132892395369708538055419921875,"poi_name":"Bou Mhel El Bassatine","parent_id":"2472477","long":10.2835400000000003473132892395369708538055419921875},"1":{"id":"11109018","label":"D\u00e9l\u00e9gation de M\u00e9grine","value":"11109018","lat":36.7731399999999979399945004843175411224365234375,"lon":10.2300500000000003097966327914036810398101806640625,"poi_name":"D\u00e9l\u00e9gation de M\u00e9grine","parent_id":"2472477","long":10.2300500000000003097966327914036810398101806640625},"2":{"id":"11109012","label":"D\u00e9l\u00e9gation de Rad\u00e8s","value":"11109012","lat":36.77454999999999785131876706145703792572021484375,"lon":10.27035000000000053432813729159533977508544921875,"poi_name":"D\u00e9l\u00e9gation de Rad\u00e8s","parent_id":"2472477","long":10.27035000000000053432813729159533977508544921875},"3":{"id":"11109017","label":"D\u00e9l\u00e9gation de la Nouvelle M\u00e9dina","value":"11109017","lat":36.73886999999999858346200198866426944732666015625,"lon":10.2377699999999993707433532108552753925323486328125,"poi_name":"D\u00e9l\u00e9gation de la Nouvelle M\u00e9dina","parent_id":"2472477","long":10.2377699999999993707433532108552753925323486328125},"4":{"id":"11109016","label":"El Mourouj","value":"11109016","lat":36.71786999999999778765413793735206127166748046875,"lon":10.2108399999999992502353052259422838687896728515625,"poi_name":"El Mourouj","parent_id":"2472477","long":10.2108399999999992502353052259422838687896728515625},"5":{"id":"11109013","label":"Ezzahra","value":"11109013","lat":36.74799999999999755573298898525536060333251953125,"lon":10.2963400000000007139533408917486667633056640625,"poi_name":"Ezzahra","parent_id":"2472477","long":10.2963400000000007139533408917486667633056640625},"6":{"id":"11109015","label":"Fouchana","value":"11109015","lat":36.6948900000000008958522812463343143463134765625,"lon":10.1812699999999995981170286540873348712921142578125,"poi_name":"Fouchana","parent_id":"2472477","long":10.1812699999999995981170286540873348712921142578125},"7":{"id":"11109011","label":"Hammam Chott","value":"11109011","lat":36.686790000000002009983290918171405792236328125,"lon":10.3618799999999993133315001614391803741455078125,"poi_name":"Hammam Chott","parent_id":"2472477","long":10.3618799999999993133315001614391803741455078125},"8":{"id":"11109014","label":"Mohamedia","value":"11109014","lat":36.64705000000000012505552149377763271331787109375,"lon":10.1174300000000005894662535865791141986846923828125,"poi_name":"Mohamedia","parent_id":"2472477","long":10.1174300000000005894662535865791141986846923828125},"9":{"id":"11109010","label":"Mornag","value":"11109010","lat":36.597520000000002937667886726558208465576171875,"lon":10.2571700000000003427658157306723296642303466796875,"poi_name":"Mornag","parent_id":"2472477","long":10.2571700000000003427658157306723296642303466796875},"10":{"id":"7870318","label":"Oudhna","value":"7870318","lat":36.6087500000000005684341886080801486968994140625,"lon":10.169560000000000599129634792916476726531982421875,"poi_name":"Oudhna","parent_id":"2472477","long":10.169560000000000599129634792916476726531982421875}}