{"success":true,"remaining_lookups":7452,"0":{"id":"7870311","label":"Chebba","value":"7870311","lat":35.2389500000000026602720026858150959014892578125,"lon":11.05566999999999922010829322971403598785400390625,"poi_name":"Chebba","parent_id":"2473574","long":11.05566999999999922010829322971403598785400390625},"1":{"id":"2466895","label":"Chorbane","value":"2466895","lat":35.22117999999999682358975405804812908172607421875,"lon":10.4274299999999993104893292183987796306610107421875,"poi_name":"Chorbane","parent_id":"2473574","long":10.4274299999999993104893292183987796306610107421875},"2":{"id":"11104979","label":"D\u00e9l\u00e9gation de Bou Merd\u00e8s","value":"11104979","lat":35.42313999999999651890902896411716938018798828125,"lon":10.7105399999999999494093572138808667659759521484375,"poi_name":"D\u00e9l\u00e9gation de Bou Merd\u00e8s","parent_id":"2473574","long":10.7105399999999999494093572138808667659759521484375},"3":{"id":"2473655","label":"El Jem","value":"2473655","lat":35.30033999999999849706000532023608684539794921875,"lon":10.727289999999999992041921359486877918243408203125,"poi_name":"El Jem","parent_id":"2473574","long":10.727289999999999992041921359486877918243408203125},"4":{"id":"11104980","label":"Hbira","value":"11104980","lat":35.26684999999999803321770741604268550872802734375,"lon":10.234680000000000887894202605821192264556884765625,"poi_name":"Hbira","parent_id":"2473574","long":10.234680000000000887894202605821192264556884765625},"5":{"id":"2473573","label":"Mahdia","value":"2473573","lat":35.491410000000001900843926705420017242431640625,"lon":10.95503000000000071167960413731634616851806640625,"poi_name":"Mahdia","parent_id":"2473574","long":10.95503000000000071167960413731634616851806640625},"6":{"id":"11105072","label":"Melloulech","value":"11105072","lat":35.17056000000000182126314030028879642486572265625,"lon":10.98057000000000016370904631912708282470703125,"poi_name":"Melloulech","parent_id":"2473574","long":10.98057000000000016370904631912708282470703125},"7":{"id":"11104978","label":"Ouled Chamekh","value":"11104978","lat":35.4573299999999989040588843636214733123779296875,"lon":10.33585000000000064801497501321136951446533203125,"poi_name":"Ouled Chamekh","parent_id":"2473574","long":10.33585000000000064801497501321136951446533203125},"8":{"id":"11104981","label":"Sidi Alouane","value":"11104981","lat":35.28987000000000051613824325613677501678466796875,"lon":10.8919599999999991979393598739989101886749267578125,"poi_name":"Sidi Alouane","parent_id":"2473574","long":10.8919599999999991979393598739989101886749267578125},"9":{"id":"2467180","label":"Souassi","value":"2467180","lat":35.3449600000000003774403012357652187347412109375,"lon":10.5323299999999999698729880037717521190643310546875,"poi_name":"Souassi","parent_id":"2473574","long":10.5323299999999999698729880037717521190643310546875}}