{"success":true,"remaining_lookups":7454,"0":{"id":"11107060","label":"Dahmani","value":"11107060","lat":35.96750999999999720557752880267798900604248046875,"lon":8.7991200000000002745537130977027118206024169921875,"poi_name":"Dahmani","parent_id":"2473637","long":8.7991200000000002745537130977027118206024169921875},"1":{"id":"7870616","label":"Es Sers","value":"7870616","lat":36.05816999999999694637153879739344120025634765625,"lon":9.027120000000000032969182939268648624420166015625,"poi_name":"Es Sers","parent_id":"2473637","long":9.027120000000000032969182939268648624420166015625},"2":{"id":"11107061","label":"Jerissa","value":"11107061","lat":35.8337599999999980582288117147982120513916015625,"lon":8.6546199999999995355892679071985185146331787109375,"poi_name":"Jerissa","parent_id":"2473637","long":8.6546199999999995355892679071985185146331787109375},"3":{"id":"11107062","label":"Kalaa Khasba","value":"11107062","lat":35.72525999999999868350641918368637561798095703125,"lon":8.535360000000000724185156286694109439849853515625,"poi_name":"Kalaa Khasba","parent_id":"2473637","long":8.535360000000000724185156286694109439849853515625},"4":{"id":"11107173","label":"Kalaat Senan","value":"11107173","lat":35.81880000000000308091330225579440593719482421875,"lon":8.35764999999999957935870043002068996429443359375,"poi_name":"Kalaat Senan","parent_id":"2473637","long":8.35764999999999957935870043002068996429443359375},"5":{"id":"2473636","label":"Kef Est","value":"2473636","lat":36.1873199999999997089616954326629638671875,"lon":8.8700299999999998590283212251961231231689453125,"poi_name":"Kef Est","parent_id":"2473637","long":8.8700299999999998590283212251961231231689453125},"6":{"id":"7870615","label":"Kef Est","value":"7870615","lat":36.1792599999999993087840266525745391845703125,"lon":8.8990600000000004143885234952904284000396728515625,"poi_name":"Kef Est","parent_id":"2473637","long":8.8990600000000004143885234952904284000396728515625},"7":{"id":"7870612","label":"Kef Quest","value":"7870612","lat":36.14907000000000181216819328255951404571533203125,"lon":8.6590299999999995606003722059540450572967529296875,"poi_name":"Kef Quest","parent_id":"2473637","long":8.6590299999999995606003722059540450572967529296875},"8":{"id":"7870617","label":"Nebeur","value":"7870617","lat":36.31819999999999737383404863066971302032470703125,"lon":8.7727699999999995128519003628753125667572021484375,"poi_name":"Nebeur","parent_id":"2473637","long":8.7727699999999995128519003628753125667572021484375}}