{"success":true,"remaining_lookups":8352,"0":{"id":"2188943","label":"Kawerau District","value":"2188943","lat":-38.09114000000000288537194137461483478546142578125,"lon":176.687510000000003174136509187519550323486328125,"poi_name":"Kawerau District","parent_id":"2182560","long":176.687510000000003174136509187519550323486328125},"1":{"id":"2185506","label":"Opotiki District","value":"2185506","lat":-38,"lon":177.283330000000006521077011711895465850830078125,"poi_name":"Opotiki District","parent_id":"2182560","long":177.283330000000006521077011711895465850830078125},"2":{"id":"2183229","label":"Rotorua District","value":"2183229","lat":-38.16667000000000342652128892950713634490966796875,"lon":176.33332999999998946805135346949100494384765625,"poi_name":"Rotorua District","parent_id":"2182560","long":176.33332999999998946805135346949100494384765625},"3":{"id":"7910066","label":"Tauranga City","value":"7910066","lat":-37.69733000000000089357854449190199375152587890625,"lon":176.244499999999987949195201508700847625732421875,"poi_name":"Tauranga City","parent_id":"2182560","long":176.244499999999987949195201508700847625732421875},"4":{"id":"7910073","label":"Western Bay of Plenty District","value":"7910073","lat":-37.7738700000000022782842279411852359771728515625,"lon":176.16120000000000800355337560176849365234375,"poi_name":"Western Bay of Plenty District","parent_id":"2182560","long":176.16120000000000800355337560176849365234375},"5":{"id":"2179374","label":"Whakatane District","value":"2179374","lat":-38.324420000000003483364707790315151214599609375,"lon":176.7823799999999891952029429376125335693359375,"poi_name":"Whakatane District","parent_id":"2182560","long":176.7823799999999891952029429376125335693359375}}