{"success":true,"remaining_lookups":8231,"0":{"id":"3161457","label":"Bjerkreim","value":"3161457","lat":58.6304999999999978399500832892954349517822265625,"lon":6.08129999999999970583530739531852304935455322265625,"poi_name":"Bjerkreim","parent_id":"3141558","long":6.08129999999999970583530739531852304935455322265625},"1":{"id":"3160810","label":"Bokn","value":"3160810","lat":59.2306200000000018235368770547211170196533203125,"lon":5.43524000000000029331204132176935672760009765625,"poi_name":"Bokn","parent_id":"3141558","long":5.43524000000000029331204132176935672760009765625},"2":{"id":"3158591","label":"Eigersund","value":"3158591","lat":58.452359999999998763087205588817596435546875,"lon":6.0031400000000001426769813406281173229217529296875,"poi_name":"Eigersund","parent_id":"3141558","long":6.0031400000000001426769813406281173229217529296875},"3":{"id":"3157573","label":"Finn\u00f8y","value":"3157573","lat":59.17116999999999649162418791092932224273681640625,"lon":5.87398000000000042319925341871567070484161376953125,"poi_name":"Finn\u00f8y","parent_id":"3141558","long":5.87398000000000042319925341871567070484161376953125},"4":{"id":"3156724","label":"Forsand","value":"3156724","lat":58.89929000000000058889781939797103404998779296875,"lon":6.0964200000000001722355591482482850551605224609375,"poi_name":"Forsand","parent_id":"3141558","long":6.0964200000000001722355591482482850551605224609375},"5":{"id":"3155644","label":"Gjesdal","value":"3155644","lat":58.764780000000001791704562492668628692626953125,"lon":5.855000000000000426325641456060111522674560546875,"poi_name":"Gjesdal","parent_id":"3141558","long":5.855000000000000426325641456060111522674560546875},"6":{"id":"6453374","label":"Haugesund","value":"6453374","lat":59.4101500000000015688783605583012104034423828125,"lon":5.27550999999999969958253132062964141368865966796875,"poi_name":"Haugesund","parent_id":"3141558","long":5.27550999999999969958253132062964141368865966796875},"7":{"id":"3152560","label":"Hjelmeland","value":"3152560","lat":59.23667999999999977944753482006490230560302734375,"lon":6.17912000000000016797230273368768393993377685546875,"poi_name":"Hjelmeland","parent_id":"3141558","long":6.17912000000000016797230273368768393993377685546875},"8":{"id":"3154414","label":"H\u00e5","value":"3154414","lat":58.6161000000000029785951483063399791717529296875,"lon":5.64496999999999982122744768275879323482513427734375,"poi_name":"H\u00e5","parent_id":"3141558","long":5.64496999999999982122744768275879323482513427734375},"9":{"id":"6453375","label":"Karm\u00f8y","value":"6453375","lat":59.28079000000000320369508699513971805572509765625,"lon":5.30529000000000028336444302112795412540435791015625,"poi_name":"Karm\u00f8y","parent_id":"3141558","long":5.30529000000000028336444302112795412540435791015625},"10":{"id":"3149862","label":"Klepp","value":"3149862","lat":58.7765500000000002955857780762016773223876953125,"lon":5.63009000000000003893774191965349018573760986328125,"poi_name":"Klepp","parent_id":"3141558","long":5.63009000000000003893774191965349018573760986328125},"11":{"id":"3148673","label":"Kvits\u00f8y","value":"3148673","lat":59.06470999999999804686012794263660907745361328125,"lon":5.4053699999999995640109773376025259494781494140625,"poi_name":"Kvits\u00f8y","parent_id":"3141558","long":5.4053699999999995640109773376025259494781494140625},"12":{"id":"3146777","label":"Lund","value":"3146777","lat":58.4571499999999986130205797962844371795654296875,"lon":6.548709999999999809006112627685070037841796875,"poi_name":"Lund","parent_id":"3141558","long":6.548709999999999809006112627685070037841796875},"13":{"id":"3142395","label":"Randaberg","value":"3142395","lat":58.9986999999999994770405464805662631988525390625,"lon":5.6205499999999997129407347529195249080657958984375,"poi_name":"Randaberg","parent_id":"3141558","long":5.6205499999999997129407347529195249080657958984375},"14":{"id":"3141965","label":"Rennes\u00f8y","value":"3141965","lat":59.0989900000000005775291356258094310760498046875,"lon":5.6996599999999997265831552795134484767913818359375,"poi_name":"Rennes\u00f8y","parent_id":"3141558","long":5.6996599999999997265831552795134484767913818359375},"15":{"id":"6453393","label":"Sandnes","value":"6453393","lat":58.84759999999999990905052982270717620849609375,"lon":5.7285500000000002529532139305956661701202392578125,"poi_name":"Sandnes","parent_id":"3141558","long":5.7285500000000002529532139305956661701202392578125},"16":{"id":"3140054","label":"Sauda","value":"3140054","lat":59.65066999999999808323991601355373859405517578125,"lon":6.35311999999999965638153298641555011272430419921875,"poi_name":"Sauda","parent_id":"3141558","long":6.35311999999999965638153298641555011272430419921875},"17":{"id":"3137953","label":"Sokndal","value":"3137953","lat":58.34255999999999886540535953827202320098876953125,"lon":6.2942499999999999005240169935859739780426025390625,"poi_name":"Sokndal","parent_id":"3141558","long":6.2942499999999999005240169935859739780426025390625},"18":{"id":"3137941","label":"Sola","value":"3137941","lat":58.88806000000000295813151751644909381866455078125,"lon":5.6472800000000002995648173964582383632659912109375,"poi_name":"Sola","parent_id":"3141558","long":5.6472800000000002995648173964582383632659912109375},"19":{"id":"6453391","label":"Stavanger","value":"6453391","lat":58.96941000000000343561623594723641872406005859375,"lon":5.7285599999999998743760443176142871379852294921875,"poi_name":"Stavanger","parent_id":"3141558","long":5.7285599999999998743760443176142871379852294921875},"20":{"id":"3135788","label":"Strand","value":"3135788","lat":59.02353000000000093905327958054840564727783203125,"lon":6.04342999999999985760723575367592275142669677734375,"poi_name":"Strand","parent_id":"3141558","long":6.04342999999999985760723575367592275142669677734375},"21":{"id":"6453370","label":"Suldal","value":"6453370","lat":59.4857099999999974215825204737484455108642578125,"lon":6.25222000000000033281821743003092706203460693359375,"poi_name":"Suldal","parent_id":"3141558","long":6.25222000000000033281821743003092706203460693359375},"22":{"id":"3134627","label":"Time","value":"3134627","lat":58.73635999999999768306224723346531391143798828125,"lon":5.652969999999999828332875040359795093536376953125,"poi_name":"Time","parent_id":"3141558","long":5.652969999999999828332875040359795093536376953125},"23":{"id":"3133447","label":"Tysv\u00e6r","value":"3133447","lat":59.42159000000000190766513696871697902679443359375,"lon":5.44780999999999959726437737117521464824676513671875,"poi_name":"Tysv\u00e6r","parent_id":"3141558","long":5.44780999999999959726437737117521464824676513671875},"24":{"id":"3133144","label":"Utsira","value":"3133144","lat":59.3056499999999999772626324556767940521240234375,"lon":4.8862100000000001642774805077351629734039306640625,"poi_name":"Utsira","parent_id":"3141558","long":4.8862100000000001642774805077351629734039306640625},"25":{"id":"6453371","label":"Vindafjord","value":"6453371","lat":59.6054299999999983583620632998645305633544921875,"lon":5.80783999999999966945551932440139353275299072265625,"poi_name":"Vindafjord","parent_id":"3141558","long":5.80783999999999966945551932440139353275299072265625}}