{"success":true,"remaining_lookups":8234,"0":{"id":"3163293","label":"Alstahaug","value":"3163293","lat":65.975560000000001537046045996248722076416015625,"lon":12.5683600000000001983835318242199718952178955078125,"poi_name":"Alstahaug","parent_id":"3144301","long":12.5683600000000001983835318242199718952178955078125},"1":{"id":"6453318","label":"And\u00f8y","value":"6453318","lat":69.080330000000003565219230949878692626953125,"lon":15.7763700000000000045474735088646411895751953125,"poi_name":"And\u00f8y","parent_id":"3144301","long":15.7763700000000000045474735088646411895751953125},"2":{"id":"3162107","label":"Ballangen","value":"3162107","lat":68.343649999999996680344338528811931610107421875,"lon":16.833169999999999077999746077693998813629150390625,"poi_name":"Ballangen","parent_id":"3144301","long":16.833169999999999077999746077693998813629150390625},"3":{"id":"3161943","label":"Beiarn","value":"3161943","lat":67.0072499999999990905052982270717620849609375,"lon":14.5730400000000006599520929739810526371002197265625,"poi_name":"Beiarn","parent_id":"3144301","long":14.5730400000000006599520929739810526371002197265625},"4":{"id":"3161552","label":"Bindal","value":"3161552","lat":65.0878000000000014324541552923619747161865234375,"lon":12.3774700000000006383515938068740069866180419921875,"poi_name":"Bindal","parent_id":"3144301","long":12.3774700000000006383515938068740069866180419921875},"5":{"id":"6453323","label":"Bod\u00f8","value":"6453323","lat":67.2832499999999953388396534137427806854248046875,"lon":14.3831900000000008077449820120818912982940673828125,"poi_name":"Bod\u00f8","parent_id":"3144301","long":14.3831900000000008077449820120818912982940673828125},"6":{"id":"3159955","label":"Br\u00f8nn\u00f8y","value":"3159955","lat":65.467860000000001718944986350834369659423828125,"lon":12.2062600000000003319655661471188068389892578125,"poi_name":"Br\u00f8nn\u00f8y","parent_id":"3144301","long":12.2062600000000003319655661471188068389892578125},"7":{"id":"6453320","label":"B\u00f8","value":"6453320","lat":68.688230000000004338289727456867694854736328125,"lon":14.478989999999999582769305561669170856475830078125,"poi_name":"B\u00f8","parent_id":"3144301","long":14.478989999999999582769305561669170856475830078125},"8":{"id":"3159094","label":"D\u00f8nna","value":"3159094","lat":66.1060599999999993769961292855441570281982421875,"lon":12.48188999999999992951416061259806156158447265625,"poi_name":"D\u00f8nna","parent_id":"3144301","long":12.48188999999999992951416061259806156158447265625},"9":{"id":"3158002","label":"Evenes","value":"3158002","lat":68.5233400000000045793058234266936779022216796875,"lon":17.008880000000001331272869720123708248138427734375,"poi_name":"Evenes","parent_id":"3144301","long":17.008880000000001331272869720123708248138427734375},"10":{"id":"3157780","label":"Fauske","value":"3157780","lat":67.2596300000000013596945791505277156829833984375,"lon":15.3940999999999998948396751075051724910736083984375,"poi_name":"Fauske","parent_id":"3144301","long":15.3940999999999998948396751075051724910736083984375},"11":{"id":"3157197","label":"Flakstad","value":"3157197","lat":68.0929200000000065529093262739479541778564453125,"lon":13.23310000000000030695446184836328029632568359375,"poi_name":"Flakstad","parent_id":"3144301","long":13.23310000000000030695446184836328029632568359375},"12":{"id":"3155849","label":"Gildesk\u00e5l","value":"3155849","lat":67.033940000000001191438059322535991668701171875,"lon":14.025819999999999510009729419834911823272705078125,"poi_name":"Gildesk\u00e5l","parent_id":"3144301","long":14.025819999999999510009729419834911823272705078125},"13":{"id":"3155295","label":"Grane","value":"3155295","lat":65.5386500000000040699887904338538646697998046875,"lon":13.3849900000000001654143488849513232707977294921875,"poi_name":"Grane","parent_id":"3144301","long":13.3849900000000001654143488849513232707977294921875},"14":{"id":"3154394","label":"Hadsel","value":"3154394","lat":68.5632800000000059981175581924617290496826171875,"lon":14.9083500000000004348521542851813137531280517578125,"poi_name":"Hadsel","parent_id":"3144301","long":14.9083500000000004348521542851813137531280517578125},"15":{"id":"3154063","label":"Hamar\u00f8y","value":"3154063","lat":68.083809999999999718056642450392246246337890625,"lon":15.6167099999999994253130353172309696674346923828125,"poi_name":"Hamar\u00f8y","parent_id":"3144301","long":15.6167099999999994253130353172309696674346923828125},"16":{"id":"3153753","label":"Hattfjelldal","value":"3153753","lat":65.5976500000000015688783605583012104034423828125,"lon":13.9894800000000003592504072003066539764404296875,"poi_name":"Hattfjelldal","parent_id":"3144301","long":13.9894800000000003592504072003066539764404296875},"17":{"id":"3152993","label":"Hemnes","value":"3152993","lat":66.0771199999999936380845610983669757843017578125,"lon":13.8134999999999994457766661071218550205230712890625,"poi_name":"Hemnes","parent_id":"3144301","long":13.8134999999999994457766661071218550205230712890625},"18":{"id":"6453325","label":"Her\u00f8y","value":"6453325","lat":65.9842699999999950932760839350521564483642578125,"lon":12.2891600000000007497646947740577161312103271484375,"poi_name":"Her\u00f8y","parent_id":"3144301","long":12.2891600000000007497646947740577161312103271484375},"19":{"id":"3147877","label":"Leirfjord","value":"3147877","lat":66.063479999999998426574165932834148406982421875,"lon":12.93666999999999944748196867294609546661376953125,"poi_name":"Leirfjord","parent_id":"3144301","long":12.93666999999999944748196867294609546661376953125},"20":{"id":"3146743","label":"Lur\u00f8y","value":"3146743","lat":66.418869999999998299244907684624195098876953125,"lon":12.8424800000000001176658770418725907802581787109375,"poi_name":"Lur\u00f8y","parent_id":"3144301","long":12.8424800000000001176658770418725907802581787109375},"21":{"id":"3147101","label":"L\u00f8dingen","value":"3147101","lat":68.4099800000000044519765651784837245941162109375,"lon":15.9901199999999992229504641727544367313385009765625,"poi_name":"L\u00f8dingen","parent_id":"3144301","long":15.9901199999999992229504641727544367313385009765625},"22":{"id":"3146067","label":"Mel\u00f8y","value":"3146067","lat":66.872039999999998372004483826458454132080078125,"lon":13.7076299999999999812416717759333550930023193359375,"poi_name":"Mel\u00f8y","parent_id":"3144301","long":13.7076299999999999812416717759333550930023193359375},"23":{"id":"3145382","label":"Moskenes","value":"3145382","lat":67.9346699999999970032149576582014560699462890625,"lon":13.0910899999999994491872712387703359127044677734375,"poi_name":"Moskenes","parent_id":"3144301","long":13.0910899999999994491872712387703359127044677734375},"24":{"id":"6453321","label":"Narvik","value":"6453321","lat":68.4389599999999944657247397117316722869873046875,"lon":17.427749999999999630517777404747903347015380859375,"poi_name":"Narvik","parent_id":"3144301","long":17.427749999999999630517777404747903347015380859375},"25":{"id":"3144660","label":"Nesna","value":"3144660","lat":66.197959999999994806785252876579761505126953125,"lon":13.0222899999999999209876477834768593311309814453125,"poi_name":"Nesna","parent_id":"3144301","long":13.0222899999999999209876477834768593311309814453125},"26":{"id":"6453324","label":"Rana","value":"6453324","lat":66.3112200000000058253135648556053638458251953125,"lon":14.1399600000000003063860276597552001476287841796875,"poi_name":"Rana","parent_id":"3144301","long":14.1399600000000003063860276597552001476287841796875},"27":{"id":"3141588","label":"R\u00f8d\u00f8y","value":"3141588","lat":66.7119500000000016370904631912708282470703125,"lon":13.28529999999999944293449516408145427703857421875,"poi_name":"R\u00f8d\u00f8y","parent_id":"3144301","long":13.28529999999999944293449516408145427703857421875},"28":{"id":"3141198","label":"R\u00f8st","value":"3141198","lat":67.51726999999999634383129887282848358154296875,"lon":12.1156400000000008532197171007283031940460205078125,"poi_name":"R\u00f8st","parent_id":"3144301","long":12.1156400000000008532197171007283031940460205078125},"29":{"id":"3140498","label":"Saltdal","value":"3140498","lat":67.101439999999996643964550457894802093505859375,"lon":15.3945799999999994867039276869036257266998291015625,"poi_name":"Saltdal","parent_id":"3144301","long":15.3945799999999994867039276869036257266998291015625},"30":{"id":"3137404","label":"Sortland","value":"3137404","lat":68.696179999999998244675225578248500823974609375,"lon":15.4117399999999999948840923025272786617279052734375,"poi_name":"Sortland","parent_id":"3144301","long":15.4117399999999999948840923025272786617279052734375},"31":{"id":"3137038","label":"Steigen","value":"3137038","lat":67.7762500000000045474735088646411895751953125,"lon":15.0162099999999991695176504435949027538299560546875,"poi_name":"Steigen","parent_id":"3144301","long":15.0162099999999991695176504435949027538299560546875},"32":{"id":"3137700","label":"S\u00f8mna","value":"3137700","lat":65.3137899999999973488229443319141864776611328125,"lon":12.1672899999999994946620063274167478084564208984375,"poi_name":"S\u00f8mna","parent_id":"3144301","long":12.1672899999999994946620063274167478084564208984375},"33":{"id":"3137522","label":"S\u00f8rfold","value":"3137522","lat":67.3480299999999942883732728660106658935546875,"lon":15.5944500000000001449507180950604379177093505859375,"poi_name":"S\u00f8rfold","parent_id":"3144301","long":15.5944500000000001449507180950604379177093505859375},"34":{"id":"3134549","label":"Tjeldsund","value":"3134549","lat":68.5555700000000030058799893595278263092041015625,"lon":16.36171999999999826513885636813938617706298828125,"poi_name":"Tjeldsund","parent_id":"3144301","long":16.36171999999999826513885636813938617706298828125},"35":{"id":"3134084","label":"Tr\u00e6na","value":"3134084","lat":66.501589999999993096935213543474674224853515625,"lon":12.096450000000000812860889709554612636566162109375,"poi_name":"Tr\u00e6na","parent_id":"3144301","long":12.096450000000000812860889709554612636566162109375},"36":{"id":"3133482","label":"Tysfjord","value":"3133482","lat":68.0977199999999953661244944669306278228759765625,"lon":16.375910000000001076614353223703801631927490234375,"poi_name":"Tysfjord","parent_id":"3144301","long":16.375910000000001076614353223703801631927490234375},"37":{"id":"3132346","label":"Vefsn","value":"3132346","lat":65.8410899999999941201167530380189418792724609375,"lon":13.20024000000000086174622992984950542449951171875,"poi_name":"Vefsn","parent_id":"3144301","long":13.20024000000000086174622992984950542449951171875},"38":{"id":"6453326","label":"Vega","value":"6453326","lat":65.6753899999999930514604784548282623291015625,"lon":11.9645600000000005280753612169064581394195556640625,"poi_name":"Vega","parent_id":"3144301","long":11.9645600000000005280753612169064581394195556640625},"39":{"id":"6453322","label":"Vestv\u00e5g\u00f8y","value":"6453322","lat":68.14830000000000609361450187861919403076171875,"lon":13.61119000000000056616045185364782810211181640625,"poi_name":"Vestv\u00e5g\u00f8y","parent_id":"3144301","long":13.61119000000000056616045185364782810211181640625},"40":{"id":"3131900","label":"Vevelstad","value":"3131900","lat":65.700019999999994979589246213436126708984375,"lon":12.439209999999999212150214589200913906097412109375,"poi_name":"Vevelstad","parent_id":"3144301","long":12.439209999999999212150214589200913906097412109375},"41":{"id":"3133044","label":"V\u00e5gan","value":"3133044","lat":68.232200000000005957190296612679958343505859375,"lon":14.5622600000000002040678737103007733821868896484375,"poi_name":"V\u00e5gan","parent_id":"3144301","long":14.5622600000000002040678737103007733821868896484375},"42":{"id":"3133071","label":"V\u00e6r\u00f8y","value":"3133071","lat":67.6637400000000042155079427175223827362060546875,"lon":12.6933699999999998198063622112385928630828857421875,"poi_name":"V\u00e6r\u00f8y","parent_id":"3144301","long":12.6933699999999998198063622112385928630828857421875},"43":{"id":"3143705","label":"\u00d8ksnes","value":"3143705","lat":68.9146300000000024965629563666880130767822265625,"lon":15.0870300000000003848299456876702606678009033203125,"poi_name":"\u00d8ksnes","parent_id":"3144301","long":15.0870300000000003848299456876702606678009033203125}}