{"success":true,"remaining_lookups":8236,"0":{"id":"6453334","label":"Aukra","value":"6453334","lat":62.80499999999999971578290569595992565155029296875,"lon":6.88722000000000011965539670200087130069732666015625,"poi_name":"Aukra","parent_id":"3145495","long":6.88722000000000011965539670200087130069732666015625},"1":{"id":"3162407","label":"Aure","value":"3162407","lat":63.2674999999999982946974341757595539093017578125,"lon":8.52777999999999991587174008600413799285888671875,"poi_name":"Aure","parent_id":"3145495","long":8.52777999999999991587174008600413799285888671875},"2":{"id":"6453332","label":"Aver\u00f8y","value":"6453332","lat":63.05344000000000193040250451304018497467041015625,"lon":7.6326499999999999346300683100707828998565673828125,"poi_name":"Aver\u00f8y","parent_id":"3145495","long":7.6326499999999999346300683100707828998565673828125},"3":{"id":"6453333","label":"Eide","value":"6453333","lat":62.9157000000000010686562745831906795501708984375,"lon":7.4449600000000000221689333557151257991790771484375,"poi_name":"Eide","parent_id":"3145495","long":7.4449600000000000221689333557151257991790771484375},"4":{"id":"3156555","label":"Fr\u00e6na","value":"3156555","lat":62.85374999999999801048033987171947956085205078125,"lon":7.153800000000000380850906367413699626922607421875,"poi_name":"Fr\u00e6na","parent_id":"3145495","long":7.153800000000000380850906367413699626922607421875},"5":{"id":"3155805","label":"Giske","value":"3155805","lat":62.50070000000000192130755749531090259552001953125,"lon":6.1347199999999997288568920339457690715789794921875,"poi_name":"Giske","parent_id":"3145495","long":6.1347199999999997288568920339457690715789794921875},"6":{"id":"3155751","label":"Gjemnes","value":"3155751","lat":62.89379000000000274894773610867559909820556640625,"lon":7.6771399999999996310862115933559834957122802734375,"poi_name":"Gjemnes","parent_id":"3145495","long":7.6771399999999996310862115933559834957122802734375},"7":{"id":"3154148","label":"Halsa","value":"3154148","lat":63.118549999999999045030563138425350189208984375,"lon":8.3153600000000000846966941026039421558380126953125,"poi_name":"Halsa","parent_id":"3145495","long":8.3153600000000000846966941026039421558380126953125},"8":{"id":"3153889","label":"Haram","value":"3153889","lat":62.5989799999999974033926264382898807525634765625,"lon":6.444829999999999614601620123721659183502197265625,"poi_name":"Haram","parent_id":"3145495","long":6.444829999999999614601620123721659183502197265625},"9":{"id":"3153860","label":"Hareid","value":"3153860","lat":62.36742000000000274440026259981095790863037109375,"lon":6.02113999999999993661958797019906342029571533203125,"poi_name":"Hareid","parent_id":"3145495","long":6.02113999999999993661958797019906342029571533203125},"10":{"id":"6453340","label":"Her\u00f8y","value":"6453340","lat":62.33332999999999657347871107049286365509033203125,"lon":5.635979999999999989768184605054557323455810546875,"poi_name":"Her\u00f8y","parent_id":"3145495","long":5.635979999999999989768184605054557323455810546875},"11":{"id":"6453331","label":"Kristiansund","value":"6453331","lat":63.1115199999999987312548910267651081085205078125,"lon":7.73198000000000007503331289626657962799072265625,"poi_name":"Kristiansund","parent_id":"3145495","long":7.73198000000000007503331289626657962799072265625},"12":{"id":"6453336","label":"Midsund","value":"6453336","lat":62.67613999999999663259586668573319911956787109375,"lon":6.67776000000000014011902749189175665378570556640625,"poi_name":"Midsund","parent_id":"3145495","long":6.67776000000000014011902749189175665378570556640625},"13":{"id":"3145582","label":"Molde","value":"3145582","lat":62.73807000000000044792614062316715717315673828125,"lon":7.1588200000000004052935764775611460208892822265625,"poi_name":"Molde","parent_id":"3145495","long":7.1588200000000004052935764775611460208892822265625},"14":{"id":"3144640","label":"Nesset","value":"3144640","lat":62.7761899999999997135091689415276050567626953125,"lon":8.0662299999999991229060469777323305606842041015625,"poi_name":"Nesset","parent_id":"3145495","long":8.0662299999999991229060469777323305606842041015625},"15":{"id":"3144404","label":"Norddal","value":"3144404","lat":62.29910000000000280806489172391593456268310546875,"lon":7.261449999999999960209606797434389591217041015625,"poi_name":"Norddal","parent_id":"3145495","long":7.261449999999999960209606797434389591217041015625},"16":{"id":"6453337","label":"Rauma","value":"6453337","lat":62.5681000000000011596057447604835033416748046875,"lon":7.68611999999999984112264428404159843921661376953125,"poi_name":"Rauma","parent_id":"3145495","long":7.68611999999999984112264428404159843921661376953125},"17":{"id":"3141865","label":"Rindal","value":"3141865","lat":63.0551099999999991041477187536656856536865234375,"lon":9.212740000000000151203494169749319553375244140625,"poi_name":"Rindal","parent_id":"3145495","long":9.212740000000000151203494169749319553375244140625},"18":{"id":"6453345","label":"Sande","value":"6453345","lat":62.2045499999999975671016727574169635772705078125,"lon":5.5797100000000003916511559509672224521636962890625,"poi_name":"Sande","parent_id":"3145495","long":5.5797100000000003916511559509672224521636962890625},"19":{"id":"3140273","label":"Sand\u00f8y","value":"3140273","lat":62.78166999999999831061359145678579807281494140625,"lon":6.46875,"poi_name":"Sand\u00f8y","parent_id":"3145495","long":6.46875},"20":{"id":"3138746","label":"Skodje","value":"3138746","lat":62.50305999999999784222382004372775554656982421875,"lon":6.69817000000000017934098650584928691387176513671875,"poi_name":"Skodje","parent_id":"3145495","long":6.69817000000000017934098650584928691387176513671875},"21":{"id":"3138113","label":"Sm\u00f8la","value":"3138113","lat":63.46526000000000067302607931196689605712890625,"lon":8.0181400000000007111111699487082660198211669921875,"poi_name":"Sm\u00f8la","parent_id":"3145495","long":8.0181400000000007111111699487082660198211669921875},"22":{"id":"3136539","label":"Stordal","value":"3136539","lat":62.38213999999999970214048516936600208282470703125,"lon":6.98707999999999973539388520293869078159332275390625,"poi_name":"Stordal","parent_id":"3145495","long":6.98707999999999973539388520293869078159332275390625},"23":{"id":"3135806","label":"Stranda","value":"3135806","lat":62.31132000000000203954186872579157352447509765625,"lon":6.93114999999999970015096550923772156238555908203125,"poi_name":"Stranda","parent_id":"3145495","long":6.93114999999999970015096550923772156238555908203125},"24":{"id":"6453343","label":"Sula","value":"6453343","lat":62.44447000000000258523868978954851627349853515625,"lon":6.21229000000000031178615245153196156024932861328125,"poi_name":"Sula","parent_id":"3145495","long":6.21229000000000031178615245153196156024932861328125},"25":{"id":"3135381","label":"Sunndal","value":"3135381","lat":62.6746399999999965757524478249251842498779296875,"lon":8.5618800000000003791456038015894591808319091796875,"poi_name":"Sunndal","parent_id":"3145495","long":8.5618800000000003791456038015894591808319091796875},"26":{"id":"3135358","label":"Surnadal","value":"3135358","lat":62.9753299999999995861799106933176517486572265625,"lon":8.7248999999999998777866494492627680301666259765625,"poi_name":"Surnadal","parent_id":"3145495","long":8.7248999999999998777866494492627680301666259765625},"27":{"id":"3134983","label":"Sykkylven","value":"3134983","lat":62.38962000000000074351191869936883449554443359375,"lon":6.57824999999999970867747833835892379283905029296875,"poi_name":"Sykkylven","parent_id":"3145495","long":6.57824999999999970867747833835892379283905029296875},"28":{"id":"3134596","label":"Tingvoll","value":"3134596","lat":62.9119400000000013051248970441520214080810546875,"lon":8.20673000000000030240698833949863910675048828125,"poi_name":"Tingvoll","parent_id":"3145495","long":8.20673000000000030240698833949863910675048828125},"29":{"id":"3133350","label":"Ulstein","value":"3133350","lat":62.34423000000000314457793137989938259124755859375,"lon":5.85240999999999989000798450433649122714996337890625,"poi_name":"Ulstein","parent_id":"3145495","long":5.85240999999999989000798450433649122714996337890625},"30":{"id":"3132715","label":"Vanylven","value":"3132715","lat":62.10002999999999673264028388075530529022216796875,"lon":5.55827000000000026602720026858150959014892578125,"poi_name":"Vanylven","parent_id":"3145495","long":5.55827000000000026602720026858150959014892578125},"31":{"id":"6453338","label":"Vestnes","value":"6453338","lat":62.62129999999999796500560478307306766510009765625,"lon":7.0896600000000002950173438875935971736907958984375,"poi_name":"Vestnes","parent_id":"3145495","long":7.0896600000000002950173438875935971736907958984375},"32":{"id":"3131447","label":"Volda","value":"3131447","lat":62.14677999999999968849806464277207851409912109375,"lon":6.0679999999999996163069226895458996295928955078125,"poi_name":"Volda","parent_id":"3145495","long":6.0679999999999996163069226895458996295928955078125},"33":{"id":"6453341","label":"\u00c5lesund","value":"6453341","lat":62.47124000000000165755409398116171360015869140625,"lon":6.1542399999999997106669979984872043132781982421875,"poi_name":"\u00c5lesund","parent_id":"3145495","long":6.1542399999999997106669979984872043132781982421875},"34":{"id":"3143338","label":"\u00d8rskog","value":"3143338","lat":62.484499999999997044142219237983226776123046875,"lon":6.8202499999999997015720509807579219341278076171875,"poi_name":"\u00d8rskog","parent_id":"3145495","long":6.8202499999999997015720509807579219341278076171875},"35":{"id":"3143333","label":"\u00d8rsta","value":"3143333","lat":62.1993700000000018235368770547211170196533203125,"lon":6.13084000000000006735945135005749762058258056640625,"poi_name":"\u00d8rsta","parent_id":"3145495","long":6.13084000000000006735945135005749762058258056640625}}