{"success":true,"remaining_lookups":8238,"0":{"id":"3163268","label":"Alvdal","value":"3163268","lat":62.10853999999999786041371407918632030487060546875,"lon":10.6348299999999991172217050916515290737152099609375,"poi_name":"Alvdal","parent_id":"3153403","long":10.6348299999999991172217050916515290737152099609375},"1":{"id":"3158629","label":"Eidskog","value":"3158629","lat":59.98555999999999954752638586796820163726806640625,"lon":12.12501999999999924284566077403724193572998046875,"poi_name":"Eidskog","parent_id":"3153403","long":12.12501999999999924284566077403724193572998046875},"2":{"id":"3158299","label":"Elverum","value":"3158299","lat":60.8815900000000027603164198808372020721435546875,"lon":11.563140000000000640056896372698247432708740234375,"poi_name":"Elverum","parent_id":"3153403","long":11.563140000000000640056896372698247432708740234375},"3":{"id":"3158205","label":"Engerdal","value":"3158205","lat":61.7577399999999983037923811934888362884521484375,"lon":11.9596599999999995134203345514833927154541015625,"poi_name":"Engerdal","parent_id":"3153403","long":11.9596599999999995134203345514833927154541015625},"4":{"id":"3156866","label":"Folldal","value":"3156866","lat":62.1332900000000023510438040830194950103759765625,"lon":9.997099999999999653255144949071109294891357421875,"poi_name":"Folldal","parent_id":"3153403","long":9.997099999999999653255144949071109294891357421875},"5":{"id":"3154695","label":"Grue","value":"3154695","lat":60.4513299999999986766852089203894138336181640625,"lon":12.0548900000000003274180926382541656494140625,"poi_name":"Grue","parent_id":"3153403","long":12.0548900000000003274180926382541656494140625},"6":{"id":"6453351","label":"Hamar","value":"6453351","lat":60.79451000000000249201548285782337188720703125,"lon":11.0783000000000004803268893738277256488800048828125,"poi_name":"Hamar","parent_id":"3153403","long":11.0783000000000004803268893738277256488800048828125},"7":{"id":"3149534","label":"Kongsvinger","value":"3149534","lat":60.19116999999999961801222525537014007568359375,"lon":11.999159999999999826059138285927474498748779296875,"poi_name":"Kongsvinger","parent_id":"3153403","long":11.999159999999999826059138285927474498748779296875},"8":{"id":"3146896","label":"L\u00f8ten","value":"3146896","lat":60.81770999999999816054696566425263881683349609375,"lon":11.34373000000000075715433922596275806427001953125,"poi_name":"L\u00f8ten","parent_id":"3153403","long":11.34373000000000075715433922596275806427001953125},"9":{"id":"3144273","label":"Nord-Odal","value":"3144273","lat":60.39195000000000135287336888723075389862060546875,"lon":11.5415100000000006019718057359568774700164794921875,"poi_name":"Nord-Odal","parent_id":"3153403","long":11.5415100000000006019718057359568774700164794921875},"10":{"id":"6453342","label":"Os","value":"6453342","lat":62.49535999999999802412276039831340312957763671875,"lon":11.2280700000000006610889613511972129344940185546875,"poi_name":"Os","parent_id":"3153403","long":11.2280700000000006610889613511972129344940185546875},"11":{"id":"3141977","label":"Rendalen","value":"3141977","lat":61.890039999999999054125510156154632568359375,"lon":11.07694000000000045247361413203179836273193359375,"poi_name":"Rendalen","parent_id":"3153403","long":11.07694000000000045247361413203179836273193359375},"12":{"id":"3141831","label":"Ringsaker","value":"3141831","lat":60.8821599999999989449861459434032440185546875,"lon":10.9503000000000003666400516522116959095001220703125,"poi_name":"Ringsaker","parent_id":"3153403","long":10.9503000000000003666400516522116959095001220703125},"13":{"id":"3137167","label":"Stange","value":"3137167","lat":60.7157600000000030604496714659035205841064453125,"lon":11.190690000000000026147972675971686840057373046875,"poi_name":"Stange","parent_id":"3153403","long":11.190690000000000026147972675971686840057373046875},"14":{"id":"3136387","label":"Stor-Elvdal","value":"3136387","lat":61.57198000000000348563844454474747180938720703125,"lon":11.0475899999999995770849636755883693695068359375,"poi_name":"Stor-Elvdal","parent_id":"3153403","long":11.0475899999999995770849636755883693695068359375},"15":{"id":"3137441","label":"S\u00f8r-Odal","value":"3137441","lat":60.25455000000000183035808731801807880401611328125,"lon":11.6824600000000007327116691158153116703033447265625,"poi_name":"S\u00f8r-Odal","parent_id":"3153403","long":11.6824600000000007327116691158153116703033447265625},"16":{"id":"6453344","label":"Tolga","value":"6453344","lat":62.409840000000002646629582159221172332763671875,"lon":10.9977000000000000312638803734444081783294677734375,"poi_name":"Tolga","parent_id":"3153403","long":10.9977000000000000312638803734444081783294677734375},"17":{"id":"3133817","label":"Trysil","value":"3133817","lat":61.3154899999999969395503285340964794158935546875,"lon":12.2642199999999998993871486163698136806488037109375,"poi_name":"Trysil","parent_id":"3153403","long":12.2642199999999998993871486163698136806488037109375},"18":{"id":"3133497","label":"Tynset","value":"3133497","lat":62.2738700000000022782842279411852359771728515625,"lon":10.77626000000000061618266045115888118743896484375,"poi_name":"Tynset","parent_id":"3153403","long":10.77626000000000061618266045115888118743896484375},"19":{"id":"6453356","label":"V\u00e5ler","value":"6453356","lat":60.6784499999999979991116560995578765869140625,"lon":11.8331400000000002137312549166381359100341796875,"poi_name":"V\u00e5ler","parent_id":"3153403","long":11.8331400000000002137312549166381359100341796875},"20":{"id":"3163189","label":"\u00c5mot","value":"3163189","lat":61.131990000000001828084350563585758209228515625,"lon":11.3732799999999993900701156235300004482269287109375,"poi_name":"\u00c5mot","parent_id":"3153403","long":11.3732799999999993900701156235300004482269287109375},"21":{"id":"3162593","label":"\u00c5snes","value":"3162593","lat":60.61363000000000056388671509921550750732421875,"lon":12.01200000000000045474735088646411895751953125,"poi_name":"\u00c5snes","parent_id":"3153403","long":12.01200000000000045474735088646411895751953125}}