{"success":true,"remaining_lookups":8240,"0":{"id":"6453372","label":"Drammen","value":"6453372","lat":59.74535999999999802412276039831340312957763671875,"lon":10.20597000000000065256244852207601070404052734375,"poi_name":"Drammen","parent_id":"3159665","long":10.20597000000000065256244852207601070404052734375},"1":{"id":"3157053","label":"Flesberg","value":"3157053","lat":59.83283000000000129148247651755809783935546875,"lon":9.5830800000000007088374331942759454250335693359375,"poi_name":"Flesberg","parent_id":"3159665","long":9.5830800000000007088374331942759454250335693359375},"2":{"id":"6453361","label":"Fl\u00e5","value":"6453361","lat":60.42909999999999826059138285927474498748779296875,"lon":9.4661100000000004683897714130580425262451171875,"poi_name":"Fl\u00e5","parent_id":"3159665","long":9.4661100000000004683897714130580425262451171875},"3":{"id":"3155419","label":"Gol","value":"3155419","lat":60.69953000000000287172952084802091121673583984375,"lon":8.95024000000000086174622992984950542449951171875,"poi_name":"Gol","parent_id":"3159665","long":8.95024000000000086174622992984950542449951171875},"4":{"id":"3152987","label":"Hemsedal","value":"3152987","lat":60.86113999999999890633262111805379390716552734375,"lon":8.5653699999999997061195244896225631237030029296875,"poi_name":"Hemsedal","parent_id":"3159665","long":8.5653699999999997061195244896225631237030029296875},"5":{"id":"6453357","label":"Hol","value":"6453357","lat":60.6152799999999984947862685658037662506103515625,"lon":8.3019400000000000972022462519817054271697998046875,"poi_name":"Hol","parent_id":"3159665","long":8.3019400000000000972022462519817054271697998046875},"6":{"id":"6453367","label":"Hole","value":"6453367","lat":60.08017000000000251702658715657889842987060546875,"lon":10.2783999999999995367261362844146788120269775390625,"poi_name":"Hole","parent_id":"3159665","long":10.2783999999999995367261362844146788120269775390625},"7":{"id":"3151404","label":"Hurum","value":"3151404","lat":59.61401000000000038880898500792682170867919921875,"lon":10.4576299999999999812416717759333550930023193359375,"poi_name":"Hurum","parent_id":"3159665","long":10.4576299999999999812416717759333550930023193359375},"8":{"id":"6453373","label":"Kongsberg","value":"6453373","lat":59.6651600000000001955413608811795711517333984375,"lon":9.6465300000000002711431079660542309284210205078125,"poi_name":"Kongsberg","parent_id":"3159665","long":9.6465300000000002711431079660542309284210205078125},"9":{"id":"3149302","label":"Kr\u00f8dsherad","value":"3149302","lat":60.1794399999999995998223312199115753173828125,"lon":9.62124000000000023646862246096134185791015625,"poi_name":"Kr\u00f8dsherad","parent_id":"3159665","long":9.62124000000000023646862246096134185791015625},"10":{"id":"3147541","label":"Lier","value":"3147541","lat":59.78663000000000238287611864507198333740234375,"lon":10.2459000000000006735945135005749762058258056640625,"poi_name":"Lier","parent_id":"3159665","long":10.2459000000000006735945135005749762058258056640625},"11":{"id":"3145690","label":"Modum","value":"3145690","lat":59.9734600000000028785507311113178730010986328125,"lon":10.00468000000000046156856114976108074188232421875,"poi_name":"Modum","parent_id":"3159665","long":10.00468000000000046156856114976108074188232421875},"12":{"id":"3144882","label":"Nedre Eiker","value":"3144882","lat":59.7502300000000019508661353029310703277587890625,"lon":10.0073600000000002552269506850279867649078369140625,"poi_name":"Nedre Eiker","parent_id":"3159665","long":10.0073600000000002552269506850279867649078369140625},"13":{"id":"6453359","label":"Nes","value":"6453359","lat":60.56804000000000343106876243837177753448486328125,"lon":9.1016899999999996140331859351135790348052978515625,"poi_name":"Nes","parent_id":"3159665","long":9.1016899999999996140331859351135790348052978515625},"14":{"id":"6453363","label":"Nore og Uvdal","value":"6453363","lat":60.2670600000000007412381819449365139007568359375,"lon":8.9463500000000006906475391588173806667327880859375,"poi_name":"Nore og Uvdal","parent_id":"3159665","long":8.9463500000000006906475391588173806667327880859375},"15":{"id":"6453360","label":"Ringerike","value":"6453360","lat":60.160179999999996880433172918856143951416015625,"lon":10.2566000000000006053824108676053583621978759765625,"poi_name":"Ringerike","parent_id":"3159665","long":10.2566000000000006053824108676053583621978759765625},"16":{"id":"3141467","label":"Rollag","value":"3141467","lat":59.98413000000000039335645851679146289825439453125,"lon":9.2948900000000005405809133662842214107513427734375,"poi_name":"Rollag","parent_id":"3159665","long":9.2948900000000005405809133662842214107513427734375},"17":{"id":"3141104","label":"R\u00f8yken","value":"3141104","lat":59.7401899999999983492671162821352481842041015625,"lon":10.41320999999999941110218060202896595001220703125,"poi_name":"R\u00f8yken","parent_id":"3159665","long":10.41320999999999941110218060202896595001220703125},"18":{"id":"3139735","label":"Sigdal","value":"3139735","lat":60.04592000000000240333974943496286869049072265625,"lon":9.63673000000000001818989403545856475830078125,"poi_name":"Sigdal","parent_id":"3159665","long":9.63673000000000001818989403545856475830078125},"19":{"id":"3163374","label":"\u00c5l","value":"3163374","lat":60.630279999999999063220457173883914947509765625,"lon":8.5611499999999995935695551452226936817169189453125,"poi_name":"\u00c5l","parent_id":"3159665","long":8.5611499999999995935695551452226936817169189453125},"20":{"id":"3143010","label":"\u00d8vre Eiker","value":"3143010","lat":59.77111000000000018417267710901796817779541015625,"lon":9.908400000000000318323145620524883270263671875,"poi_name":"\u00d8vre Eiker","parent_id":"3159665","long":9.908400000000000318323145620524883270263671875}}