{"success":true,"remaining_lookups":8239,"0":{"id":"780946","label":"Alta","value":"780946","lat":69.9767499999999955662133288569748401641845703125,"lon":23.2963400000000007139533408917486667633056640625,"poi_name":"Alta","parent_id":"780166","long":23.2963400000000007139533408917486667633056640625},"1":{"id":"780686","label":"Berlev\u00e5g","value":"780686","lat":70.8572300000000012687451089732348918914794921875,"lon":29.085100000000000619593265582807362079620361328125,"poi_name":"Berlev\u00e5g","parent_id":"780166","long":29.085100000000000619593265582807362079620361328125},"2":{"id":"780714","label":"B\u00e5tsfjord","value":"780714","lat":70.6350599999999957390173221938312053680419921875,"lon":29.721489999999999298552211257629096508026123046875,"poi_name":"B\u00e5tsfjord","parent_id":"780166","long":29.721489999999999298552211257629096508026123046875},"3":{"id":"779933","label":"Gamvik","value":"779933","lat":71.0410700000000048248693929053843021392822265625,"lon":27.851440000000000196678229258395731449127197265625,"poi_name":"Gamvik","parent_id":"780166","long":27.851440000000000196678229258395731449127197265625},"4":{"id":"6453312","label":"Hammerfest","value":"6453312","lat":70.6625700000000023237589630298316478729248046875,"lon":23.682950000000001722355591482482850551605224609375,"poi_name":"Hammerfest","parent_id":"780166","long":23.682950000000001722355591482482850551605224609375},"5":{"id":"779641","label":"Hasvik","value":"779641","lat":70.5916399999999981673681759275496006011962890625,"lon":22.30272000000000076624928624369204044342041015625,"poi_name":"Hasvik","parent_id":"780166","long":22.30272000000000076624928624369204044342041015625},"6":{"id":"779349","label":"Karasjok","value":"779349","lat":69.47223999999999932697392068803310394287109375,"lon":25.5188500000000004774847184307873249053955078125,"poi_name":"Karasjok","parent_id":"780166","long":25.5188500000000004774847184307873249053955078125},"7":{"id":"779327","label":"Kautokeino","value":"779327","lat":69.0115100000000012414602679200470447540283203125,"lon":23.041509999999998825614966335706412792205810546875,"poi_name":"Kautokeino","parent_id":"780166","long":23.041509999999998825614966335706412792205810546875},"8":{"id":"779143","label":"Kvalsund","value":"779143","lat":70.4990999999999985448084771633148193359375,"lon":23.973929999999999296278474503196775913238525390625,"poi_name":"Kvalsund","parent_id":"780166","long":23.973929999999999296278474503196775913238525390625},"9":{"id":"778967","label":"Lebesby","value":"778967","lat":70.9453500000000047975845518521964550018310546875,"lon":27.35134000000000042973624658770859241485595703125,"poi_name":"Lebesby","parent_id":"780166","long":27.35134000000000042973624658770859241485595703125},"10":{"id":"778877","label":"Loppa","value":"778877","lat":70.239519999999998844941728748381137847900390625,"lon":22.3513599999999996725819073617458343505859375,"poi_name":"Loppa","parent_id":"780166","long":22.3513599999999996725819073617458343505859375},"11":{"id":"778730","label":"M\u00e5s\u00f8y","value":"778730","lat":70.9965399999999959845808916725218296051025390625,"lon":24.661460000000001713260644464753568172454833984375,"poi_name":"M\u00e5s\u00f8y","parent_id":"780166","long":24.661460000000001713260644464753568172454833984375},"12":{"id":"778559","label":"Nesseby","value":"778559","lat":69.8854099999999931469574221409857273101806640625,"lon":28.433679999999998955217961338348686695098876953125,"poi_name":"Nesseby","parent_id":"780166","long":28.433679999999998955217961338348686695098876953125},"13":{"id":"778459","label":"Nordkapp","value":"778459","lat":70.978080000000005611582309938967227935791015625,"lon":25.97473000000000098452801466919481754302978515625,"poi_name":"Nordkapp","parent_id":"780166","long":25.97473000000000098452801466919481754302978515625},"14":{"id":"6453314","label":"Porsanger","value":"6453314","lat":70.0521399999999943020156933926045894622802734375,"lon":24.95591999999999899273461778648197650909423828125,"poi_name":"Porsanger","parent_id":"780166","long":24.95591999999999899273461778648197650909423828125},"15":{"id":"777554","label":"S\u00f8r-Varanger","value":"777554","lat":69.72858999999999696228769607841968536376953125,"lon":30.04263999999999867895894567482173442840576171875,"poi_name":"S\u00f8r-Varanger","parent_id":"780166","long":30.04263999999999867895894567482173442840576171875},"16":{"id":"777197","label":"Tana","value":"777197","lat":70.199759999999997717168298549950122833251953125,"lon":28.184940000000000992486093309707939624786376953125,"poi_name":"Tana","parent_id":"780166","long":28.184940000000000992486093309707939624786376953125},"17":{"id":"6453315","label":"Vads\u00f8","value":"6453315","lat":70.074119999999993524397723376750946044921875,"lon":29.74922000000000110730979940854012966156005859375,"poi_name":"Vads\u00f8","parent_id":"780166","long":29.74922000000000110730979940854012966156005859375},"18":{"id":"6453313","label":"Vard\u00f8","value":"6453313","lat":70.3704000000000036152414395473897457122802734375,"lon":31.1086600000000004229150363244116306304931640625,"poi_name":"Vard\u00f8","parent_id":"780166","long":31.1086600000000004229150363244116306304931640625}}