{"success":true,"remaining_lookups":9301,"0":{"id":"11205054","label":"Hosea","value":"11205054","lat":-27.120000000000000994759830064140260219573974609375,"lon":31.41199999999999903366187936626374721527099609375,"poi_name":"Hosea","parent_id":"934867","long":31.41199999999999903366187936626374721527099609375},"1":{"id":"7910861","label":"Maseyisini","value":"7910861","lat":-27.147659999999998348130247904919087886810302734375,"lon":31.167429999999999523652149946428835391998291015625,"poi_name":"Maseyisini","parent_id":"934867","long":31.167429999999999523652149946428835391998291015625},"2":{"id":"7910685","label":"Matsanjeni","value":"7910685","lat":-27.215849999999999653255144949071109294891357421875,"lon":31.7230899999999991223376127891242504119873046875,"poi_name":"Matsanjeni","parent_id":"934867","long":31.7230899999999991223376127891242504119873046875},"3":{"id":"11257294","label":"Matsanjeni North","value":"11257294","lat":-27.239699999999999135980033315718173980712890625,"lon":31.71979999999999932924765744246542453765869140625,"poi_name":"Matsanjeni North","parent_id":"934867","long":31.71979999999999932924765744246542453765869140625},"4":{"id":"11128090","label":"Mtsambama","value":"11128090","lat":-26.964439999999999741930878371931612491607666015625,"lon":31.396670000000000300133251585066318511962890625,"poi_name":"Mtsambama","parent_id":"934867","long":31.396670000000000300133251585066318511962890625},"5":{"id":"11127725","label":"Ngudzeni","value":"11127725","lat":-27.035830000000000694626578479073941707611083984375,"lon":31.55111000000000132104105432517826557159423828125,"poi_name":"Ngudzeni","parent_id":"934867","long":31.55111000000000132104105432517826557159423828125},"6":{"id":"11128345","label":"Nkwene","value":"11128345","lat":-26.897780000000000910631570150144398212432861328125,"lon":31.249719999999999942019712761975824832916259765625,"poi_name":"Nkwene","parent_id":"934867","long":31.249719999999999942019712761975824832916259765625},"7":{"id":"11205574","label":"Shiselweni I","value":"11205574","lat":-27.1166699999999991632648743689060211181640625,"lon":31.199999999999999289457264239899814128875732421875,"poi_name":"Shiselweni I","parent_id":"934867","long":31.199999999999999289457264239899814128875732421875},"8":{"id":"11128505","label":"Sigwe Inkhundla","value":"11128505","lat":-27.058209999999998984776539145968854427337646484375,"lon":31.645430000000001058424459188245236873626708984375,"poi_name":"Sigwe Inkhundla","parent_id":"934867","long":31.645430000000001058424459188245236873626708984375},"9":{"id":"11128507","label":"Zombodze Ikhundla","value":"11128507","lat":-27.22746000000000066165739553980529308319091796875,"lon":31.337990000000001344915290246717631816864013671875,"poi_name":"Zombodze Ikhundla","parent_id":"934867","long":31.337990000000001344915290246717631816864013671875}}