{"success":true,"remaining_lookups":9302,"0":{"id":"11127975","label":"Ekukhanyeni","value":"11127975","lat":-26.387499999999999289457264239899814128875732421875,"lon":31.528059999999999973852027324028313159942626953125,"poi_name":"Ekukhanyeni","parent_id":"934994","long":31.528059999999999973852027324028313159942626953125},"1":{"id":"11205016","label":"Kwaluseni","value":"11205016","lat":-26.48094999999999998863131622783839702606201171875,"lon":31.299610000000001264197635464370250701904296875,"poi_name":"Kwaluseni","parent_id":"934994","long":31.299610000000001264197635464370250701904296875},"2":{"id":"11204891","label":"Lamgabhi","value":"11204891","lat":-26.561409999999998632347342208959162235260009765625,"lon":31.07500999999999891088009462691843509674072265625,"poi_name":"Lamgabhi","parent_id":"934994","long":31.07500999999999891088009462691843509674072265625},"3":{"id":"11128352","label":"Ludzeludze Inkhundla","value":"11128352","lat":-26.397079999999998989324012654833495616912841796875,"lon":31.31409000000000020236257114447653293609619140625,"poi_name":"Ludzeludze Inkhundla","parent_id":"934994","long":31.31409000000000020236257114447653293609619140625},"4":{"id":"11128346","label":"Mafutseni","value":"11128346","lat":-26.440000000000001278976924368180334568023681640625,"lon":31.519999999999999573674358543939888477325439453125,"poi_name":"Mafutseni","parent_id":"934994","long":31.519999999999999573674358543939888477325439453125},"5":{"id":"11128096","label":"Mahlangatsha","value":"11128096","lat":-26.78332999999999941564965411089360713958740234375,"lon":31.199999999999999289457264239899814128875732421875,"poi_name":"Mahlangatsha","parent_id":"934994","long":31.199999999999999289457264239899814128875732421875},"6":{"id":"11523361","label":"Mangcongco","value":"11523361","lat":-26.5835000000000007958078640513122081756591796875,"lon":30.996880000000000876525518833659589290618896484375,"poi_name":"Mangcongco","parent_id":"934994","long":30.996880000000000876525518833659589290618896484375},"7":{"id":"7910681","label":"Manzini North","value":"7910681","lat":-26.4998199999999997089616954326629638671875,"lon":31.390850000000000363797880709171295166015625,"poi_name":"Manzini North","parent_id":"934994","long":31.390850000000000363797880709171295166015625},"8":{"id":"11127992","label":"Manzini South","value":"11127992","lat":-26.483329999999998705106918350793421268463134765625,"lon":31.3666699999999991632648743689060211181640625,"poi_name":"Manzini South","parent_id":"934994","long":31.3666699999999991632648743689060211181640625},"9":{"id":"7910684","label":"Mkhiweni","value":"7910684","lat":-26.241060000000000940190147957764565944671630859375,"lon":31.604639999999999844249032321386039257049560546875,"poi_name":"Mkhiweni","parent_id":"934994","long":31.604639999999999844249032321386039257049560546875},"10":{"id":"11127982","label":"Ngwempisi","value":"11127982","lat":-26.6998999999999995225152815692126750946044921875,"lon":31.288759999999999905639924691058695316314697265625,"poi_name":"Ngwempisi","parent_id":"934994","long":31.288759999999999905639924691058695316314697265625},"11":{"id":"11127821","label":"Nhlambeni","value":"11127821","lat":-26.6452799999999996316546457819640636444091796875,"lon":31.3983300000000014051693142391741275787353515625,"poi_name":"Nhlambeni","parent_id":"934994","long":31.3983300000000014051693142391741275787353515625},"12":{"id":"11128094","label":"Ntondozi","value":"11128094","lat":-26.635000000000001563194018672220408916473388671875,"lon":31.225560000000001537046045996248722076416015625,"poi_name":"Ntondozi","parent_id":"934994","long":31.225560000000001537046045996248722076416015625}}