{"success":true,"remaining_lookups":9304,"0":{"id":"7911058","label":"Emkhuzweni Mission","value":"7911058","lat":-25.766670000000001294893081649206578731536865234375,"lon":31.3666699999999991632648743689060211181640625,"poi_name":"Emkhuzweni Mission","parent_id":"935085","long":31.3666699999999991632648743689060211181640625},"1":{"id":"11127989","label":"Hhukwini","value":"11127989","lat":-26.319720000000000226236807066015899181365966796875,"lon":31.22222000000000008412825991399586200714111328125,"poi_name":"Hhukwini","parent_id":"935085","long":31.22222000000000008412825991399586200714111328125},"2":{"id":"11205013","label":"Madlangempisi","value":"11205013","lat":-26.0901199999999988676790962927043437957763671875,"lon":31.550129999999999341753209591843187808990478515625,"poi_name":"Madlangempisi","parent_id":"935085","long":31.550129999999999341753209591843187808990478515625},"3":{"id":"11257269","label":"Maphalaleni","value":"11257269","lat":-26.200990000000000890167939360253512859344482421875,"lon":31.367920000000001579110175953246653079986572265625,"poi_name":"Maphalaleni","parent_id":"935085","long":31.367920000000001579110175953246653079986572265625},"4":{"id":"7910859","label":"Mayiwane","value":"7910859","lat":-25.8644800000000003592504072003066539764404296875,"lon":31.518090000000000827640178613364696502685546875,"poi_name":"Mayiwane","parent_id":"935085","long":31.518090000000000827640178613364696502685546875},"5":{"id":"11127739","label":"Mhlangatane","value":"11127739","lat":-26.30499999999999971578290569595992565155029296875,"lon":31.11471999999999837882569408975541591644287109375,"poi_name":"Mhlangatane","parent_id":"935085","long":31.11471999999999837882569408975541591644287109375},"6":{"id":"7910683","label":"Motjane","value":"7910683","lat":-26.297640000000001236912794411182403564453125,"lon":31.022619999999999862438926356844604015350341796875,"poi_name":"Motjane","parent_id":"935085","long":31.022619999999999862438926356844604015350341796875},"7":{"id":"11127724","label":"Nkhaba","value":"11127724","lat":-26.1572800000000000864019966684281826019287109375,"lon":31.1639100000000013324097380973398685455322265625,"poi_name":"Nkhaba","parent_id":"935085","long":31.1639100000000013324097380973398685455322265625},"8":{"id":"11256900","label":"Ntfonjeni","value":"11256900","lat":-25.82627000000000094814822659827768802642822265625,"lon":31.321149999999999380406734417192637920379638671875,"poi_name":"Ntfonjeni","parent_id":"935085","long":31.321149999999999380406734417192637920379638671875}}