{"success":true,"remaining_lookups":9384,"0":{"id":"3659209","label":"Cant\u00f3n Chinchipe","value":"3659209","lat":-4.86667000000000005144329406903125345706939697265625,"lon":-79.1333300000000008367351256310939788818359375,"poi_name":"Cant\u00f3n Chinchipe","parent_id":"3649953","long":-79.1333300000000008367351256310939788818359375},"1":{"id":"3650141","label":"Cant\u00f3n Yacuambi","value":"3650141","lat":-3.666669999999999873807610129006206989288330078125,"lon":-78.9166699999999963210939313285052776336669921875,"poi_name":"Cant\u00f3n Yacuambi","parent_id":"3649953","long":-78.9166699999999963210939313285052776336669921875},"2":{"id":"3650052","label":"Cant\u00f3n Yantzaza","value":"3650052","lat":-3.850000000000000088817841970012523233890533447265625,"lon":-78.75,"poi_name":"Cant\u00f3n Yantzaza","parent_id":"3649953","long":-78.75},"3":{"id":"3649958","label":"Cant\u00f3n Zamora","value":"3649958","lat":-4.0666700000000002290789780090562999248504638671875,"lon":-78.9500000000000028421709430404007434844970703125,"poi_name":"Cant\u00f3n Zamora","parent_id":"3649953","long":-78.9500000000000028421709430404007434844970703125},"4":{"id":"10792492","label":"Centinela Del C\u00f3ndor","value":"10792492","lat":-3.91563000000000016598278307355940341949462890625,"lon":-78.7493099999999941474015940912067890167236328125,"poi_name":"Centinela Del C\u00f3ndor","parent_id":"3649953","long":-78.7493099999999941474015940912067890167236328125},"5":{"id":"10792491","label":"El Pangui","value":"10792491","lat":-3.693630000000000190851778825162909924983978271484375,"lon":-78.5443000000000068894223659299314022064208984375,"poi_name":"El Pangui","parent_id":"3649953","long":-78.5443000000000068894223659299314022064208984375},"6":{"id":"10792490","label":"Nangaritza","value":"10792490","lat":-4.3261599999999997834265741403214633464813232421875,"lon":-78.7563799999999929468685877509415149688720703125,"poi_name":"Nangaritza","parent_id":"3649953","long":-78.7563799999999929468685877509415149688720703125},"7":{"id":"10792493","label":"Palanda","value":"10792493","lat":-4.55736000000000007759126674500294029712677001953125,"lon":-79.0932700000000039608494262211024761199951171875,"poi_name":"Palanda","parent_id":"3649953","long":-79.0932700000000039608494262211024761199951171875},"8":{"id":"10792548","label":"Paquisha","value":"10792548","lat":-3.932990000000000208046913030557334423065185546875,"lon":-78.677220000000005484253051690757274627685546875,"poi_name":"Paquisha","parent_id":"3649953","long":-78.677220000000005484253051690757274627685546875}}