{"success":true,"remaining_lookups":9388,"0":{"id":"9155917","label":"Canton Pedro Vicente Maldonado","value":"9155917","lat":0.1666700000000000125854882071507745422422885894775390625,"lon":-79,"poi_name":"Canton Pedro Vicente Maldonado","parent_id":"3653224","long":-79},"1":{"id":"3659576","label":"Cant\u00f3n Cayambe","value":"3659576","lat":0.047460000000000002184918912462308071553707122802734375,"lon":-78.0440899999999970759745338000357151031494140625,"poi_name":"Cant\u00f3n Cayambe","parent_id":"3653224","long":-78.0440899999999970759745338000357151031494140625},"2":{"id":"3654259","label":"Cant\u00f3n Mej\u00eda","value":"3654259","lat":-0.3507700000000000262190269495476968586444854736328125,"lon":-78.7445100000000053341864258982241153717041015625,"poi_name":"Cant\u00f3n Mej\u00eda","parent_id":"3653224","long":-78.7445100000000053341864258982241153717041015625},"3":{"id":"3653294","label":"Cant\u00f3n Pedro Moncayo","value":"3653294","lat":0.02244000000000000161204383175572729669511318206787109375,"lon":-78.2731299999999947658579912967979907989501953125,"poi_name":"Cant\u00f3n Pedro Moncayo","parent_id":"3653224","long":-78.2731299999999947658579912967979907989501953125},"4":{"id":"3652461","label":"Cant\u00f3n Quito","value":"3652461","lat":-0.2166700000000000014832579608992091380059719085693359375,"lon":-78.5,"poi_name":"Cant\u00f3n Quito","parent_id":"3653224","long":-78.5},"5":{"id":"3652228","label":"Cant\u00f3n Rumi\u00f1ahui","value":"3652228","lat":-0.431900000000000006128431095930864103138446807861328125,"lon":-78.4355800000000016325429896824061870574951171875,"poi_name":"Cant\u00f3n Rumi\u00f1ahui","parent_id":"3653224","long":-78.4355800000000016325429896824061870574951171875},"6":{"id":"10792486","label":"Puerto Quito","value":"10792486","lat":0.1723300000000000109512399149025441147387027740478515625,"lon":-79.2362399999999951205609249882400035858154296875,"poi_name":"Puerto Quito","parent_id":"3653224","long":-79.2362399999999951205609249882400035858154296875},"7":{"id":"10792485","label":"San Miguel De Los Bancos","value":"10792485","lat":-0.0358300000000000007371880883511039428412914276123046875,"lon":-78.9886800000000022237145458348095417022705078125,"poi_name":"San Miguel De Los Bancos","parent_id":"3653224","long":-78.9886800000000022237145458348095417022705078125}}