{"success":true,"remaining_lookups":9380,"0":{"id":"3660797","label":"Cant\u00f3n Alaus\u00ed","value":"3660797","lat":-2.20000000000000017763568394002504646778106689453125,"lon":-78.849999999999994315658113919198513031005859375,"poi_name":"Cant\u00f3n Alaus\u00ed","parent_id":"3659237","long":-78.849999999999994315658113919198513031005859375},"1":{"id":"3659071","label":"Cant\u00f3n Chunchi","value":"3659071","lat":-2.283329999999999859738863960956223309040069580078125,"lon":-78.9166699999999963210939313285052776336669921875,"poi_name":"Cant\u00f3n Chunchi","parent_id":"3659237","long":-78.9166699999999963210939313285052776336669921875},"2":{"id":"3658919","label":"Cant\u00f3n Colta","value":"3658919","lat":-1.6999999999999999555910790149937383830547332763671875,"lon":-78.75,"poi_name":"Cant\u00f3n Colta","parent_id":"3659237","long":-78.75},"3":{"id":"3657620","label":"Cant\u00f3n Guamote","value":"3657620","lat":-1.9333299999999999929656269159750081598758697509765625,"lon":-78.716669999999993478922988288104534149169921875,"poi_name":"Cant\u00f3n Guamote","parent_id":"3659237","long":-78.716669999999993478922988288104534149169921875},"4":{"id":"3657593","label":"Cant\u00f3n Guano","value":"3657593","lat":-1.600000000000000088817841970012523233890533447265625,"lon":-78.6333300000000008367351256310939788818359375,"poi_name":"Cant\u00f3n Guano","parent_id":"3659237","long":-78.6333300000000008367351256310939788818359375},"5":{"id":"3652349","label":"Cant\u00f3n Riobamba","value":"3652349","lat":-1.6666700000000000958522150540375150740146636962890625,"lon":-78.6333300000000008367351256310939788818359375,"poi_name":"Cant\u00f3n Riobamba","parent_id":"3659237","long":-78.6333300000000008367351256310939788818359375},"6":{"id":"10792509","label":"Chambo","value":"10792509","lat":-1.751489999999999991331378623726777732372283935546875,"lon":-78.5452800000000053159965318627655506134033203125,"poi_name":"Chambo","parent_id":"3659237","long":-78.5452800000000053159965318627655506134033203125},"7":{"id":"9155063","label":"Cumanda","value":"9155063","lat":-2.207879999999999842685838302713818848133087158203125,"lon":-79.1350400000000036015990190207958221435546875,"poi_name":"Cumanda","parent_id":"3659237","long":-79.1350400000000036015990190207958221435546875},"8":{"id":"10792443","label":"Pallatanga","value":"10792443","lat":-2.013920000000000154471990754245780408382415771484375,"lon":-78.9269699999999971851138980127871036529541015625,"poi_name":"Pallatanga","parent_id":"3659237","long":-78.9269699999999971851138980127871036529541015625},"9":{"id":"10792444","label":"Penipe","value":"10792444","lat":-1.562279999999999891002744334400631487369537353515625,"lon":-78.4481200000000029604052542708814144134521484375,"poi_name":"Penipe","parent_id":"3659237","long":-78.4481200000000029604052542708814144134521484375}}