{"success":true,"remaining_lookups":7119,"0":{"id":"6940822","label":"Al  Hawtah","value":"6940822","lat":13.062400000000000233058017329312860965728759765625,"lon":44.88159999999999882902557146735489368438720703125,"poi_name":"Al  Hawtah","parent_id":"6201197","long":44.88159999999999882902557146735489368438720703125},"1":{"id":"6940831","label":"Al Had","value":"6940831","lat":13.978300000000000835598257253877818584442138671875,"lon":45.25529999999999830606611794792115688323974609375,"poi_name":"Al Had","parent_id":"6201197","long":45.25529999999999830606611794792115688323974609375},"2":{"id":"6940833","label":"Al Madaribah Wa Al Arah","value":"6940833","lat":12.856899999999999550936990999616682529449462890625,"lon":43.990600000000000591171556152403354644775390625,"poi_name":"Al Madaribah Wa Al Arah","parent_id":"6201197","long":43.990600000000000591171556152403354644775390625},"3":{"id":"6940828","label":"Al Maflahy","value":"6940828","lat":13.7766999999999999459987520822323858737945556640625,"lon":45.108800000000002228262019343674182891845703125,"poi_name":"Al Maflahy","parent_id":"6201197","long":45.108800000000002228262019343674182891845703125},"4":{"id":"6940832","label":"Al Maqatirah","value":"6940832","lat":13.13719999999999998863131622783839702606201171875,"lon":44.140399999999999636202119290828704833984375,"poi_name":"Al Maqatirah","parent_id":"6201197","long":44.140399999999999636202119290828704833984375},"5":{"id":"6940826","label":"Al Milah","value":"6940826","lat":13.3201999999999998181010596454143524169921875,"lon":44.9266999999999967485564411617815494537353515625,"poi_name":"Al Milah","parent_id":"6201197","long":44.9266999999999967485564411617815494537353515625},"6":{"id":"6940830","label":"Al Musaymir","value":"6940830","lat":13.4291000000000000369482222595252096652984619140625,"lon":44.59140000000000014779288903810083866119384765625,"poi_name":"Al Musaymir","parent_id":"6201197","long":44.59140000000000014779288903810083866119384765625},"7":{"id":"6940624","label":"Al Qabbaytah","value":"6940624","lat":13.3275000000000005684341886080801486968994140625,"lon":44.50249999999999772626324556767940521240234375,"poi_name":"Al Qabbaytah","parent_id":"6201197","long":44.50249999999999772626324556767940521240234375},"8":{"id":"6940823","label":"Habil Jabr","value":"6940823","lat":13.5921000000000002927436071331612765789031982421875,"lon":45.073700000000002319211489520967006683349609375,"poi_name":"Habil Jabr","parent_id":"6201197","long":45.073700000000002319211489520967006683349609375},"9":{"id":"6940825","label":"Halimayn","value":"6940825","lat":13.708800000000000096633812063373625278472900390625,"lon":44.9442999999999983629095368087291717529296875,"poi_name":"Halimayn","parent_id":"6201197","long":44.9442999999999983629095368087291717529296875},"10":{"id":"6940827","label":"Radfan","value":"6940827","lat":13.466699999999999448618837050162255764007568359375,"lon":44.99000000000000198951966012828052043914794921875,"poi_name":"Radfan","parent_id":"6201197","long":44.99000000000000198951966012828052043914794921875},"11":{"id":"6940623","label":"Tuban","value":"6940623","lat":13.0921000000000002927436071331612765789031982421875,"lon":44.87839999999999918145476840436458587646484375,"poi_name":"Tuban","parent_id":"6201197","long":44.87839999999999918145476840436458587646484375},"12":{"id":"6940821","label":"Tur Al Bahah","value":"6940821","lat":13.04269000000000033878677641041576862335205078125,"lon":44.41154000000000223735696636140346527099609375,"poi_name":"Tur Al Bahah","parent_id":"6201197","long":44.41154000000000223735696636140346527099609375},"13":{"id":"6940829","label":"Yafa'a","value":"6940829","lat":13.8620000000000000994759830064140260219573974609375,"lon":45.20139999999999957935870043002068996429443359375,"poi_name":"Yafa'a","parent_id":"6201197","long":45.20139999999999957935870043002068996429443359375},"14":{"id":"6940824","label":"Yahr","value":"6940824","lat":13.722699999999999675992512493394315242767333984375,"lon":45.1304999999999978399500832892954349517822265625,"poi_name":"Yahr","parent_id":"6201197","long":45.1304999999999978399500832892954349517822265625}}