{"success":true,"remaining_lookups":7122,"0":{"id":"6940639","label":"Al Dhihar","value":"6940639","lat":13.9789999999999992041921359486877918243408203125,"lon":44.15259999999999962483343551866710186004638671875,"poi_name":"Al Dhihar","parent_id":"6201196","long":44.15259999999999962483343551866710186004638671875},"1":{"id":"73172","label":"Al Makh\u0101dir","value":"73172","lat":14.139649999999999607780409860424697399139404296875,"lon":44.2032999999999987039700499735772609710693359375,"poi_name":"Al Makh\u0101dir","parent_id":"6201196","long":44.2032999999999987039700499735772609710693359375},"2":{"id":"6940641","label":"Al Mashannah","value":"6940641","lat":13.957300000000000039790393202565610408782958984375,"lon":44.1700000000000017053025658242404460906982421875,"poi_name":"Al Mashannah","parent_id":"6201196","long":44.1700000000000017053025658242404460906982421875},"3":{"id":"6940593","label":"Al Qafr","value":"6940593","lat":14.3129000000000008441247700829990208148956298828125,"lon":44.030000000000001136868377216160297393798828125,"poi_name":"Al Qafr","parent_id":"6201196","long":44.030000000000001136868377216160297393798828125},"4":{"id":"69921","label":"Al \u2018Udayn","value":"69921","lat":13.9611199999999993082155924639664590358734130859375,"lon":43.96607999999999805140760145150125026702880859375,"poi_name":"Al \u2018Udayn","parent_id":"6201196","long":43.96607999999999805140760145150125026702880859375},"5":{"id":"72370","label":"An N\u0101dirah","value":"72370","lat":14.0739800000000006008349373587407171726226806640625,"lon":44.4992500000000035242919693700969219207763671875,"poi_name":"An N\u0101dirah","parent_id":"6201196","long":44.4992500000000035242919693700969219207763671875},"6":{"id":"6940629","label":"Ar Radmah","value":"6940629","lat":14.211999999999999744204615126363933086395263671875,"lon":44.564199999999999590727384202182292938232421875,"poi_name":"Ar Radmah","parent_id":"6201196","long":44.564199999999999590727384202182292938232421875},"7":{"id":"6940642","label":"As Sabrah","value":"6940642","lat":13.84270000000000067075234255753457546234130859375,"lon":44.3385999999999995679900166578590869903564453125,"poi_name":"As Sabrah","parent_id":"6201196","long":44.3385999999999995679900166578590869903564453125},"8":{"id":"6940630","label":"As Saddah","value":"6940630","lat":14.166100000000000136424205265939235687255859375,"lon":44.375100000000003319655661471188068389892578125,"poi_name":"As Saddah","parent_id":"6201196","long":44.375100000000003319655661471188068389892578125},"9":{"id":"6940640","label":"As Sayyani","value":"6940640","lat":13.8224000000000000198951966012828052043914794921875,"lon":44.2117999999999966576069709844887256622314453125,"poi_name":"As Sayyani","parent_id":"6201196","long":44.2117999999999966576069709844887256622314453125},"10":{"id":"6940628","label":"Ash Sha'ir","value":"6940628","lat":14.031800000000000494537744089029729366302490234375,"lon":44.36189999999999855617716093547642230987548828125,"poi_name":"Ash Sha'ir","parent_id":"6201196","long":44.36189999999999855617716093547642230987548828125},"11":{"id":"6940645","label":"Ba'dan","value":"6940645","lat":13.9886999999999996902033672085963189601898193359375,"lon":44.32359999999999899955582804977893829345703125,"poi_name":"Ba'dan","parent_id":"6201196","long":44.32359999999999899955582804977893829345703125},"12":{"id":"76153","label":"Dh\u012b as Suf\u0101l","value":"76153","lat":13.8213699999999999334931999328546226024627685546875,"lon":44.07775000000000176214598468504846096038818359375,"poi_name":"Dh\u012b as Suf\u0101l","parent_id":"6201196","long":44.07775000000000176214598468504846096038818359375},"13":{"id":"6940632","label":"Far Al Udayn","value":"6940632","lat":13.9578000000000006508571459562517702579498291015625,"lon":43.78269999999999839701558812521398067474365234375,"poi_name":"Far Al Udayn","parent_id":"6201196","long":43.78269999999999839701558812521398067474365234375},"14":{"id":"6940592","label":"Hazm Al Udayn","value":"6940592","lat":14.16984000000000065710992203094065189361572265625,"lon":43.93813999999999708734321757219731807708740234375,"poi_name":"Hazm Al Udayn","parent_id":"6201196","long":43.93813999999999708734321757219731807708740234375},"15":{"id":"6940643","label":"Hubaysh","value":"6940643","lat":14.1159999999999996589394868351519107818603515625,"lon":44.08239999999999980673237587325274944305419921875,"poi_name":"Hubaysh","parent_id":"6201196","long":44.08239999999999980673237587325274944305419921875},"16":{"id":"74475","label":"Ibb","value":"74475","lat":14.0335599999999995901589500135742127895355224609375,"lon":44.15507999999999810825102031230926513671875,"poi_name":"Ibb","parent_id":"6201196","long":44.15507999999999810825102031230926513671875},"17":{"id":"6940644","label":"Jiblah","value":"6940644","lat":13.9147999999999996134647517465054988861083984375,"lon":44.12129999999999796500560478307306766510009765625,"poi_name":"Jiblah","parent_id":"6201196","long":44.12129999999999796500560478307306766510009765625},"18":{"id":"6940631","label":"Mudhaykhirah","value":"6940631","lat":13.866080000000000183035808731801807880401611328125,"lon":43.96865999999999985448084771633148193359375,"poi_name":"Mudhaykhirah","parent_id":"6201196","long":43.96865999999999985448084771633148193359375},"19":{"id":"69558","label":"Yar\u012bm","value":"69558","lat":14.2538800000000005496758603840135037899017333984375,"lon":44.31175999999999959300112095661461353302001953125,"poi_name":"Yar\u012bm","parent_id":"6201196","long":44.31175999999999959300112095661461353302001953125}}