{"success":true,"remaining_lookups":7107,"0":{"id":"6940811","label":"Al Haymah Ad Dakhiliyah","value":"6940811","lat":15.2721999999999997754684954998083412647247314453125,"lon":43.83930000000000148929757415316998958587646484375,"poi_name":"Al Haymah Ad Dakhiliyah","parent_id":"71132","long":43.83930000000000148929757415316998958587646484375},"1":{"id":"6940805","label":"Al Haymah Al Kharijiyah","value":"6940805","lat":15.0266999999999999459987520822323858737945556640625,"lon":43.85000000000000142108547152020037174224853515625,"poi_name":"Al Haymah Al Kharijiyah","parent_id":"71132","long":43.85000000000000142108547152020037174224853515625},"2":{"id":"6940803","label":"Al Husn","value":"6940803","lat":15.0205999999999999516830939683131873607635498046875,"lon":44.50439999999999685087459511123597621917724609375,"poi_name":"Al Husn","parent_id":"71132","long":44.50439999999999685087459511123597621917724609375},"3":{"id":"6940622","label":"Arhab","value":"6940622","lat":15.7995000000000000994759830064140260219573974609375,"lon":44.24660000000000081854523159563541412353515625,"poi_name":"Arhab","parent_id":"71132","long":44.24660000000000081854523159563541412353515625},"4":{"id":"6940802","label":"Attyal","value":"6940802","lat":15.32930999999999954752638586796820163726806640625,"lon":44.57739000000000118006937555037438869476318359375,"poi_name":"Attyal","parent_id":"71132","long":44.57739000000000118006937555037438869476318359375},"5":{"id":"6940808","label":"Bani Dhabyan","value":"6940808","lat":15.0480999999999998095745468162931501865386962890625,"lon":44.87180000000000035242919693700969219207763671875,"poi_name":"Bani Dhabyan","parent_id":"71132","long":44.87180000000000035242919693700969219207763671875},"6":{"id":"6940810","label":"Bani Hushaysh","value":"6940810","lat":15.4504999999999999005240169935859739780426025390625,"lon":44.37819999999999964757080306299030780792236328125,"poi_name":"Bani Hushaysh","parent_id":"71132","long":44.37819999999999964757080306299030780792236328125},"7":{"id":"6940801","label":"Bani Matar","value":"6940801","lat":15.214999999999999857891452847979962825775146484375,"lon":44.04979999999999762394509161822497844696044921875,"poi_name":"Bani Matar","parent_id":"71132","long":44.04979999999999762394509161822497844696044921875},"8":{"id":"6940804","label":"Bilad Ar Rus","value":"6940804","lat":15.03509999999999990905052982270717620849609375,"lon":44.25139999999999673718775738961994647979736328125,"poi_name":"Bilad Ar Rus","parent_id":"71132","long":44.25139999999999673718775738961994647979736328125},"9":{"id":"75257","label":"Hamd\u0101n","value":"75257","lat":15.5066199999999998482280716416426002979278564453125,"lon":44.0602999999999980218490236438810825347900390625,"poi_name":"Hamd\u0101n","parent_id":"71132","long":44.0602999999999980218490236438810825347900390625},"10":{"id":"6940807","label":"Jihanah","value":"6940807","lat":15.191900000000000403588273911736905574798583984375,"lon":44.51950000000000073896444519050419330596923828125,"poi_name":"Jihanah","parent_id":"71132","long":44.51950000000000073896444519050419330596923828125},"11":{"id":"6940809","label":"Khwlan","value":"6940809","lat":15.2749000000000005883293852093629539012908935546875,"lon":44.76859999999999928377292235381901264190673828125,"poi_name":"Khwlan","parent_id":"71132","long":44.76859999999999928377292235381901264190673828125},"12":{"id":"6940806","label":"Manakhah","value":"6940806","lat":15.07169999999999987494447850622236728668212890625,"lon":43.6861999999999994770405464805662631988525390625,"poi_name":"Manakhah","parent_id":"71132","long":43.6861999999999994770405464805662631988525390625},"13":{"id":"6940800","label":"Nihm","value":"6940800","lat":15.751599999999999823785401531495153903961181640625,"lon":44.57459999999999666897565475665032863616943359375,"poi_name":"Nihm","parent_id":"71132","long":44.57459999999999666897565475665032863616943359375},"14":{"id":"6940812","label":"Sa'fan","value":"6940812","lat":15.0711999999999992638777257525362074375152587890625,"lon":43.5827000000000026602720026858150959014892578125,"poi_name":"Sa'fan","parent_id":"71132","long":43.5827000000000026602720026858150959014892578125},"15":{"id":"71131","label":"Sanhan","value":"71131","lat":15.2251999999999991786125974613241851329803466796875,"lon":44.3057000000000016370904631912708282470703125,"poi_name":"Sanhan","parent_id":"71132","long":44.3057000000000016370904631912708282470703125}}