{"success":true,"remaining_lookups":7118,"0":{"id":"6940840","label":"Al Abdiyah","value":"6940840","lat":14.7170000000000005258016244624741375446319580078125,"lon":45.3933999999999997498889570124447345733642578125,"poi_name":"Al Abdiyah","parent_id":"72966","long":45.3933999999999997498889570124447345733642578125},"1":{"id":"6940844","label":"Al Jubah","value":"6940844","lat":15.124900000000000233058017329312860965728759765625,"lon":45.286799999999999499777914024889469146728515625,"poi_name":"Al Jubah","parent_id":"72966","long":45.286799999999999499777914024889469146728515625},"2":{"id":"6940834","label":"Bidbadah","value":"6940834","lat":15.3980999999999994543031789362430572509765625,"lon":44.74730000000000273985278909094631671905517578125,"poi_name":"Bidbadah","parent_id":"72966","long":44.74730000000000273985278909094631671905517578125},"3":{"id":"6940625","label":"Harib Al Qaramish","value":"6940625","lat":15.4734999999999995878852132591418921947479248046875,"lon":44.61529999999999773763192933984100818634033203125,"poi_name":"Harib Al Qaramish","parent_id":"72966","long":44.61529999999999773763192933984100818634033203125},"4":{"id":"6940842","label":"Jabal Murad","value":"6940842","lat":15.047399999999999664623828721232712268829345703125,"lon":45.1886999999999972033037920482456684112548828125,"poi_name":"Jabal Murad","parent_id":"72966","long":45.1886999999999972033037920482456684112548828125},"5":{"id":"6940841","label":"Mahliyah","value":"6940841","lat":14.6821000000000001506350599811412394046783447265625,"lon":45.18319999999999936335370875895023345947265625,"poi_name":"Mahliyah","parent_id":"72966","long":45.18319999999999936335370875895023345947265625},"6":{"id":"6940836","label":"Majzar","value":"6940836","lat":15.82770000000000010231815394945442676544189453125,"lon":44.7941000000000002501110429875552654266357421875,"poi_name":"Majzar","parent_id":"72966","long":44.7941000000000002501110429875552654266357421875},"7":{"id":"6940835","label":"Marib","value":"6940835","lat":15.6212999999999997413624441833235323429107666015625,"lon":46.01109999999999899955582804977893829345703125,"poi_name":"Marib","parent_id":"72966","long":46.01109999999999899955582804977893829345703125},"8":{"id":"72965","label":"Marib City","value":"72965","lat":15.4155999999999995253574525122530758380889892578125,"lon":45.30340000000000344471118296496570110321044921875,"poi_name":"Marib City","parent_id":"72966","long":45.30340000000000344471118296496570110321044921875},"9":{"id":"6940837","label":"Medghal","value":"6940837","lat":15.638400000000000744648787076584994792938232421875,"lon":45.0037999999999982492226990871131420135498046875,"poi_name":"Medghal","parent_id":"72966","long":45.0037999999999982492226990871131420135498046875},"10":{"id":"6940838","label":"Raghwan","value":"6940838","lat":15.7902000000000004575895218295045197010040283203125,"lon":45.069400000000001682565198279917240142822265625,"poi_name":"Raghwan","parent_id":"72966","long":45.069400000000001682565198279917240142822265625},"11":{"id":"6940843","label":"Rahabah","value":"6940843","lat":14.95100000000000051159076974727213382720947265625,"lon":45.08850000000000335376171278767287731170654296875,"poi_name":"Rahabah","parent_id":"72966","long":45.08850000000000335376171278767287731170654296875},"12":{"id":"6940839","label":"Sirwah","value":"6940839","lat":15.4368999999999996219912645756267011165618896484375,"lon":45.0114999999999980673237587325274944305419921875,"poi_name":"Sirwah","parent_id":"72966","long":45.0114999999999980673237587325274944305419921875},"13":{"id":"75132","label":"\u1e28ar\u012bb","value":"75132","lat":14.93045000000000044337866711430251598358154296875,"lon":45.3682000000000016370904631912708282470703125,"poi_name":"\u1e28ar\u012bb","parent_id":"72966","long":45.3682000000000016370904631912708282470703125}}