{"success":true,"remaining_lookups":7126,"0":{"id":"6940680","label":"Al A'rsh","value":"6940680","lat":14.365600000000000591171556152403354644775390625,"lon":44.7777999999999991587174008600413799285888671875,"poi_name":"Al A'rsh","parent_id":"79838","long":44.7777999999999991587174008600413799285888671875},"1":{"id":"6940677","label":"Al Bayda City","value":"6940677","lat":13.984899999999999664623828721232712268829345703125,"lon":45.5566000000000030922819860279560089111328125,"poi_name":"Al Bayda City","parent_id":"79838","long":45.5566000000000030922819860279560089111328125},"2":{"id":"77026","label":"Al Bay\u1e11\u0101\u2019","value":"77026","lat":13.936659999999999826059138285927474498748779296875,"lon":45.5482200000000005957190296612679958343505859375,"poi_name":"Al Bay\u1e11\u0101\u2019","parent_id":"79838","long":45.5482200000000005957190296612679958343505859375},"3":{"id":"6940678","label":"Al Malagim","value":"6940678","lat":14.3653999999999992809307514107786118984222412109375,"lon":45.38510000000000133013600134290754795074462890625,"poi_name":"Al Malagim","parent_id":"79838","long":45.38510000000000133013600134290754795074462890625},"4":{"id":"6940668","label":"Al Quraishyah","value":"6940668","lat":14.605000000000000426325641456060111522674560546875,"lon":44.889600000000001500666257925331592559814453125,"poi_name":"Al Quraishyah","parent_id":"79838","long":44.889600000000001500666257925331592559814453125},"5":{"id":"6940669","label":"Ar Ryashyyah","value":"6940669","lat":14.242399999999999948840923025272786617279052734375,"lon":44.77539999999999764668245916254818439483642578125,"poi_name":"Ar Ryashyyah","parent_id":"79838","long":44.77539999999999764668245916254818439483642578125},"6":{"id":"6940673","label":"As Sawadiyah","value":"6940673","lat":14.4519800000000007145217750803567469120025634765625,"lon":45.36972999999999700548869441263377666473388671875,"poi_name":"As Sawadiyah","parent_id":"79838","long":45.36972999999999700548869441263377666473388671875},"7":{"id":"6940681","label":"As Sawma'ah","value":"6940681","lat":14.1667000000000005144329406903125345706939697265625,"lon":45.83109999999999928377292235381901264190673828125,"poi_name":"As Sawma'ah","parent_id":"79838","long":45.83109999999999928377292235381901264190673828125},"8":{"id":"70825","label":"Ash Sharafayn","value":"70825","lat":14.30696999999999974306774674914777278900146484375,"lon":45.126339999999999008650775067508220672607421875,"poi_name":"Ash Sharafayn","parent_id":"79838","long":45.126339999999999008650775067508220672607421875},"9":{"id":"6940674","label":"At Taffah","value":"6940674","lat":14.198299999999999698729880037717521190643310546875,"lon":45.35810000000000030695446184836328029632568359375,"poi_name":"At Taffah","parent_id":"79838","long":45.35810000000000030695446184836328029632568359375},"10":{"id":"6940682","label":"Az Zahir","value":"6940682","lat":13.9917999999999995708321876008994877338409423828125,"lon":45.42179999999999751025825389660894870758056640625,"poi_name":"Az Zahir","parent_id":"79838","long":45.42179999999999751025825389660894870758056640625},"11":{"id":"6940676","label":"Dhi Na'im","value":"6940676","lat":14.11110000000000042064129956997931003570556640625,"lon":45.46419999999999816964191268198192119598388671875,"poi_name":"Dhi Na'im","parent_id":"79838","long":45.46419999999999816964191268198192119598388671875},"12":{"id":"6940679","label":"Maswarah","value":"6940679","lat":14.402699999999999391775418189354240894317626953125,"lon":45.7032999999999987039700499735772609710693359375,"poi_name":"Maswarah","parent_id":"79838","long":45.7032999999999987039700499735772609710693359375},"13":{"id":"6940671","label":"Mukayras","value":"6940671","lat":14.032000000000000028421709430404007434844970703125,"lon":45.79639999999999844249032321386039257049560546875,"poi_name":"Mukayras","parent_id":"79838","long":45.79639999999999844249032321386039257049560546875},"14":{"id":"6940670","label":"Na'man","value":"6940670","lat":14.5938999999999996504129740060307085514068603515625,"lon":45.5285999999999972942532622255384922027587890625,"poi_name":"Na'man","parent_id":"79838","long":45.5285999999999972942532622255384922027587890625},"15":{"id":"6940672","label":"Nati'","value":"6940672","lat":14.5539000000000005030642569181509315967559814453125,"lon":45.58500000000000085265128291212022304534912109375,"poi_name":"Nati'","parent_id":"79838","long":45.58500000000000085265128291212022304534912109375},"16":{"id":"6940675","label":"Radman Al Awad","value":"6940675","lat":14.483599999999999141664375201798975467681884765625,"lon":45.2743999999999999772626324556767940521240234375,"poi_name":"Radman Al Awad","parent_id":"79838","long":45.2743999999999999772626324556767940521240234375},"17":{"id":"71489","label":"Rad\u0101\u2018","value":"71489","lat":14.339999999999999857891452847979962825775146484375,"lon":44.90874000000000165755409398116171360015869140625,"poi_name":"Rad\u0101\u2018","parent_id":"79838","long":44.90874000000000165755409398116171360015869140625},"18":{"id":"6940666","label":"Sabah","value":"6940666","lat":14.27590000000000003410605131648480892181396484375,"lon":44.6700000000000017053025658242404460906982421875,"poi_name":"Sabah","parent_id":"79838","long":44.6700000000000017053025658242404460906982421875},"19":{"id":"6940667","label":"Wald Rabi'","value":"6940667","lat":14.5557400000000001227817847393453121185302734375,"lon":44.90596000000000032059688237495720386505126953125,"poi_name":"Wald Rabi'","parent_id":"79838","long":44.90596000000000032059688237495720386505126953125}}