{"success":true,"remaining_lookups":9985,"0":{"id":"7053818","label":"A\u012bbak","value":"7053818","lat":36.206670000000002573870006017386913299560546875,"lon":67.9866099999999988767740433104336261749267578125,"poi_name":"A\u012bbak","parent_id":"1127766","long":67.9866099999999988767740433104336261749267578125},"1":{"id":"7053819","label":"Darah-ye \u015e\u016bf-e B\u0101l\u0101","value":"7053819","lat":35.6807000000000016370904631912708282470703125,"lon":67.2824600000000003774403012357652187347412109375,"poi_name":"Darah-ye \u015e\u016bf-e B\u0101l\u0101","parent_id":"1127766","long":67.2824600000000003774403012357652187347412109375},"2":{"id":"7053820","label":"Darah-ye \u015e\u016bf-e P\u0101\u2019\u012bn","value":"7053820","lat":36.02503999999999706460585002787411212921142578125,"lon":67.347160000000002355591277591884136199951171875,"poi_name":"Darah-ye \u015e\u016bf-e P\u0101\u2019\u012bn","parent_id":"1127766","long":67.347160000000002355591277591884136199951171875},"3":{"id":"7053821","label":"Fayr\u014dz Nakhch\u012br","value":"7053821","lat":36.45636999999999972033037920482456684112548828125,"lon":67.5773300000000034515323932282626628875732421875,"poi_name":"Fayr\u014dz Nakhch\u012br","parent_id":"1127766","long":67.5773300000000034515323932282626628875732421875},"4":{"id":"7053823","label":"Khuram wa S\u0101r B\u0101gh","value":"7053823","lat":35.98651000000000266254573944024741649627685546875,"lon":68.12169000000000096406438387930393218994140625,"poi_name":"Khuram wa S\u0101r B\u0101gh","parent_id":"1127766","long":68.12169000000000096406438387930393218994140625},"5":{"id":"7053824","label":"R\u016by D\u016b\u0101b","value":"7053824","lat":35.63548999999999722376742283813655376434326171875,"lon":67.817260000000004538378561846911907196044921875,"poi_name":"R\u016by D\u016b\u0101b","parent_id":"1127766","long":67.817260000000004538378561846911907196044921875},"6":{"id":"7053822","label":"\u1e28a\u1e95rat-e Sul\u0163\u0101n","value":"7053822","lat":36.38295000000000101181285572238266468048095703125,"lon":67.8651100000000013778844731859862804412841796875,"poi_name":"\u1e28a\u1e95rat-e Sul\u0163\u0101n","parent_id":"1127766","long":67.8651100000000013778844731859862804412841796875}}