{"success":true,"remaining_lookups":9968,"0":{"id":"7053975","label":"A\u1e29mad\u0101b\u0101d","value":"7053975","lat":33.77378999999999820147422724403440952301025390625,"lon":69.33980999999999994543031789362430572509765625,"poi_name":"A\u1e29mad\u0101b\u0101d","parent_id":"1131257","long":69.33980999999999994543031789362430572509765625},"1":{"id":"7053984","label":"Dzadr\u0101n","value":"7053984","lat":33.37360000000000326281224261038005352020263671875,"lon":69.406980000000004338289727456867694854736328125,"poi_name":"Dzadr\u0101n","parent_id":"1131257","long":69.406980000000004338289727456867694854736328125},"2":{"id":"7053978","label":"Gardez","value":"7053978","lat":33.60134000000000042973624658770859241485595703125,"lon":69.241590000000002191882231272757053375244140625,"poi_name":"Gardez","parent_id":"1131257","long":69.241590000000002191882231272757053375244140625},"3":{"id":"7053979","label":"J\u0101j\u012b","value":"7053979","lat":33.9776499999999970214048516936600208282470703125,"lon":69.6727599999999966939867590554058551788330078125,"poi_name":"J\u0101j\u012b","parent_id":"1131257","long":69.6727599999999966939867590554058551788330078125},"4":{"id":"7053980","label":"J\u0101n\u012b Kh\u0113l","value":"7053980","lat":33.655360000000001718944986350834369659423828125,"lon":69.7865800000000007230482879094779491424560546875,"poi_name":"J\u0101n\u012b Kh\u0113l","parent_id":"1131257","long":69.7865800000000007230482879094779491424560546875},"5":{"id":"7053981","label":"Lajah A\u1e29mad Kh\u0113l","value":"7053981","lat":33.8152400000000028512658900581300258636474609375,"lon":69.6338099999999968758856994099915027618408203125,"poi_name":"Lajah A\u1e29mad Kh\u0113l","parent_id":"1131257","long":69.6338099999999968758856994099915027618408203125},"6":{"id":"7053982","label":"Sayyid Karam","value":"7053982","lat":33.71244999999999691908669774420559406280517578125,"lon":69.4797300000000035424818634055554866790771484375,"poi_name":"Sayyid Karam","parent_id":"1131257","long":69.4797300000000035424818634055554866790771484375},"7":{"id":"7053983","label":"Shw\u0101k","value":"7053983","lat":33.452100000000001500666257925331592559814453125,"lon":69.3703000000000002955857780762016773223876953125,"poi_name":"Shw\u0101k","parent_id":"1131257","long":69.3703000000000002955857780762016773223876953125},"8":{"id":"7053976","label":"Tsamkan\u012b","value":"7053976","lat":33.78992000000000217596607399173080921173095703125,"lon":69.81270000000000663931132294237613677978515625,"poi_name":"Tsamkan\u012b","parent_id":"1131257","long":69.81270000000000663931132294237613677978515625},"9":{"id":"7054005","label":"Zurmat","value":"7054005","lat":33.4240199999999987312548910267651081085205078125,"lon":69.0417599999999964666130836121737957000732421875,"poi_name":"Zurmat","parent_id":"1131257","long":69.0417599999999964666130836121737957000732421875},"10":{"id":"7053977","label":"\u1e0ean\u1e0f Pa\u1e6f\u0101n","value":"7053977","lat":33.791730000000001155058271251618862152099609375,"lon":69.910830000000004247340257279574871063232421875,"poi_name":"\u1e0ean\u1e0f Pa\u1e6f\u0101n","parent_id":"1131257","long":69.910830000000004247340257279574871063232421875}}