{"success":true,"remaining_lookups":9983,"0":{"id":"7054031","label":"Ch\u014drah","value":"7054031","lat":32.93005000000000137561073643155395984649658203125,"lon":66.262709999999998444764059968292713165283203125,"poi_name":"Ch\u014drah","parent_id":"1131461","long":66.262709999999998444764059968292713165283203125},"1":{"id":"7054032","label":"Deh R\u0101wud","value":"7054032","lat":32.58359999999999701003616792149841785430908203125,"lon":65.4655900000000059435478760860860347747802734375,"poi_name":"Deh R\u0101wud","parent_id":"1131461","long":65.4655900000000059435478760860860347747802734375},"2":{"id":"7054033","label":"Kh\u0101\u015f Uruzg\u0101n","value":"7054033","lat":32.9967400000000026238922146148979663848876953125,"lon":66.693590000000000372892827726900577545166015625,"poi_name":"Kh\u0101\u015f Uruzg\u0101n","parent_id":"1131461","long":66.693590000000000372892827726900577545166015625},"3":{"id":"7054034","label":"Shah\u012bd-e \u1e28as\u0101s","value":"7054034","lat":32.92296999999999940200723358429968357086181640625,"lon":65.4783000000000043883119360543787479400634765625,"poi_name":"Shah\u012bd-e \u1e28as\u0101s","parent_id":"1131461","long":65.4783000000000043883119360543787479400634765625},"4":{"id":"7054035","label":"Tar\u012bn K\u014d\u1e6f","value":"7054035","lat":32.6821699999999992769517120905220508575439453125,"lon":65.9169600000000031059244065545499324798583984375,"poi_name":"Tar\u012bn K\u014d\u1e6f","parent_id":"1131461","long":65.9169600000000031059244065545499324798583984375}}