{"success":true,"remaining_lookups":9988,"0":{"id":"7053262","label":"Ach\u012bn","value":"7053262","lat":34.05691999999999808323991601355373859405517578125,"lon":70.661259999999998626663000322878360748291015625,"poi_name":"Ach\u012bn","parent_id":"1132366","long":70.661259999999998626663000322878360748291015625},"1":{"id":"7053263","label":"Bat\u012b K\u014d\u1e6f","value":"7053263","lat":34.289389999999997371560311876237392425537109375,"lon":70.7565299999999979263520799577236175537109375,"poi_name":"Bat\u012b K\u014d\u1e6f","parent_id":"1132366","long":70.7565299999999979263520799577236175537109375},"2":{"id":"7053264","label":"Bihs\u016bd","value":"7053264","lat":34.44275999999999982037479639984667301177978515625,"lon":70.5089899999999971669240039773285388946533203125,"poi_name":"Bihs\u016bd","parent_id":"1132366","long":70.5089899999999971669240039773285388946533203125},"3":{"id":"7053265","label":"Chaparh\u0101r","value":"7053265","lat":34.29079999999999728288457845337688922882080078125,"lon":70.3733399999999988949639373458921909332275390625,"poi_name":"Chaparh\u0101r","parent_id":"1132366","long":70.3733399999999988949639373458921909332275390625},"4":{"id":"7053266","label":"Darah-ye N\u016br","value":"7053266","lat":34.70653999999999683723217458464205265045166015625,"lon":70.58589000000000623913365416228771209716796875,"poi_name":"Darah-ye N\u016br","parent_id":"1132366","long":70.58589000000000623913365416228771209716796875},"5":{"id":"7053267","label":"Deh B\u0101l\u0101","value":"7053267","lat":34.08845000000000169393388205207884311676025390625,"lon":70.4438200000000023237589630298316478729248046875,"poi_name":"Deh B\u0101l\u0101","parent_id":"1132366","long":70.4438200000000023237589630298316478729248046875},"6":{"id":"7053278","label":"Dur B\u0101b\u0101","value":"7053278","lat":34.09796999999999655983629054389894008636474609375,"lon":70.9630300000000033833202905952930450439453125,"poi_name":"Dur B\u0101b\u0101","parent_id":"1132366","long":70.9630300000000033833202905952930450439453125},"7":{"id":"7053279","label":"G\u014dshtah","value":"7053279","lat":34.44843999999999795136318425647914409637451171875,"lon":70.8669900000000012596501619555056095123291015625,"poi_name":"G\u014dshtah","parent_id":"1132366","long":70.8669900000000012596501619555056095123291015625},"8":{"id":"7053281","label":"Jal\u0101l\u0101b\u0101d","value":"7053281","lat":34.42188999999999765577740618027746677398681640625,"lon":70.4635300000000057707438827492296695709228515625,"poi_name":"Jal\u0101l\u0101b\u0101d","parent_id":"1132366","long":70.4635300000000057707438827492296695709228515625},"9":{"id":"7053283","label":"Kh\u016bgy\u0101\u1e49\u012b","value":"7053283","lat":34.2314999999999969304553815163671970367431640625,"lon":70.1493999999999999772626324556767940521240234375,"poi_name":"Kh\u016bgy\u0101\u1e49\u012b","parent_id":"1132366","long":70.1493999999999999772626324556767940521240234375},"10":{"id":"7053282","label":"K\u0101mah","value":"7053282","lat":34.4430100000000010140865924768149852752685546875,"lon":70.65625,"poi_name":"K\u0101mah","parent_id":"1132366","long":70.65625},"11":{"id":"7053284","label":"K\u014d\u1e6f","value":"7053284","lat":34.15317999999999898363967076875269412994384765625,"lon":70.595339999999993096935213543474674224853515625,"poi_name":"K\u014d\u1e6f","parent_id":"1132366","long":70.595339999999993096935213543474674224853515625},"12":{"id":"7053285","label":"K\u016bz Kuna\u1e5f","value":"7053285","lat":34.559269999999997935447026975452899932861328125,"lon":70.606809999999995852704159915447235107421875,"poi_name":"K\u016bz Kuna\u1e5f","parent_id":"1132366","long":70.606809999999995852704159915447235107421875},"13":{"id":"7053286","label":"La\u2018lp\u016br","value":"7053286","lat":34.33339000000000140744305099360644817352294921875,"lon":71.0245900000000034424374462105333805084228515625,"poi_name":"La\u2018lp\u016br","parent_id":"1132366","long":71.0245900000000034424374462105333805084228515625},"14":{"id":"7053287","label":"Mohmand Darah","value":"7053287","lat":34.20476000000000027512214728631079196929931640625,"lon":70.9841799999999949477569316513836383819580078125,"poi_name":"Mohmand Darah","parent_id":"1132366","long":70.9841799999999949477569316513836383819580078125},"15":{"id":"7053288","label":"N\u0101ziy\u0101n","value":"7053288","lat":34.0559099999999972396835801191627979278564453125,"lon":70.825770000000005666151992045342922210693359375,"poi_name":"N\u0101ziy\u0101n","parent_id":"1132366","long":70.825770000000005666151992045342922210693359375},"16":{"id":"7053289","label":"Pach\u012br wa \u0100g\u0101m","value":"7053289","lat":34.0877600000000029467628337442874908447265625,"lon":70.2805900000000036698111216537654399871826171875,"poi_name":"Pach\u012br wa \u0100g\u0101m","parent_id":"1132366","long":70.2805900000000036698111216537654399871826171875},"17":{"id":"7053290","label":"R\u014dd\u0101t","value":"7053290","lat":34.2730099999999993087840266525745391845703125,"lon":70.5682199999999966166797094047069549560546875,"poi_name":"R\u014dd\u0101t","parent_id":"1132366","long":70.5682199999999966166797094047069549560546875},"18":{"id":"7053291","label":"Sh\u0113rz\u0101d","value":"7053291","lat":34.1941800000000029058355721645057201385498046875,"lon":69.980130000000002610249794088304042816162109375,"poi_name":"Sh\u0113rz\u0101d","parent_id":"1132366","long":69.980130000000002610249794088304042816162109375},"19":{"id":"7053292","label":"Sh\u012bnw\u0101r","value":"7053292","lat":34.20575000000000187583282240666449069976806640625,"lon":70.7958100000000030149749363772571086883544921875,"poi_name":"Sh\u012bnw\u0101r","parent_id":"1132366","long":70.7958100000000030149749363772571086883544921875},"20":{"id":"7053293","label":"Surkh R\u014dd","value":"7053293","lat":34.3947399999999987585397320799529552459716796875,"lon":70.276579999999995607140590436756610870361328125,"poi_name":"Surkh R\u014dd","parent_id":"1132366","long":70.276579999999995607140590436756610870361328125},"21":{"id":"7053280","label":"\u1e28i\u015f\u0101rak","value":"7053280","lat":34.27947999999999950659912428818643093109130859375,"lon":69.768720000000001846274244599044322967529296875,"poi_name":"\u1e28i\u015f\u0101rak","parent_id":"1132366","long":69.768720000000001846274244599044322967529296875}}