{"success":true,"remaining_lookups":9992,"0":{"id":"7053015","label":"B\u0101ghr\u0101n","value":"7053015","lat":33.014060000000000627551344223320484161376953125,"lon":65.04207999999999856299837119877338409423828125,"poi_name":"B\u0101ghr\u0101n","parent_id":"1140043","long":65.04207999999999856299837119877338409423828125},"1":{"id":"7053017","label":"D\u012bsh\u016b","value":"7053017","lat":29.879169999999998452722138608805835247039794921875,"lon":63.17439999999999855617716093547642230987548828125,"poi_name":"D\u012bsh\u016b","parent_id":"1140043","long":63.17439999999999855617716093547642230987548828125},"2":{"id":"7732352","label":"Garms\u012br","value":"7732352","lat":31.0257399999999989859134075231850147247314453125,"lon":64.22386000000000194631866179406642913818359375,"poi_name":"Garms\u012br","parent_id":"1140043","long":64.22386000000000194631866179406642913818359375},"3":{"id":"7053026","label":"Kajak\u012b","value":"7053026","lat":32.48418000000000205318428925238549709320068359375,"lon":65.0387099999999946930984151549637317657470703125,"poi_name":"Kajak\u012b","parent_id":"1140043","long":65.0387099999999946930984151549637317657470703125},"4":{"id":"7053027","label":"Lashkar G\u0101h","value":"7053027","lat":31.456199999999999050714905024506151676177978515625,"lon":64.5402399999999971669240039773285388946533203125,"poi_name":"Lashkar G\u0101h","parent_id":"1140043","long":64.5402399999999971669240039773285388946533203125},"5":{"id":"7053028","label":"M\u016bs\u00e1 Qal\u2018ah","value":"7053028","lat":32.46905000000000285353962681256234645843505859375,"lon":64.736320000000006302798283286392688751220703125,"poi_name":"M\u016bs\u00e1 Qal\u2018ah","parent_id":"1140043","long":64.736320000000006302798283286392688751220703125},"6":{"id":"7053030","label":"Nahr-e Sar\u0101j","value":"7053030","lat":31.834779999999998523207977996207773685455322265625,"lon":64.612390000000004874891601502895355224609375,"poi_name":"Nahr-e Sar\u0101j","parent_id":"1140043","long":64.612390000000004874891601502895355224609375},"7":{"id":"9653598","label":"Naw Zad","value":"9653598","lat":32.29482999999999748297341284342110157012939453125,"lon":64.482020000000005666151992045342922210693359375,"poi_name":"Naw Zad","parent_id":"1140043","long":64.482020000000005666151992045342922210693359375},"8":{"id":"7053029","label":"N\u0101d \u2018Al\u012b","value":"7053029","lat":31.577980000000000160298441187478601932525634765625,"lon":63.79072000000000031150193535722792148590087890625,"poi_name":"N\u0101d \u2018Al\u012b","parent_id":"1140043","long":63.79072000000000031150193535722792148590087890625},"9":{"id":"7053031","label":"N\u0101wah-ye B\u0101rakza\u012b","value":"7053031","lat":31.33212999999999937017491902224719524383544921875,"lon":64.21490000000000009094947017729282379150390625,"poi_name":"N\u0101wah-ye B\u0101rakza\u012b","parent_id":"1140043","long":64.21490000000000009094947017729282379150390625},"10":{"id":"7053033","label":"R\u0113g-e Kh\u0101n Nesh\u012bn","value":"7053033","lat":30.833330000000000126192389870993793010711669921875,"lon":63.5,"poi_name":"R\u0113g-e Kh\u0101n Nesh\u012bn","parent_id":"1140043","long":63.5},"11":{"id":"7053034","label":"Sang\u012bn","value":"7053034","lat":32.1236099999999993315213941968977451324462890625,"lon":64.9965300000000070212990976870059967041015625,"poi_name":"Sang\u012bn","parent_id":"1140043","long":64.9965300000000070212990976870059967041015625},"12":{"id":"7053035","label":"W\u0101sh\u0113r","value":"7053035","lat":32.10318000000000182581061380915343761444091796875,"lon":63.946629999999998972270986996591091156005859375,"poi_name":"W\u0101sh\u0113r","parent_id":"1140043","long":63.946629999999998972270986996591091156005859375}}