{"success":true,"remaining_lookups":9978,"0":{"id":"7732055","label":"Bamyan","value":"7732055","lat":34.79547000000000167574398801662027835845947265625,"lon":67.67297999999999547071638517081737518310546875,"poi_name":"Bamyan","parent_id":"1147239","long":67.67297999999999547071638517081737518310546875},"1":{"id":"7052911","label":"Kahmard","value":"7052911","lat":35.3569499999999976580511429347097873687744140625,"lon":67.7756700000000051886672736145555973052978515625,"poi_name":"Kahmard","parent_id":"1147239","long":67.7756700000000051886672736145555973052978515625},"2":{"id":"7052912","label":"Panj\u0101b","value":"7052912","lat":34.4220600000000018781065591610968112945556640625,"lon":66.9304599999999965120878187008202075958251953125,"poi_name":"Panj\u0101b","parent_id":"1147239","long":66.9304599999999965120878187008202075958251953125},"3":{"id":"7052913","label":"Saygh\u0101n","value":"7052913","lat":35.1180200000000013460521586239337921142578125,"lon":67.6104600000000033332980819977819919586181640625,"poi_name":"Saygh\u0101n","parent_id":"1147239","long":67.6104600000000033332980819977819919586181640625},"4":{"id":"7732337","label":"Shibar","value":"7732337","lat":34.86522000000000076624928624369204044342041015625,"lon":68.1449199999999990495780366472899913787841796875,"poi_name":"Shibar","parent_id":"1147239","long":68.1449199999999990495780366472899913787841796875},"5":{"id":"7052915","label":"Waras\u0304","value":"7052915","lat":34.15135000000000076170181273482739925384521484375,"lon":66.97350000000000136424205265939235687255859375,"poi_name":"Waras\u0304","parent_id":"1147239","long":66.97350000000000136424205265939235687255859375},"6":{"id":"7052916","label":"Yak\u0101wlang","value":"7052916","lat":34.97903999999999768988345749676227569580078125,"lon":66.9480199999999996407495927996933460235595703125,"poi_name":"Yak\u0101wlang","parent_id":"1147239","long":66.9480199999999996407495927996933460235595703125}}