{"success":true,"remaining_lookups":9982,"0":{"id":"7054006","label":"B\u0101k","value":"7054006","lat":33.53009999999999735109668108634650707244873046875,"lon":70.0766200000000054615156841464340686798095703125,"poi_name":"B\u0101k","parent_id":"1444362","long":70.0766200000000054615156841464340686798095703125},"1":{"id":"7054007","label":"Gurbuz","value":"7054007","lat":33.2023300000000034515323932282626628875732421875,"lon":69.9424499999999937926986603997647762298583984375,"poi_name":"Gurbuz","parent_id":"1444362","long":69.9424499999999937926986603997647762298583984375},"2":{"id":"7054008","label":"J\u0101j\u012b Ma\u012bd\u0101n","value":"7054008","lat":33.640770000000003392415237613022327423095703125,"lon":70.078879999999998062776285223662853240966796875,"poi_name":"J\u0101j\u012b Ma\u012bd\u0101n","parent_id":"1444362","long":70.078879999999998062776285223662853240966796875},"3":{"id":"7054009","label":"Kh\u014dst","value":"7054009","lat":33.34044999999999703277353546582162380218505859375,"lon":70.0037999999999982492226990871131420135498046875,"poi_name":"Kh\u014dst","parent_id":"1444362","long":70.0037999999999982492226990871131420135498046875},"4":{"id":"7054013","label":"Mand\u016bza\u012b","value":"7054013","lat":33.316630000000003519744495861232280731201171875,"lon":69.780069999999994934114511124789714813232421875,"poi_name":"Mand\u016bza\u012b","parent_id":"1444362","long":69.780069999999994934114511124789714813232421875},"5":{"id":"7054014","label":"M\u016bs\u00e1 Kh\u0113l","value":"7054014","lat":33.5838600000000013778844731859862804412841796875,"lon":69.681860000000000354702933691442012786865234375,"poi_name":"M\u016bs\u00e1 Kh\u0113l","parent_id":"1444362","long":69.681860000000000354702933691442012786865234375},"6":{"id":"7054015","label":"N\u0101dir Sh\u0101h K\u014d\u1e6f","value":"7054015","lat":33.38118999999999658712113159708678722381591796875,"lon":69.682649999999995316102285869419574737548828125,"poi_name":"N\u0101dir Sh\u0101h K\u014d\u1e6f","parent_id":"1444362","long":69.682649999999995316102285869419574737548828125},"7":{"id":"7054016","label":"Qalandar","value":"7054016","lat":33.49186999999999869714883971028029918670654296875,"lon":69.6587200000000024147084332071244716644287109375,"poi_name":"Qalandar","parent_id":"1444362","long":69.6587200000000024147084332071244716644287109375},"8":{"id":"7054018","label":"Shamul","value":"7054018","lat":33.3153300000000029967850423417985439300537109375,"lon":69.5321200000000061436367104761302471160888671875,"poi_name":"Shamul","parent_id":"1444362","long":69.5321200000000061436367104761302471160888671875},"9":{"id":"7054019","label":"Sp\u0113rah","value":"7054019","lat":33.15664000000000299905877909623086452484130859375,"lon":69.4912000000000062982508097775280475616455078125,"poi_name":"Sp\u0113rah","parent_id":"1444362","long":69.4912000000000062982508097775280475616455078125},"10":{"id":"7732601","label":"Tani","value":"7732601","lat":33.172460000000000945874489843845367431640625,"lon":69.7499499999999983401721692644059658050537109375,"poi_name":"Tani","parent_id":"1444362","long":69.7499499999999983401721692644059658050537109375},"11":{"id":"7054021","label":"T\u00earayza\u012b","value":"7054021","lat":33.38367000000000217596607399173080921173095703125,"lon":70.1908399999999943474904284812510013580322265625,"poi_name":"T\u00earayza\u012b","parent_id":"1444362","long":70.1908399999999943474904284812510013580322265625},"12":{"id":"7054017","label":"\u015eabar\u012b","value":"7054017","lat":33.54352000000000089130480773746967315673828125,"lon":69.911799999999999499777914024889469146728515625,"poi_name":"\u015eabar\u012b","parent_id":"1444362","long":69.911799999999999499777914024889469146728515625}}