{"success":true,"remaining_lookups":8411,"0":{"id":"7874046","label":"Caia District","value":"7874046","lat":-17.76899999999999835154085303656756877899169921875,"lon":35.05799999999999982946974341757595539093017578125,"poi_name":"Caia District","parent_id":"1026804","long":35.05799999999999982946974341757595539093017578125},"1":{"id":"7874471","label":"Chemba District","value":"7874471","lat":-17.164739999999998332214090623892843723297119140625,"lon":34.8877700000000032787283998914062976837158203125,"poi_name":"Chemba District","parent_id":"1026804","long":34.8877700000000032787283998914062976837158203125},"2":{"id":"7874614","label":"Cheringoma District","value":"7874614","lat":-18.532679999999999154169927351176738739013671875,"lon":35.31830000000000069348971010185778141021728515625,"poi_name":"Cheringoma District","parent_id":"1026804","long":35.31830000000000069348971010185778141021728515625},"3":{"id":"7873985","label":"Chibabava District","value":"7873985","lat":-20.292000000000001591615728102624416351318359375,"lon":33.53099999999999880628820392303168773651123046875,"poi_name":"Chibabava District","parent_id":"1026804","long":33.53099999999999880628820392303168773651123046875},"4":{"id":"1040396","label":"Circunscri\u00e7\u00e3o de Marromeu","value":"1040396","lat":-18.42526000000000152567736222408711910247802734375,"lon":35.74098000000000041609382606111466884613037109375,"poi_name":"Circunscri\u00e7\u00e3o de Marromeu","parent_id":"1026804","long":35.74098000000000041609382606111466884613037109375},"5":{"id":"1052372","label":"Concelho da Beira","value":"1052372","lat":-19.716280000000001138005245593376457691192626953125,"lon":34.93301000000000300360625260509550571441650390625,"poi_name":"Concelho da Beira","parent_id":"1026804","long":34.93301000000000300360625260509550571441650390625},"6":{"id":"1051852","label":"Concelho do B\u00fazi","value":"1051852","lat":-20.039249999999999118927007657475769519805908203125,"lon":34.37236999999999653709892299957573413848876953125,"poi_name":"Concelho do B\u00fazi","parent_id":"1026804","long":34.37236999999999653709892299957573413848876953125},"7":{"id":"7873986","label":"Dondo District","value":"7873986","lat":-19.52199999999999846522769075818359851837158203125,"lon":34.79899999999999948840923025272786617279052734375,"poi_name":"Dondo District","parent_id":"1026804","long":34.79899999999999948840923025272786617279052734375},"8":{"id":"1045789","label":"Gorongosa District","value":"1045789","lat":-18.60900000000000176214598468504846096038818359375,"lon":34.23799999999999954525264911353588104248046875,"poi_name":"Gorongosa District","parent_id":"1026804","long":34.23799999999999954525264911353588104248046875},"9":{"id":"7874474","label":"Machanga District","value":"7874474","lat":-20.9692900000000008731149137020111083984375,"lon":34.99737999999999971123543218709528446197509765625,"poi_name":"Machanga District","parent_id":"1026804","long":34.99737999999999971123543218709528446197509765625},"10":{"id":"7874473","label":"Maringu\u00e9 District","value":"7874473","lat":-17.963550000000001460875864722765982151031494140625,"lon":34.392189999999999372448655776679515838623046875,"poi_name":"Maringu\u00e9 District","parent_id":"1026804","long":34.392189999999999372448655776679515838623046875},"11":{"id":"7874472","label":"Muanza District","value":"7874472","lat":-18.899550000000001404032445861957967281341552734375,"lon":34.7967900000000014415491023100912570953369140625,"poi_name":"Muanza District","parent_id":"1026804","long":34.7967900000000014415491023100912570953369140625},"12":{"id":"7873984","label":"Nhamatanda District","value":"7873984","lat":-19.349000000000000198951966012828052043914794921875,"lon":34.268000000000000682121026329696178436279296875,"poi_name":"Nhamatanda District","parent_id":"1026804","long":34.268000000000000682121026329696178436279296875}}