{"success":true,"remaining_lookups":8416,"0":{"id":"1052446","label":"Barue District","value":"1052446","lat":-17.810469999999998691464497824199497699737548828125,"lon":33.1726699999999965484676067717373371124267578125,"poi_name":"Barue District","parent_id":"1040947","long":33.1726699999999965484676067717373371124267578125},"1":{"id":"1037018","label":"Circunscri\u00e7\u00e3o de Mossurize","value":"1037018","lat":-20.512619999999998299244907684624195098876953125,"lon":32.9436699999999973442754708230495452880859375,"poi_name":"Circunscri\u00e7\u00e3o de Mossurize","parent_id":"1040947","long":32.9436699999999973442754708230495452880859375},"2":{"id":"1040948","label":"Concelho de Manica","value":"1040948","lat":-18.948570000000000135287336888723075389862060546875,"lon":32.89509000000000327190718962810933589935302734375,"poi_name":"Concelho de Manica","parent_id":"1040947","long":32.89509000000000327190718962810933589935302734375},"3":{"id":"1049260","label":"Concelho do Chimoio","value":"1049260","lat":-19.12704000000000092995833256281912326812744140625,"lon":33.4562700000000035061020753346383571624755859375,"poi_name":"Concelho do Chimoio","parent_id":"1040947","long":33.4562700000000035061020753346383571624755859375},"4":{"id":"10701341","label":"Distrito de Macate","value":"10701341","lat":-19.389150000000000773070496506989002227783203125,"lon":33.568950000000000954969436861574649810791015625,"poi_name":"Distrito de Macate","parent_id":"1040947","long":33.568950000000000954969436861574649810791015625},"5":{"id":"10701340","label":"Distrito de Vanduzi","value":"10701340","lat":-18.835730000000001638227331568486988544464111328125,"lon":33.2634800000000012687451089732348918914794921875,"poi_name":"Distrito de Vanduzi","parent_id":"1040947","long":33.2634800000000012687451089732348918914794921875},"6":{"id":"7646374","label":"Gondola District","value":"7646374","lat":-19.14999999999999857891452847979962825775146484375,"lon":33.659999999999996589394868351519107818603515625,"poi_name":"Gondola District","parent_id":"1040947","long":33.659999999999996589394868351519107818603515625},"7":{"id":"1035732","label":"Guro","value":"1035732","lat":-16.952619999999999578221832052804529666900634765625,"lon":33.51865000000000094360075308941304683685302734375,"poi_name":"Guro","parent_id":"1040947","long":33.51865000000000094360075308941304683685302734375},"8":{"id":"7874045","label":"Guro District","value":"7874045","lat":-16.96399999999999863575794734060764312744140625,"lon":33.5690000000000026147972675971686840057373046875,"poi_name":"Guro District","parent_id":"1040947","long":33.5690000000000026147972675971686840057373046875},"9":{"id":"7874620","label":"Machaze District","value":"7874620","lat":-20.802099999999999369038050645031034946441650390625,"lon":33.41389000000000208956407732330262660980224609375,"poi_name":"Machaze District","parent_id":"1040947","long":33.41389000000000208956407732330262660980224609375},"10":{"id":"7874622","label":"Macossa District","value":"7874622","lat":-17.8915199999999998681232682429254055023193359375,"lon":33.93693999999999988403942552395164966583251953125,"poi_name":"Macossa District","parent_id":"1040947","long":33.93693999999999988403942552395164966583251953125},"11":{"id":"7670758","label":"Sussundenga District","value":"7670758","lat":-19.690819999999998657358446507714688777923583984375,"lon":33.2715400000000016689227777533233165740966796875,"poi_name":"Sussundenga District","parent_id":"1040947","long":33.2715400000000016689227777533233165740966796875},"12":{"id":"7874624","label":"Tambara District","value":"7874624","lat":-16.72359000000000150976120494306087493896484375,"lon":34.25571000000000054797055781818926334381103515625,"poi_name":"Tambara District","parent_id":"1040947","long":34.25571000000000054797055781818926334381103515625}}