{"success":true,"remaining_lookups":8419,"0":{"id":"10685827","label":"KaMavota","value":"10685827","lat":-25.887190000000000367208485840819776058197021484375,"lon":32.63600999999999885403667576611042022705078125,"poi_name":"KaMavota","parent_id":"1105845","long":32.63600999999999885403667576611042022705078125},"1":{"id":"10685829","label":"KaMaxakeni","value":"10685829","lat":-25.93796999999999997044142219237983226776123046875,"lon":32.59732000000000340378392138518393039703369140625,"poi_name":"KaMaxakeni","parent_id":"1105845","long":32.59732000000000340378392138518393039703369140625},"2":{"id":"10685830","label":"KaMpfumo","value":"10685830","lat":-25.965399999999998925659383530728518962860107421875,"lon":32.5829499999999967485564411617815494537353515625,"poi_name":"KaMpfumo","parent_id":"1105845","long":32.5829499999999967485564411617815494537353515625},"3":{"id":"10683815","label":"KaMubukwana","value":"10683815","lat":-25.88680000000000092086338554508984088897705078125,"lon":32.57260999999999739884515292942523956298828125,"poi_name":"KaMubukwana","parent_id":"1105845","long":32.57260999999999739884515292942523956298828125},"4":{"id":"10685832","label":"KaNyaka","value":"10685832","lat":-26.017309999999998382236299221403896808624267578125,"lon":32.943049999999999499777914024889469146728515625,"poi_name":"KaNyaka","parent_id":"1105845","long":32.943049999999999499777914024889469146728515625},"5":{"id":"10685831","label":"KaTembe","value":"10685831","lat":-26.029849999999999710098563809879124164581298828125,"lon":32.53204000000000206682670977897942066192626953125,"poi_name":"KaTembe","parent_id":"1105845","long":32.53204000000000206682670977897942066192626953125},"6":{"id":"10685828","label":"Nhlamankulo","value":"10685828","lat":-25.9451600000000013324097380973398685455322265625,"lon":32.55720000000000169393388205207884311676025390625,"poi_name":"Nhlamankulo","parent_id":"1105845","long":32.55720000000000169393388205207884311676025390625}}