{"success":true,"remaining_lookups":8325,"0":{"id":"3620438","label":"Municipio de Catarina","value":"3620438","lat":11.916669999999999873807610129006206989288330078125,"lon":-86.0666700000000020054358174093067646026611328125,"poi_name":"Municipio de Catarina","parent_id":"3617722","long":-86.0666700000000020054358174093067646026611328125},"1":{"id":"3618641","label":"Municipio de La Concepci\u00f3n","value":"3618641","lat":11.96667000000000058435034588910639286041259765625,"lon":-86.2000000000000028421709430404007434844970703125,"poi_name":"Municipio de La Concepci\u00f3n","parent_id":"3617722","long":-86.2000000000000028421709430404007434844970703125},"2":{"id":"3617724","label":"Municipio de Masatepe","value":"3617724","lat":11.916669999999999873807610129006206989288330078125,"lon":-86.1166699999999991632648743689060211181640625,"poi_name":"Municipio de Masatepe","parent_id":"3617722","long":-86.1166699999999991632648743689060211181640625},"3":{"id":"3617720","label":"Municipio de Masaya","value":"3617720","lat":12,"lon":-86.033330000000006521077011711895465850830078125,"poi_name":"Municipio de Masaya","parent_id":"3617722","long":-86.033330000000006521077011711895465850830078125},"4":{"id":"3617509","label":"Municipio de Nandasmo","value":"3617509","lat":11.9333299999999997709210219909437000751495361328125,"lon":-86.1166699999999991632648743689060211181640625,"poi_name":"Municipio de Nandasmo","parent_id":"3617722","long":-86.1166699999999991632648743689060211181640625},"5":{"id":"3617472","label":"Municipio de Nindir\u00ed","value":"3617472","lat":12.0666700000000002290789780090562999248504638671875,"lon":-86.1166699999999991632648743689060211181640625,"poi_name":"Municipio de Nindir\u00ed","parent_id":"3617722","long":-86.1166699999999991632648743689060211181640625},"6":{"id":"3617469","label":"Municipio de Niquinohomo","value":"3617469","lat":11.9000000000000003552713678800500929355621337890625,"lon":-86.0833300000000036789060686714947223663330078125,"poi_name":"Municipio de Niquinohomo","parent_id":"3617722","long":-86.0833300000000036789060686714947223663330078125},"7":{"id":"3616722","label":"Municipio de San Juan de Oriente","value":"3616722","lat":11.9051700000000000301270119962282478809356689453125,"lon":-86.074600000000003774403012357652187347412109375,"poi_name":"Municipio de San Juan de Oriente","parent_id":"3617722","long":-86.074600000000003774403012357652187347412109375},"8":{"id":"3616026","label":"Municipio de Tisma","value":"3616026","lat":12.0999999999999996447286321199499070644378662109375,"lon":-85.966669999999993478922988288104534149169921875,"poi_name":"Municipio de Tisma","parent_id":"3617722","long":-85.966669999999993478922988288104534149169921875}}