{"success":true,"remaining_lookups":8328,"0":{"id":"3620981","label":"Municipio de Achuapa","value":"3620981","lat":13.083330000000000126192389870993793010711669921875,"lon":-86.533330000000006521077011711895465850830078125,"poi_name":"Municipio de Achuapa","parent_id":"3618029","long":-86.533330000000006521077011711895465850830078125},"1":{"id":"3619693","label":"Municipio de El Jicaral","value":"3619693","lat":12.71667000000000058435034588910639286041259765625,"lon":-86.3166700000000020054358174093067646026611328125,"poi_name":"Municipio de El Jicaral","parent_id":"3618029","long":-86.3166700000000020054358174093067646026611328125},"2":{"id":"3619381","label":"Municipio de El Sauce","value":"3619381","lat":12.9000000000000003552713678800500929355621337890625,"lon":-86.5,"poi_name":"Municipio de El Sauce","parent_id":"3618029","long":-86.5},"3":{"id":"3618412","label":"Municipio de La Paz Central","value":"3618412","lat":12.5,"lon":-86.5,"poi_name":"Municipio de La Paz Central","parent_id":"3618029","long":-86.5},"4":{"id":"3618335","label":"Municipio de Larreynaga","value":"3618335","lat":12.666669999999999873807610129006206989288330078125,"lon":-86.5833300000000036789060686714947223663330078125,"poi_name":"Municipio de Larreynaga","parent_id":"3618029","long":-86.5833300000000036789060686714947223663330078125},"5":{"id":"3618028","label":"Municipio de Le\u00f3n","value":"3618028","lat":12.416669999999999873807610129006206989288330078125,"lon":-86.8333300000000036789060686714947223663330078125,"poi_name":"Municipio de Le\u00f3n","parent_id":"3618029","long":-86.8333300000000036789060686714947223663330078125},"6":{"id":"3617521","label":"Municipio de Nagarote","value":"3617521","lat":12.21667000000000058435034588910639286041259765625,"lon":-86.5833300000000036789060686714947223663330078125,"poi_name":"Municipio de Nagarote","parent_id":"3618029","long":-86.5833300000000036789060686714947223663330078125},"7":{"id":"3617114","label":"Municipio de Quezalguaque","value":"3617114","lat":12.583330000000000126192389870993793010711669921875,"lon":-86.8666699999999991632648743689060211181640625,"poi_name":"Municipio de Quezalguaque","parent_id":"3618029","long":-86.8666699999999991632648743689060211181640625},"8":{"id":"3616386","label":"Municipio de Santa Rosa del Pe\u00f1\u00f3n","value":"3616386","lat":12.833330000000000126192389870993793010711669921875,"lon":-86.3333300000000036789060686714947223663330078125,"poi_name":"Municipio de Santa Rosa del Pe\u00f1\u00f3n","parent_id":"3618029","long":-86.3333300000000036789060686714947223663330078125},"9":{"id":"3616091","label":"Municipio de Telica","value":"3616091","lat":12.6166699999999991632648743689060211181640625,"lon":-86.75,"poi_name":"Municipio de Telica","parent_id":"3618029","long":-86.75}}