{"success":true,"remaining_lookups":8333,"0":{"id":"3620389","label":"Municipio de Chichigalpa","value":"3620389","lat":12.6166699999999991632648743689060211181640625,"lon":-87,"poi_name":"Municipio de Chichigalpa","parent_id":"3620380","long":-87},"1":{"id":"3620379","label":"Municipio de Chinandega","value":"3620379","lat":12.75,"lon":-87,"poi_name":"Municipio de Chinandega","parent_id":"3620380","long":-87},"2":{"id":"3620357","label":"Municipio de Cinco Pinos","value":"3620357","lat":13.2333300000000004814637577510438859462738037109375,"lon":-86.8166700000000020054358174093067646026611328125,"poi_name":"Municipio de Cinco Pinos","parent_id":"3620380","long":-86.8166700000000020054358174093067646026611328125},"3":{"id":"3620267","label":"Municipio de Corinto","value":"3620267","lat":12.531929999999999125748217920772731304168701171875,"lon":-87.2248900000000020327206584624946117401123046875,"poi_name":"Municipio de Corinto","parent_id":"3620380","long":-87.2248900000000020327206584624946117401123046875},"4":{"id":"3619449","label":"Municipio de El Realejo","value":"3619449","lat":12.583330000000000126192389870993793010711669921875,"lon":-87.1666699999999963210939313285052776336669921875,"poi_name":"Municipio de El Realejo","parent_id":"3620380","long":-87.1666699999999963210939313285052776336669921875},"5":{"id":"3619266","label":"Municipio de El Viejo","value":"3619266","lat":12.833330000000000126192389870993793010711669921875,"lon":-87.3333300000000036789060686714947223663330078125,"poi_name":"Municipio de El Viejo","parent_id":"3620380","long":-87.3333300000000036789060686714947223663330078125},"6":{"id":"3617190","label":"Municipio de Posoltega","value":"3617190","lat":12.6333300000000008367351256310939788818359375,"lon":-86.9166699999999963210939313285052776336669921875,"poi_name":"Municipio de Posoltega","parent_id":"3620380","long":-86.9166699999999963210939313285052776336669921875},"7":{"id":"3617145","label":"Municipio de Puerto Moraz\u00e1n","value":"3617145","lat":12.8499999999999996447286321199499070644378662109375,"lon":-87.1666699999999963210939313285052776336669921875,"poi_name":"Municipio de Puerto Moraz\u00e1n","parent_id":"3620380","long":-87.1666699999999963210939313285052776336669921875},"8":{"id":"3616851","label":"Municipio de San Francisco del Norte","value":"3616851","lat":13.2333300000000004814637577510438859462738037109375,"lon":-86.7000000000000028421709430404007434844970703125,"poi_name":"Municipio de San Francisco del Norte","parent_id":"3620380","long":-86.7000000000000028421709430404007434844970703125},"9":{"id":"3616610","label":"Municipio de San Pedro del Norte","value":"3616610","lat":13.273630000000000705995262251235544681549072265625,"lon":-86.8783499999999975216269376687705516815185546875,"poi_name":"Municipio de San Pedro del Norte","parent_id":"3620380","long":-86.8783499999999975216269376687705516815185546875},"10":{"id":"3616345","label":"Municipio de Santo Tom\u00e1s del Norte","value":"3616345","lat":13.21667000000000058435034588910639286041259765625,"lon":-86.8333300000000036789060686714947223663330078125,"poi_name":"Municipio de Santo Tom\u00e1s del Norte","parent_id":"3620380","long":-86.8333300000000036789060686714947223663330078125},"11":{"id":"3616233","label":"Municipio de Somotillo","value":"3616233","lat":13,"lon":-87,"poi_name":"Municipio de Somotillo","parent_id":"3620380","long":-87},"12":{"id":"3615816","label":"Municipio de Villanueva","value":"3615816","lat":12.9637399999999995969801602768711745738983154296875,"lon":-86.811049999999994497557054273784160614013671875,"poi_name":"Municipio de Villanueva","parent_id":"3620380","long":-86.811049999999994497557054273784160614013671875}}