{"success":true,"remaining_lookups":9732,"0":{"id":"733042","label":"Obshtina Borovo","value":"733042","lat":43.60000000000000142108547152020037174224853515625,"lon":25.800000000000000710542735760100185871124267578125,"poi_name":"Obshtina Borovo","parent_id":"727524","long":25.800000000000000710542735760100185871124267578125},"1":{"id":"732719","label":"Obshtina Byala","value":"732719","lat":43.41667000000000342652128892950713634490966796875,"lon":25.833330000000000126192389870993793010711669921875,"poi_name":"Obshtina Byala","parent_id":"727524","long":25.833330000000000126192389870993793010711669921875},"2":{"id":"731770","label":"Obshtina Dve Mogili","value":"731770","lat":43.51666999999999774217940284870564937591552734375,"lon":25.96667000000000058435034588910639286041259765625,"poi_name":"Obshtina Dve Mogili","parent_id":"727524","long":25.96667000000000058435034588910639286041259765625},"3":{"id":"730851","label":"Obshtina Ivanovo","value":"730851","lat":43.7000000000000028421709430404007434844970703125,"lon":25.983329999999998705106918350793421268463134765625,"poi_name":"Obshtina Ivanovo","parent_id":"727524","long":25.983329999999998705106918350793421268463134765625},"4":{"id":"727522","label":"Obshtina Ruse","value":"727522","lat":43.85000000000000142108547152020037174224853515625,"lon":26.083330000000000126192389870993793010711669921875,"poi_name":"Obshtina Ruse","parent_id":"727524","long":26.083330000000000126192389870993793010711669921875},"5":{"id":"727066","label":"Obshtina Slivo Pole","value":"727066","lat":43.96667000000000058435034588910639286041259765625,"lon":26.300000000000000710542735760100185871124267578125,"poi_name":"Obshtina Slivo Pole","parent_id":"727524","long":26.300000000000000710542735760100185871124267578125},"6":{"id":"726244","label":"Obshtina Tsenovo","value":"726244","lat":43.58332999999999657347871107049286365509033203125,"lon":25.6166699999999991632648743689060211181640625,"poi_name":"Obshtina Tsenovo","parent_id":"727524","long":25.6166699999999991632648743689060211181640625},"7":{"id":"725933","label":"Obshtina Vetovo","value":"725933","lat":43.71667000000000058435034588910639286041259765625,"lon":26.333330000000000126192389870993793010711669921875,"poi_name":"Obshtina Vetovo","parent_id":"727524","long":26.333330000000000126192389870993793010711669921875}}