{"success":true,"remaining_lookups":9720,"0":{"id":"732882","label":"Obshtina Breznik","value":"732882","lat":42.71667000000000058435034588910639286041259765625,"lon":22.85000000000000142108547152020037174224853515625,"poi_name":"Obshtina Breznik","parent_id":"728331","long":22.85000000000000142108547152020037174224853515625},"1":{"id":"730049","label":"Obshtina Kovachevtsi","value":"730049","lat":42.5499999999999971578290569595992565155029296875,"lon":22.833330000000000126192389870993793010711669921875,"poi_name":"Obshtina Kovachevtsi","parent_id":"728331","long":22.833330000000000126192389870993793010711669921875},"2":{"id":"728329","label":"Obshtina Pernik","value":"728329","lat":42.6166699999999991632648743689060211181640625,"lon":23.083330000000000126192389870993793010711669921875,"poi_name":"Obshtina Pernik","parent_id":"728331","long":23.083330000000000126192389870993793010711669921875},"3":{"id":"727831","label":"Obshtina Radomir","value":"727831","lat":42.46667000000000058435034588910639286041259765625,"lon":23.016670000000001294893081649206578731536865234375,"poi_name":"Obshtina Radomir","parent_id":"728331","long":23.016670000000001294893081649206578731536865234375},"4":{"id":"725401","label":"Obshtina Zemen","value":"725401","lat":42.550669999999996662154444493353366851806640625,"lon":22.714400000000001256239556823857128620147705078125,"poi_name":"Obshtina Zemen","parent_id":"728331","long":22.714400000000001256239556823857128620147705078125},"5":{"id":"726306","label":"Tran","value":"726306","lat":42.76666999999999774217940284870564937591552734375,"lon":22.6333300000000008367351256310939788818359375,"poi_name":"Tran","parent_id":"728331","long":22.6333300000000008367351256310939788818359375}}