{"success":true,"remaining_lookups":9742,"0":{"id":"733578","label":"Obshtina Aytos","value":"733578","lat":42.7000000000000028421709430404007434844970703125,"lon":27.25,"poi_name":"Obshtina Aytos","parent_id":"732771","long":27.25},"1":{"id":"732769","label":"Obshtina Burgas","value":"732769","lat":42.5,"lon":27.46667000000000058435034588910639286041259765625,"poi_name":"Obshtina Burgas","parent_id":"732771","long":27.46667000000000058435034588910639286041259765625},"2":{"id":"730679","label":"Obshtina Kameno","value":"730679","lat":42.51666999999999774217940284870564937591552734375,"lon":27.183330000000001547277861391194164752960205078125,"poi_name":"Obshtina Kameno","parent_id":"732771","long":27.183330000000001547277861391194164752960205078125},"3":{"id":"730558","label":"Obshtina Karnobat","value":"730558","lat":42.64999999999999857891452847979962825775146484375,"lon":26.983329999999998705106918350793421268463134765625,"poi_name":"Obshtina Karnobat","parent_id":"732771","long":26.983329999999998705106918350793421268463134765625},"4":{"id":"729321","label":"Obshtina Malko Tarnovo","value":"729321","lat":42.08332999999999657347871107049286365509033203125,"lon":27.53332999999999941564965411089360713958740234375,"poi_name":"Obshtina Malko Tarnovo","parent_id":"732771","long":27.53332999999999941564965411089360713958740234375},"5":{"id":"728824","label":"Obshtina Nesebar","value":"728824","lat":42.78332999999999941564965411089360713958740234375,"lon":27.733329999999998705106918350793421268463134765625,"poi_name":"Obshtina Nesebar","parent_id":"732771","long":27.733329999999998705106918350793421268463134765625},"6":{"id":"728106","label":"Obshtina Pomorie","value":"728106","lat":42.73333000000000225782059715129435062408447265625,"lon":27.550000000000000710542735760100185871124267578125,"poi_name":"Obshtina Pomorie","parent_id":"732771","long":27.550000000000000710542735760100185871124267578125},"7":{"id":"864564","label":"Obshtina Primorsko","value":"864564","lat":42.25,"lon":27.6333300000000008367351256310939788818359375,"poi_name":"Obshtina Primorsko","parent_id":"732771","long":27.6333300000000008367351256310939788818359375},"8":{"id":"727546","label":"Obshtina Ruen","value":"727546","lat":42.8833300000000008367351256310939788818359375,"lon":27.25,"poi_name":"Obshtina Ruen","parent_id":"732771","long":27.25},"9":{"id":"726962","label":"Obshtina Sozopol","value":"726962","lat":42.31123000000000189402271644212305545806884765625,"lon":27.5173300000000011777956387959420680999755859375,"poi_name":"Obshtina Sozopol","parent_id":"732771","long":27.5173300000000011777956387959420680999755859375},"10":{"id":"731015","label":"Obshtina Sredets","value":"731015","lat":42.26666999999999774217940284870564937591552734375,"lon":27.1333300000000008367351256310939788818359375,"poi_name":"Obshtina Sredets","parent_id":"732771","long":27.1333300000000008367351256310939788818359375},"11":{"id":"726628","label":"Obshtina Sungurlare","value":"726628","lat":42.83332999999999657347871107049286365509033203125,"lon":26.833330000000000126192389870993793010711669921875,"poi_name":"Obshtina Sungurlare","parent_id":"732771","long":26.833330000000000126192389870993793010711669921875},"12":{"id":"729123","label":"Obshtina Tsarevo","value":"729123","lat":42.10000000000000142108547152020037174224853515625,"lon":27.816669999999998452722138608805835247039794921875,"poi_name":"Obshtina Tsarevo","parent_id":"732771","long":27.816669999999998452722138608805835247039794921875}}