{"success":true,"remaining_lookups":9727,"0":{"id":"732919","label":"Obshtina Bratya Daskalovi","value":"732919","lat":42.2999999999999971578290569595992565155029296875,"lon":25.21667000000000058435034588910639286041259765625,"poi_name":"Obshtina Bratya Daskalovi","parent_id":"864559","long":25.21667000000000058435034588910639286041259765625},"1":{"id":"732451","label":"Obshtina Chirpan","value":"732451","lat":42.23333000000000225782059715129435062408447265625,"lon":25.3833300000000008367351256310939788818359375,"poi_name":"Obshtina Chirpan","parent_id":"864559","long":25.3833300000000008367351256310939788818359375},"2":{"id":"730984","label":"Obshtina Galabovo","value":"730984","lat":42.14999999999999857891452847979962825775146484375,"lon":25.96667000000000058435034588910639286041259765625,"poi_name":"Obshtina Galabovo","parent_id":"864559","long":25.96667000000000058435034588910639286041259765625},"3":{"id":"730965","label":"Obshtina Gurkovo","value":"730965","lat":42.71667000000000058435034588910639286041259765625,"lon":25.800000000000000710542735760100185871124267578125,"poi_name":"Obshtina Gurkovo","parent_id":"864559","long":25.800000000000000710542735760100185871124267578125},"4":{"id":"730495","label":"Obshtina Kazanl\u016dk","value":"730495","lat":42.61943000000000125737642520107328891754150390625,"lon":25.398849999999999482724888366647064685821533203125,"poi_name":"Obshtina Kazanl\u016dk","parent_id":"864559","long":25.398849999999999482724888366647064685821533203125},"5":{"id":"728927","label":"Obshtina Maglizh","value":"728927","lat":42.6333300000000008367351256310939788818359375,"lon":25.6166699999999991632648743689060211181640625,"poi_name":"Obshtina Maglizh","parent_id":"864559","long":25.6166699999999991632648743689060211181640625},"6":{"id":"864599","label":"Obshtina Nikolaevo","value":"864599","lat":42.60000000000000142108547152020037174224853515625,"lon":25.78332999999999941564965411089360713958740234375,"poi_name":"Obshtina Nikolaevo","parent_id":"864559","long":25.78332999999999941564965411089360713958740234375},"7":{"id":"728626","label":"Obshtina Opan","value":"728626","lat":42.21667000000000058435034588910639286041259765625,"lon":25.699999999999999289457264239899814128875732421875,"poi_name":"Obshtina Opan","parent_id":"864559","long":25.699999999999999289457264239899814128875732421875},"8":{"id":"728388","label":"Obshtina Pavel Banya","value":"728388","lat":42.6333300000000008367351256310939788818359375,"lon":25.1333300000000008367351256310939788818359375,"poi_name":"Obshtina Pavel Banya","parent_id":"864559","long":25.1333300000000008367351256310939788818359375},"9":{"id":"727837","label":"Obshtina Radnevo","value":"727837","lat":42.2999999999999971578290569595992565155029296875,"lon":25.933330000000001547277861391194164752960205078125,"poi_name":"Obshtina Radnevo","parent_id":"864559","long":25.933330000000001547277861391194164752960205078125},"10":{"id":"726847","label":"Obshtina Stara Zagora","value":"726847","lat":42.41667000000000342652128892950713634490966796875,"lon":25.6333300000000008367351256310939788818359375,"poi_name":"Obshtina Stara Zagora","parent_id":"864559","long":25.6333300000000008367351256310939788818359375}}