{"success":true,"remaining_lookups":9731,"0":{"id":"731519","label":"Obshtina Hitrino","value":"731519","lat":43.4333299999999979945641825906932353973388671875,"lon":26.916669999999999873807610129006206989288330078125,"poi_name":"Obshtina Hitrino","parent_id":"864555","long":26.916669999999999873807610129006206989288330078125},"1":{"id":"730650","label":"Obshtina Kaolinovo","value":"730650","lat":43.6166699999999991632648743689060211181640625,"lon":27.1166699999999991632648743689060211181640625,"poi_name":"Obshtina Kaolinovo","parent_id":"864555","long":27.1166699999999991632648743689060211181640625},"2":{"id":"730540","label":"Obshtina Kaspichan","value":"730540","lat":43.2999999999999971578290569595992565155029296875,"lon":27.183330000000001547277861391194164752960205078125,"poi_name":"Obshtina Kaspichan","parent_id":"864555","long":27.183330000000001547277861391194164752960205078125},"3":{"id":"728790","label":"Obshtina Nikola-Kozlevo","value":"728790","lat":43.58332999999999657347871107049286365509033203125,"lon":27.266670000000001294893081649206578731536865234375,"poi_name":"Obshtina Nikola-Kozlevo","parent_id":"864555","long":27.266670000000001294893081649206578731536865234375},"4":{"id":"728733","label":"Obshtina Novi Pazar","value":"728733","lat":43.41667000000000342652128892950713634490966796875,"lon":27.21667000000000058435034588910639286041259765625,"poi_name":"Obshtina Novi Pazar","parent_id":"864555","long":27.21667000000000058435034588910639286041259765625},"5":{"id":"727232","label":"Obshtina Shumen","value":"727232","lat":43.26666999999999774217940284870564937591552734375,"lon":26.983329999999998705106918350793421268463134765625,"poi_name":"Obshtina Shumen","parent_id":"864555","long":26.983329999999998705106918350793421268463134765625},"6":{"id":"727023","label":"Obshtina Smyadovo","value":"727023","lat":43.0499999999999971578290569595992565155029296875,"lon":27.050000000000000710542735760100185871124267578125,"poi_name":"Obshtina Smyadovo","parent_id":"864555","long":27.050000000000000710542735760100185871124267578125},"7":{"id":"725644","label":"Obshtina Varbitsa","value":"725644","lat":43.01666999999999774217940284870564937591552734375,"lon":26.75,"poi_name":"Obshtina Varbitsa","parent_id":"864555","long":26.75},"8":{"id":"727986","label":"Obshtina Veliki Preslav","value":"727986","lat":43.1833299999999979945641825906932353973388671875,"lon":26.8666699999999991632648743689060211181640625,"poi_name":"Obshtina Veliki Preslav","parent_id":"864555","long":26.8666699999999991632648743689060211181640625},"9":{"id":"725966","label":"Obshtina Venets","value":"725966","lat":43.5499999999999971578290569595992565155029296875,"lon":26.933330000000001547277861391194164752960205078125,"poi_name":"Obshtina Venets","parent_id":"864555","long":26.933330000000001547277861391194164752960205078125}}