{"success":true,"remaining_lookups":8141,"0":{"id":"1731616","label":"Province of Albay","value":"1731616","lat":13.21667000000000058435034588910639286041259765625,"lon":123.5499999999999971578290569595992565155029296875,"poi_name":"Province of Albay","parent_id":"7521310","long":123.5499999999999971578290569595992565155029296875},"1":{"id":"1719846","label":"Province of Camarines Norte","value":"1719846","lat":14.166669999999999873807610129006206989288330078125,"lon":122.75,"poi_name":"Province of Camarines Norte","parent_id":"7521310","long":122.75},"2":{"id":"1719845","label":"Province of Camarines Sur","value":"1719845","lat":13.666669999999999873807610129006206989288330078125,"lon":123.3333300000000036789060686714947223663330078125,"poi_name":"Province of Camarines Sur","parent_id":"7521310","long":123.3333300000000036789060686714947223663330078125},"3":{"id":"1717952","label":"Province of Catanduanes","value":"1717952","lat":13.833330000000000126192389870993793010711669921875,"lon":124.25,"poi_name":"Province of Catanduanes","parent_id":"7521310","long":124.25},"4":{"id":"1700711","label":"Province of Masbate","value":"1700711","lat":12.166669999999999873807610129006206989288330078125,"lon":123.5833300000000036789060686714947223663330078125,"poi_name":"Province of Masbate","parent_id":"7521310","long":123.5833300000000036789060686714947223663330078125},"5":{"id":"1685754","label":"Province of Sorsogon","value":"1685754","lat":12.833330000000000126192389870993793010711669921875,"lon":123.9166699999999963210939313285052776336669921875,"poi_name":"Province of Sorsogon","parent_id":"7521310","long":123.9166699999999963210939313285052776336669921875}}