{"success":true,"remaining_lookups":8130,"0":{"id":"11395835","label":"Capital District","value":"11395835","lat":14.5982000000000002870592652470804750919342041015625,"lon":120.989859999999993078745319508016109466552734375,"poi_name":"Capital District","parent_id":"7521311","long":120.989859999999993078745319508016109466552734375},"1":{"id":"11395836","label":"Eastern Manila District","value":"11395836","lat":14.58042999999999977944753482006490230560302734375,"lon":121.0837599999999980582288117147982120513916015625,"poi_name":"Eastern Manila District","parent_id":"7521311","long":121.0837599999999980582288117147982120513916015625},"2":{"id":"1699076","label":"Muntinlupa","value":"1699076","lat":14.390280000000000626414475846104323863983154296875,"lon":121.0474999999999994315658113919198513031005859375,"poi_name":"Muntinlupa","parent_id":"7521311","long":121.0474999999999994315658113919198513031005859375},"3":{"id":"11395837","label":"Northern Manila District","value":"11395837","lat":14.7342099999999991410959410131908953189849853515625,"lon":121.0133699999999947749529383145272731781005859375,"poi_name":"Northern Manila District","parent_id":"7521311","long":121.0133699999999947749529383145272731781005859375},"4":{"id":"11395838","label":"Southern Manila District","value":"11395838","lat":14.5184499999999996333599483477883040904998779296875,"lon":121.02881999999999607098288834095001220703125,"poi_name":"Southern Manila District","parent_id":"7521311","long":121.02881999999999607098288834095001220703125}}