{"success":true,"remaining_lookups":8290,"0":{"id":"8633656","label":"Bakori","value":"8633656","lat":11.63983999999999952024154481478035449981689453125,"lon":7.42875999999999958589569359901361167430877685546875,"poi_name":"Bakori","parent_id":"2334797","long":7.42875999999999958589569359901361167430877685546875},"1":{"id":"8633554","label":"Batagarawa","value":"8633554","lat":12.893769999999999953388396534137427806854248046875,"lon":7.60653000000000023561597117804922163486480712890625,"poi_name":"Batagarawa","parent_id":"2334797","long":7.60653000000000023561597117804922163486480712890625},"2":{"id":"8633551","label":"Batsari","value":"8633551","lat":12.7793100000000006133404895081184804439544677734375,"lon":7.23449999999999970867747833835892379283905029296875,"poi_name":"Batsari","parent_id":"2334797","long":7.23449999999999970867747833835892379283905029296875},"3":{"id":"8633564","label":"Baure","value":"8633564","lat":12.788850000000000051159076974727213382720947265625,"lon":8.789139999999999730562194599770009517669677734375,"poi_name":"Baure","parent_id":"2334797","long":8.789139999999999730562194599770009517669677734375},"4":{"id":"8633557","label":"Bindawa","value":"8633557","lat":12.7108000000000007645439836778677999973297119140625,"lon":7.83199000000000022936319510336033999919891357421875,"poi_name":"Bindawa","parent_id":"2334797","long":7.83199000000000022936319510336033999919891357421875},"5":{"id":"8633644","label":"Charanchi","value":"8633644","lat":12.601530000000000342197381542064249515533447265625,"lon":7.6836999999999999744204615126363933086395263671875,"poi_name":"Charanchi","parent_id":"2334797","long":7.6836999999999999744204615126363933086395263671875},"6":{"id":"8633647","label":"Dan Musa","value":"8633647","lat":12.232169999999999987494447850622236728668212890625,"lon":7.32960999999999973653075358015485107898712158203125,"poi_name":"Dan Musa","parent_id":"2334797","long":7.32960999999999973653075358015485107898712158203125},"7":{"id":"8633670","label":"Dandume","value":"8633670","lat":11.412819999999999964757080306299030780792236328125,"lon":7.19043999999999972061459629912860691547393798828125,"poi_name":"Dandume","parent_id":"2334797","long":7.19043999999999972061459629912860691547393798828125},"8":{"id":"8633691","label":"Danja","value":"8633691","lat":11.3954199999999996606447894009761512279510498046875,"lon":7.548799999999999954525264911353588104248046875,"poi_name":"Danja","parent_id":"2334797","long":7.548799999999999954525264911353588104248046875},"9":{"id":"8633560","label":"Daura","value":"8633560","lat":12.9819499999999994344079823349602520465850830078125,"lon":8.251599999999999823785401531495153903961181640625,"poi_name":"Daura","parent_id":"2334797","long":8.251599999999999823785401531495153903961181640625},"10":{"id":"8633561","label":"Dutsi","value":"8633561","lat":12.9128500000000006053824108676053583621978759765625,"lon":8.1485199999999995412736097932793200016021728515625,"poi_name":"Dutsi","parent_id":"2334797","long":8.1485199999999995412736097932793200016021728515625},"11":{"id":"8633645","label":"Dutsin Ma","value":"8633645","lat":12.4541100000000000136424205265939235687255859375,"lon":7.52240999999999981895371092832647264003753662109375,"poi_name":"Dutsin Ma","parent_id":"2334797","long":7.52240999999999981895371092832647264003753662109375},"12":{"id":"8633658","label":"Faskari","value":"8633658","lat":11.67549999999999954525264911353588104248046875,"lon":7.086059999999999803321770741604268550872802734375,"poi_name":"Faskari","parent_id":"2334797","long":7.086059999999999803321770741604268550872802734375},"13":{"id":"8633671","label":"Funtua","value":"8633671","lat":11.471959999999999268993633450008928775787353515625,"lon":7.30698999999999987409182722331024706363677978515625,"poi_name":"Funtua","parent_id":"2334797","long":7.30698999999999987409182722331024706363677978515625},"14":{"id":"8633642","label":"Ingawa","value":"8633642","lat":12.62407999999999930196281638927757740020751953125,"lon":8.0513899999999996026645021629519760608673095703125,"poi_name":"Ingawa","parent_id":"2334797","long":8.0513899999999996026645021629519760608673095703125},"15":{"id":"8633550","label":"Jibia","value":"8633550","lat":13.040330000000000865156835061497986316680908203125,"lon":7.2891300000000001091393642127513885498046875,"poi_name":"Jibia","parent_id":"2334797","long":7.2891300000000001091393642127513885498046875},"16":{"id":"8633654","label":"Kafur","value":"8633654","lat":11.6737599999999996924771039630286395549774169921875,"lon":7.6897099999999998232169673428870737552642822265625,"poi_name":"Kafur","parent_id":"2334797","long":7.6897099999999998232169673428870737552642822265625},"17":{"id":"8633553","label":"Kaita","value":"8633553","lat":13.171559999999999490682967007160186767578125,"lon":7.72797999999999962739138936740346252918243408203125,"poi_name":"Kaita","parent_id":"2334797","long":7.72797999999999962739138936740346252918243408203125},"18":{"id":"8633652","label":"Kankara","value":"8633652","lat":11.973839999999999150759322219528257846832275390625,"lon":7.3626599999999999823785401531495153903961181640625,"poi_name":"Kankara","parent_id":"2334797","long":7.3626599999999999823785401531495153903961181640625},"19":{"id":"7729910","label":"Kankia","value":"7729910","lat":12.46667000000000058435034588910639286041259765625,"lon":7.79999999999999982236431605997495353221893310546875,"poi_name":"Kankia","parent_id":"2334797","long":7.79999999999999982236431605997495353221893310546875},"20":{"id":"8633552","label":"Katsina","value":"8633552","lat":13.005639999999999645297066308557987213134765625,"lon":7.61432999999999982065901349415071308612823486328125,"poi_name":"Katsina","parent_id":"2334797","long":7.61432999999999982065901349415071308612823486328125},"21":{"id":"8633556","label":"Kurfi","value":"8633556","lat":12.7099299999999999499777914024889469146728515625,"lon":7.46257000000000036976643968955613672733306884765625,"poi_name":"Kurfi","parent_id":"2334797","long":7.46257000000000036976643968955613672733306884765625},"22":{"id":"8633643","label":"Kusada","value":"8633643","lat":12.45758000000000009777068044058978557586669921875,"lon":7.9785500000000002529532139305956661701202392578125,"poi_name":"Kusada","parent_id":"2334797","long":7.9785500000000002529532139305956661701202392578125},"23":{"id":"7729911","label":"Mai'Adua","value":"7729911","lat":13.1905599999999996185806594439782202243804931640625,"lon":8.2116699999999998027533365529961884021759033203125,"poi_name":"Mai'Adua","parent_id":"2334797","long":8.2116699999999998027533365529961884021759033203125},"24":{"id":"8633653","label":"Malumfashi","value":"8633653","lat":11.85922000000000053887561080045998096466064453125,"lon":7.65594999999999981099563228781335055828094482421875,"poi_name":"Malumfashi","parent_id":"2334797","long":7.65594999999999981099563228781335055828094482421875},"25":{"id":"8633558","label":"Mani","value":"8633558","lat":12.8781599999999993855226421146653592586517333984375,"lon":7.92565000000000008384404281969182193279266357421875,"poi_name":"Mani","parent_id":"2334797","long":7.92565000000000008384404281969182193279266357421875},"26":{"id":"8633559","label":"Mashi","value":"8633559","lat":13.1322500000000008668621376273222267627716064453125,"lon":7.9932900000000000062527760746888816356658935546875,"poi_name":"Mashi","parent_id":"2334797","long":7.9932900000000000062527760746888816356658935546875},"27":{"id":"8633649","label":"Matazu","value":"8633649","lat":12.258990000000000719637682777829468250274658203125,"lon":7.61779999999999990478727340814657509326934814453125,"poi_name":"Matazu","parent_id":"2334797","long":7.61779999999999990478727340814657509326934814453125},"28":{"id":"8633651","label":"Musawa","value":"8633651","lat":12.0846900000000001540456651127897202968597412109375,"lon":7.68890999999999991132426657713949680328369140625,"poi_name":"Musawa","parent_id":"2334797","long":7.68890999999999991132426657713949680328369140625},"29":{"id":"8633555","label":"Rimi","value":"8633555","lat":12.8392999999999997129407347529195249080657958984375,"lon":7.6931799999999999073452272568829357624053955078125,"poi_name":"Rimi","parent_id":"2334797","long":7.6931799999999999073452272568829357624053955078125},"30":{"id":"7729912","label":"Sabuwa","value":"7729912","lat":11.300000000000000710542735760100185871124267578125,"lon":7.11667000000000005144329406903125345706939697265625,"poi_name":"Sabuwa","parent_id":"2334797","long":7.11667000000000005144329406903125345706939697265625},"31":{"id":"8633646","label":"Safana","value":"8633646","lat":12.4948700000000005871925168321467936038970947265625,"lon":7.25271000000000043428372009657323360443115234375,"poi_name":"Safana","parent_id":"2334797","long":7.25271000000000043428372009657323360443115234375},"32":{"id":"8633562","label":"Sandamu","value":"8633562","lat":12.897240000000000037516656448133289813995361328125,"lon":8.3635800000000006804157237638719379901885986328125,"poi_name":"Sandamu","parent_id":"2334797","long":8.3635800000000006804157237638719379901885986328125},"33":{"id":"8633563","label":"Zango","value":"8633563","lat":12.9310600000000004428102329256944358348846435546875,"lon":8.532679999999999154169927351176738739013671875,"poi_name":"Zango","parent_id":"2334797","long":8.532679999999999154169927351176738739013671875}}