{"success":true,"remaining_lookups":8292,"0":{"id":"7910313","label":"Birnin Gwari","value":"7910313","lat":10.826119999999999521378413191996514797210693359375,"lon":6.65505000000000013216094885137863457202911376953125,"poi_name":"Birnin Gwari","parent_id":"2335722","long":6.65505000000000013216094885137863457202911376953125},"1":{"id":"7871251","label":"Chikun","value":"7871251","lat":10.3149999999999995026200849679298698902130126953125,"lon":7.27400000000000002131628207280300557613372802734375,"poi_name":"Chikun","parent_id":"2335722","long":7.27400000000000002131628207280300557613372802734375},"2":{"id":"7932490","label":"Giwa","value":"7932490","lat":11.12077000000000026602720026858150959014892578125,"lon":7.4056499999999996219912645756267011165618896484375,"poi_name":"Giwa","parent_id":"2335722","long":7.4056499999999996219912645756267011165618896484375},"3":{"id":"7871252","label":"Igabi","value":"7871252","lat":10.7810000000000005826450433232821524143218994140625,"lon":7.5039999999999995594635038287378847599029541015625,"poi_name":"Igabi","parent_id":"2335722","long":7.5039999999999995594635038287378847599029541015625},"4":{"id":"8634546","label":"Ikara","value":"8634546","lat":11.247550000000000380850906367413699626922607421875,"lon":8.20027999999999934743755147792398929595947265625,"poi_name":"Ikara","parent_id":"2335722","long":8.20027999999999934743755147792398929595947265625},"5":{"id":"8634602","label":"Jaba","value":"8634602","lat":9.4818499999999996674659996642731130123138427734375,"lon":8.04372000000000042518877307884395122528076171875,"poi_name":"Jaba","parent_id":"2335722","long":8.04372000000000042518877307884395122528076171875},"6":{"id":"8634542","label":"Jema'A","value":"8634542","lat":9.382690000000000196678229258395731449127197265625,"lon":8.2681299999999993133315001614391803741455078125,"poi_name":"Jema'A","parent_id":"2335722","long":8.2681299999999993133315001614391803741455078125},"7":{"id":"7871250","label":"Kachia","value":"7871250","lat":9.8499999999999996447286321199499070644378662109375,"lon":7.55999999999999960920149533194489777088165283203125,"poi_name":"Kachia","parent_id":"2335722","long":7.55999999999999960920149533194489777088165283203125},"8":{"id":"7871255","label":"Kaduna North","value":"7871255","lat":10.5679999999999996163069226895458996295928955078125,"lon":7.4519999999999999573674358543939888477325439453125,"poi_name":"Kaduna North","parent_id":"2335722","long":7.4519999999999999573674358543939888477325439453125},"9":{"id":"7871253","label":"Kaduna South","value":"7871253","lat":10.467999999999999971578290569595992565155029296875,"lon":7.42100000000000026290081223123706877231597900390625,"poi_name":"Kaduna South","parent_id":"2335722","long":7.42100000000000026290081223123706877231597900390625},"10":{"id":"7871249","label":"Kagarko","value":"7871249","lat":9.4369999999999993889332472463138401508331298828125,"lon":7.5769999999999999573674358543939888477325439453125,"poi_name":"Kagarko","parent_id":"2335722","long":7.5769999999999999573674358543939888477325439453125},"11":{"id":"8634545","label":"Kajuru","value":"8634545","lat":10.27703999999999950887286104261875152587890625,"lon":7.85782999999999987039700499735772609710693359375,"poi_name":"Kajuru","parent_id":"2335722","long":7.85782999999999987039700499735772609710693359375},"12":{"id":"8634541","label":"Kaura","value":"8634541","lat":9.612320000000000419504431192763149738311767578125,"lon":8.4699200000000001153921402874402701854705810546875,"poi_name":"Kaura","parent_id":"2335722","long":8.4699200000000001153921402874402701854705810546875},"13":{"id":"8634544","label":"Kauru","value":"8634544","lat":10.2298799999999996401811586110852658748626708984375,"lon":8.294219999999999259898686432279646396636962890625,"poi_name":"Kauru","parent_id":"2335722","long":8.294219999999999259898686432279646396636962890625},"14":{"id":"8634565","label":"Kuban","value":"8634565","lat":10.87875999999999976353137753903865814208984375,"lon":8.3829399999999996140331859351135790348052978515625,"poi_name":"Kuban","parent_id":"2335722","long":8.3829399999999996140331859351135790348052978515625},"15":{"id":"7871259","label":"Kudan","value":"7871259","lat":11.272999999999999687361196265555918216705322265625,"lon":7.79900000000000037658764995285309851169586181640625,"poi_name":"Kudan","parent_id":"2335722","long":7.79900000000000037658764995285309851169586181640625},"16":{"id":"8634543","label":"Lere","value":"8634543","lat":10.3464299999999997936583895352669060230255126953125,"lon":8.5673399999999997334043655428104102611541748046875,"poi_name":"Lere","parent_id":"2335722","long":8.5673399999999997334043655428104102611541748046875},"17":{"id":"7871254","label":"Makarfi","value":"7871254","lat":11.2979500000000001591615728102624416351318359375,"lon":7.9691700000000000869704308570362627506256103515625,"poi_name":"Makarfi","parent_id":"2335722","long":7.9691700000000000869704308570362627506256103515625},"18":{"id":"7871258","label":"Sabon Gari","value":"7871258","lat":11.1639999999999997015720509807579219341278076171875,"lon":7.69700000000000006394884621840901672840118408203125,"poi_name":"Sabon Gari","parent_id":"2335722","long":7.69700000000000006394884621840901672840118408203125},"19":{"id":"7910314","label":"Sanga","value":"7910314","lat":9.25,"lon":8.449999999999999289457264239899814128875732421875,"poi_name":"Sanga","parent_id":"2335722","long":8.449999999999999289457264239899814128875732421875},"20":{"id":"7910322","label":"Soba","value":"7910322","lat":10.8700500000000008782308213994838297367095947265625,"lon":7.96443000000000012050804798491299152374267578125,"poi_name":"Soba","parent_id":"2335722","long":7.96443000000000012050804798491299152374267578125},"21":{"id":"8634540","label":"Zangon Kataf","value":"8634540","lat":9.8409999999999993036681189551018178462982177734375,"lon":8.2549100000000006360778570524416863918304443359375,"poi_name":"Zangon Kataf","parent_id":"2335722","long":8.2549100000000006360778570524416863918304443359375},"22":{"id":"7871257","label":"Zaria","value":"7871257","lat":10.98854000000000041836756281554698944091796875,"lon":7.696220000000000283080225926823914051055908203125,"poi_name":"Zaria","parent_id":"2335722","long":7.696220000000000283080225926823914051055908203125}}