{"success":true,"remaining_lookups":8294,"0":{"id":"7729947","label":"Aboh-Mbaise","value":"7729947","lat":5.425489999999999923829818726517260074615478515625,"lon":7.25180000000000024584778657299466431140899658203125,"poi_name":"Aboh-Mbaise","parent_id":"2337542","long":7.25180000000000024584778657299466431140899658203125},"1":{"id":"7729948","label":"Ahiazu-Mbaise","value":"7729948","lat":5.54638999999999970924591252696700394153594970703125,"lon":7.2713499999999999801048033987171947956085205078125,"poi_name":"Ahiazu-Mbaise","parent_id":"2337542","long":7.2713499999999999801048033987171947956085205078125},"2":{"id":"7729949","label":"Ehime -Mbano","value":"7729949","lat":5.66490999999999989000798450433649122714996337890625,"lon":7.30304000000000019809931472991593182086944580078125,"poi_name":"Ehime -Mbano","parent_id":"2337542","long":7.30304000000000019809931472991593182086944580078125},"3":{"id":"8638291","label":"Ezinihitte","value":"8638291","lat":5.47876000000000029643842935911379754543304443359375,"lon":7.32626000000000043854697651113383471965789794921875,"poi_name":"Ezinihitte","parent_id":"2337542","long":7.32626000000000043854697651113383471965789794921875},"4":{"id":"8638293","label":"Ideato North","value":"8638293","lat":5.8853699999999999903366187936626374721527099609375,"lon":7.13135999999999992127186487778089940547943115234375,"poi_name":"Ideato North","parent_id":"2337542","long":7.13135999999999992127186487778089940547943115234375},"5":{"id":"8638294","label":"Ideato South","value":"8638294","lat":5.8060799999999996856558936997316777706146240234375,"lon":7.13905999999999973937292452319525182247161865234375,"poi_name":"Ideato South","parent_id":"2337542","long":7.13905999999999973937292452319525182247161865234375},"6":{"id":"7729951","label":"Ihitte\/Uboma","value":"7729951","lat":5.6218199999999995952748577110469341278076171875,"lon":7.365249999999999630517777404747903347015380859375,"poi_name":"Ihitte\/Uboma","parent_id":"2337542","long":7.365249999999999630517777404747903347015380859375},"7":{"id":"8638290","label":"Ikeduru","value":"8638290","lat":5.567949999999999732835931354202330112457275390625,"lon":7.1533800000000002938804755103774368762969970703125,"poi_name":"Ikeduru","parent_id":"2337542","long":7.1533800000000002938804755103774368762969970703125},"8":{"id":"7729952","label":"Isiala Mbano","value":"7729952","lat":5.66767000000000020776269593625329434871673583984375,"lon":7.20338000000000011624479157035239040851593017578125,"poi_name":"Isiala Mbano","parent_id":"2337542","long":7.20338000000000011624479157035239040851593017578125},"9":{"id":"8638327","label":"Isu","value":"8638327","lat":5.6882599999999996498445398174226284027099609375,"lon":7.05647999999999964160224408260546624660491943359375,"poi_name":"Isu","parent_id":"2337542","long":7.05647999999999964160224408260546624660491943359375},"10":{"id":"9485478","label":"Mbaitoli Local Government Area","value":"9485478","lat":5.58997999999999972686737237381748855113983154296875,"lon":7.02123999999999970356157064088620245456695556640625,"poi_name":"Mbaitoli Local Government Area","parent_id":"2337542","long":7.02123999999999970356157064088620245456695556640625},"11":{"id":"7729953","label":"Mbatoli","value":"7729953","lat":5.589529999999999887450030655600130558013916015625,"lon":7.03938000000000041467274058959446847438812255859375,"poi_name":"Mbatoli","parent_id":"2337542","long":7.03938000000000041467274058959446847438812255859375},"12":{"id":"8638163","label":"Ngor-Okpala","value":"8638163","lat":5.320190000000000196678229258395731449127197265625,"lon":7.158879999999999910187398199923336505889892578125,"poi_name":"Ngor-Okpala","parent_id":"2337542","long":7.158879999999999910187398199923336505889892578125},"13":{"id":"7729955","label":"Njaba","value":"7729955","lat":5.70586999999999999744204615126363933086395263671875,"lon":7.0082100000000000505906427861191332340240478515625,"poi_name":"Njaba","parent_id":"2337542","long":7.0082100000000000505906427861191332340240478515625},"14":{"id":"8638328","label":"Nkwerre","value":"8638328","lat":5.75321999999999977859488353715278208255767822265625,"lon":7.10602999999999962454921842436306178569793701171875,"poi_name":"Nkwerre","parent_id":"2337542","long":7.10602999999999962454921842436306178569793701171875},"15":{"id":"8638329","label":"Nwangele","value":"8638329","lat":5.71028000000000002245315045001916587352752685546875,"lon":7.1258499999999997953636921010911464691162109375,"poi_name":"Nwangele","parent_id":"2337542","long":7.1258499999999997953636921010911464691162109375},"16":{"id":"7729956","label":"Obowo","value":"7729956","lat":5.54926999999999992496668710373342037200927734375,"lon":7.36010000000000008668621376273222267627716064453125,"poi_name":"Obowo","parent_id":"2337542","long":7.36010000000000008668621376273222267627716064453125},"17":{"id":"8638162","label":"Oguta","value":"8638162","lat":5.66926000000000041012526708072982728481292724609375,"lon":6.79990000000000005542233338928781449794769287109375,"poi_name":"Oguta","parent_id":"2337542","long":6.79990000000000005542233338928781449794769287109375},"18":{"id":"7729957","label":"Ohaji\/Egbema","value":"7729957","lat":5.40237000000000033850255931611172854900360107421875,"lon":6.824510000000000076170181273482739925384521484375,"poi_name":"Ohaji\/Egbema","parent_id":"2337542","long":6.824510000000000076170181273482739925384521484375},"19":{"id":"7729958","label":"Okigwe","value":"7729958","lat":5.81088000000000004519051799434237182140350341796875,"lon":7.3255900000000000460431692772544920444488525390625,"poi_name":"Okigwe","parent_id":"2337542","long":7.3255900000000000460431692772544920444488525390625},"20":{"id":"8638292","label":"Orlu","value":"8638292","lat":5.80717999999999978655296217766590416431427001953125,"lon":7.0388599999999996725819073617458343505859375,"poi_name":"Orlu","parent_id":"2337542","long":7.0388599999999996725819073617458343505859375},"21":{"id":"7729959","label":"Orsu","value":"7729959","lat":5.861489999999999866986399865709245204925537109375,"lon":6.99758999999999975472064761561341583728790283203125,"poi_name":"Orsu","parent_id":"2337542","long":6.99758999999999975472064761561341583728790283203125},"22":{"id":"7729960","label":"Oru East","value":"7729960","lat":5.7055699999999998084376784390769898891448974609375,"lon":6.96014999999999961488583721802569925785064697265625,"poi_name":"Oru East","parent_id":"2337542","long":6.96014999999999961488583721802569925785064697265625},"23":{"id":"7729961","label":"Oru West","value":"7729961","lat":5.74223999999999978882669893209822475910186767578125,"lon":6.91092999999999957339014144963584840297698974609375,"poi_name":"Oru West","parent_id":"2337542","long":6.91092999999999957339014144963584840297698974609375},"24":{"id":"8638164","label":"Owerri Municipal","value":"8638164","lat":5.47656000000000009464429240324534475803375244140625,"lon":7.01682999999999967855046634213067591190338134765625,"poi_name":"Owerri Municipal","parent_id":"2337542","long":7.01682999999999967855046634213067591190338134765625},"25":{"id":"8638331","label":"Owerri North","value":"8638331","lat":5.456739999999999923829818726517260074615478515625,"lon":7.10273000000000021003643269068561494350433349609375,"poi_name":"Owerri North","parent_id":"2337542","long":7.10273000000000021003643269068561494350433349609375},"26":{"id":"7729962","label":"Owerri West","value":"7729962","lat":5.43226000000000031064928407431580126285552978515625,"lon":6.98041000000000000369482222595252096652984619140625,"poi_name":"Owerri West","parent_id":"2337542","long":6.98041000000000000369482222595252096652984619140625},"27":{"id":"7729964","label":"Unuimo","value":"7729964","lat":5.77362999999999981781684255111031234264373779296875,"lon":7.24110000000000031405988920596428215503692626953125,"poi_name":"Unuimo","parent_id":"2337542","long":7.24110000000000031405988920596428215503692626953125}}