{"success":true,"remaining_lookups":8304,"0":{"id":"8659760","label":"Ado","value":"8659760","lat":6.79933999999999993946175891323946416378021240234375,"lon":8.0054099999999994707877704058773815631866455078125,"poi_name":"Ado","parent_id":"2347266","long":8.0054099999999994707877704058773815631866455078125},"1":{"id":"7730398","label":"Agatu","value":"7730398","lat":7.9061000000000003495870259939692914485931396484375,"lon":7.8548700000000000187583282240666449069976806640625,"poi_name":"Agatu","parent_id":"2347266","long":7.8548700000000000187583282240666449069976806640625},"2":{"id":"8659758","label":"Apa","value":"8659758","lat":7.62962000000000006849631972727365791797637939453125,"lon":7.871069999999999566853148280642926692962646484375,"poi_name":"Apa","parent_id":"2347266","long":7.871069999999999566853148280642926692962646484375},"3":{"id":"7729994","label":"Bukuru","value":"7729994","lat":7.46666999999999969617192618898116052150726318359375,"lon":9.199999999999999289457264239899814128875732421875,"poi_name":"Bukuru","parent_id":"2347266","long":9.199999999999999289457264239899814128875732421875},"4":{"id":"9485483","label":"Buruku Local Government Area","value":"9485483","lat":7.365339999999999776036929688416421413421630859375,"lon":9.2607400000000001938360583153553307056427001953125,"poi_name":"Buruku Local Government Area","parent_id":"2347266","long":9.2607400000000001938360583153553307056427001953125},"5":{"id":"7729995","label":"Gboko","value":"7729995","lat":7.316159999999999996589394868351519107818603515625,"lon":8.901669999999999305373421520926058292388916015625,"poi_name":"Gboko","parent_id":"2347266","long":8.901669999999999305373421520926058292388916015625},"6":{"id":"7729904","label":"Guma","value":"7729904","lat":7.96666999999999969617192618898116052150726318359375,"lon":8.7666699999999995185362422489561140537261962890625,"poi_name":"Guma","parent_id":"2347266","long":8.7666699999999995185362422489561140537261962890625},"7":{"id":"7729905","label":"Gwer East","value":"7729905","lat":7.29999999999999982236431605997495353221893310546875,"lon":8.4833300000000004814637577510438859462738037109375,"poi_name":"Gwer East","parent_id":"2347266","long":8.4833300000000004814637577510438859462738037109375},"8":{"id":"7730399","label":"Gwer West","value":"7730399","lat":7.63210999999999994969357430818490684032440185546875,"lon":8.2165599999999994196286934311501681804656982421875,"poi_name":"Gwer West","parent_id":"2347266","long":8.2165599999999994196286934311501681804656982421875},"9":{"id":"7932511","label":"Katsina-Ala","value":"7932511","lat":7.28960000000000007958078640513122081756591796875,"lon":9.55330000000000012505552149377763271331787109375,"poi_name":"Katsina-Ala","parent_id":"2347266","long":9.55330000000000012505552149377763271331787109375},"10":{"id":"7730400","label":"Konshisha","value":"7730400","lat":7.02993000000000023419488570652902126312255859375,"lon":8.66037000000000034560798667371273040771484375,"poi_name":"Konshisha","parent_id":"2347266","long":8.66037000000000034560798667371273040771484375},"11":{"id":"7730000","label":"Kwande","value":"7730000","lat":6.80098999999999964671815178007818758487701416015625,"lon":9.4702099999999997947952579124830663204193115234375,"poi_name":"Kwande","parent_id":"2347266","long":9.4702099999999997947952579124830663204193115234375},"12":{"id":"7729906","label":"Logo","value":"7729906","lat":7.68921999999999972175146467634476721286773681640625,"lon":9.2504899999999992132870829664170742034912109375,"poi_name":"Logo","parent_id":"2347266","long":9.2504899999999992132870829664170742034912109375},"13":{"id":"9485482","label":"Makurdi Local Government Area","value":"9485482","lat":7.73752999999999957481122692115604877471923828125,"lon":8.5229599999999994253130353172309696674346923828125,"poi_name":"Makurdi Local Government Area","parent_id":"2347266","long":8.5229599999999994253130353172309696674346923828125},"14":{"id":"7932059","label":"Markurdi","value":"7932059","lat":7.7042000000000001591615728102624416351318359375,"lon":8.5358800000000005780975698144175112247467041015625,"poi_name":"Markurdi","parent_id":"2347266","long":8.5358800000000005780975698144175112247467041015625},"15":{"id":"8659761","label":"Obi","value":"8659761","lat":7.021770000000000067075234255753457546234130859375,"lon":8.2939199999999999590727384202182292938232421875,"poi_name":"Obi","parent_id":"2347266","long":8.2939199999999999590727384202182292938232421875},"16":{"id":"7729907","label":"Ogbadibo","value":"7729907","lat":7.0892099999999995674215824692510068416595458984375,"lon":7.64989000000000007872813512221910059452056884765625,"poi_name":"Ogbadibo","parent_id":"2347266","long":7.64989000000000007872813512221910059452056884765625},"17":{"id":"7932061","label":"Ohimini","value":"7932061","lat":7.2074400000000000687805368215776979923248291015625,"lon":7.949889999999999901092451182194054126739501953125,"poi_name":"Ohimini","parent_id":"2347266","long":7.949889999999999901092451182194054126739501953125},"18":{"id":"8659762","label":"Oju","value":"8659762","lat":6.85879999999999956372676024329848587512969970703125,"lon":8.3820099999999992945731719373725354671478271484375,"poi_name":"Oju","parent_id":"2347266","long":8.3820099999999992945731719373725354671478271484375},"19":{"id":"7932062","label":"Okpokwu","value":"7932062","lat":7.0109399999999997277200236567296087741851806640625,"lon":7.8510200000000001097077984013594686985015869140625,"poi_name":"Okpokwu","parent_id":"2347266","long":7.8510200000000001097077984013594686985015869140625},"20":{"id":"7932060","label":"Oturkpo","value":"7932060","lat":7.30736000000000007759126674500294029712677001953125,"lon":8.0749399999999997845634425175376236438751220703125,"poi_name":"Oturkpo","parent_id":"2347266","long":8.0749399999999997845634425175376236438751220703125},"21":{"id":"8659759","label":"Tarka","value":"8659759","lat":7.62080999999999963989694151678122580051422119140625,"lon":8.8819400000000001682565198279917240142822265625,"poi_name":"Tarka","parent_id":"2347266","long":8.8819400000000001682565198279917240142822265625},"22":{"id":"8659763","label":"Ukum","value":"8659763","lat":7.64393000000000011340262062731198966503143310546875,"lon":9.5635600000000007270273272297345101833343505859375,"poi_name":"Ukum","parent_id":"2347266","long":9.5635600000000007270273272297345101833343505859375},"23":{"id":"7730401","label":"Ushongo","value":"7730401","lat":7.044109999999999871533873374573886394500732421875,"lon":9.0887100000000007327116691158153116703033447265625,"poi_name":"Ushongo","parent_id":"2347266","long":9.0887100000000007327116691158153116703033447265625},"24":{"id":"7729908","label":"Vandeikya","value":"7729908","lat":6.82814000000000032031266528065316379070281982421875,"lon":9.059039999999999537294570473022758960723876953125,"poi_name":"Vandeikya","parent_id":"2347266","long":9.059039999999999537294570473022758960723876953125}}