{"success":true,"remaining_lookups":8296,"0":{"id":"8634966","label":"Abaji","value":"8634966","lat":8.8921200000000002461320036672987043857574462890625,"lon":6.81815999999999977632114678272046148777008056640625,"poi_name":"Abaji","parent_id":"2352776","long":6.81815999999999977632114678272046148777008056640625},"1":{"id":"7871247","label":"Bwari","value":"7871247","lat":9.217999999999999971578290569595992565155029296875,"lon":7.40800000000000036237679523765109479427337646484375,"poi_name":"Bwari","parent_id":"2352776","long":7.40800000000000036237679523765109479427337646484375},"2":{"id":"8634962","label":"Gwagwalada","value":"8634962","lat":9.076389999999999957935870043002068996429443359375,"lon":6.9854000000000002756905814749188721179962158203125,"poi_name":"Gwagwalada","parent_id":"2352776","long":6.9854000000000002756905814749188721179962158203125},"3":{"id":"8634971","label":"Kuje","value":"8634971","lat":8.6590100000000003177547114319168031215667724609375,"lon":7.2704599999999999226929503493010997772216796875,"poi_name":"Kuje","parent_id":"2352776","long":7.2704599999999999226929503493010997772216796875},"4":{"id":"8634970","label":"Kwali","value":"8634970","lat":8.735549999999999926103555480949580669403076171875,"lon":6.9677699999999997970689946669153869152069091796875,"poi_name":"Kwali","parent_id":"2352776","long":6.9677699999999997970689946669153869152069091796875},"5":{"id":"8635054","label":"Municipal Area Council","value":"8635054","lat":8.9999699999999993593746694386936724185943603515625,"lon":7.37830999999999992411403582082130014896392822265625,"poi_name":"Municipal Area Council","parent_id":"2352776","long":7.37830999999999992411403582082130014896392822265625}}