{"success":true,"remaining_lookups":8298,"0":{"id":"8636740","label":"Ado-Ekiti","value":"8636740","lat":7.612610000000000098907548817805945873260498046875,"lon":5.27383999999999986130205797962844371795654296875,"poi_name":"Ado-Ekiti","parent_id":"2595346","long":5.27383999999999986130205797962844371795654296875},"1":{"id":"8636730","label":"Efon","value":"8636730","lat":7.69575999999999993406163412146270275115966796875,"lon":4.93721000000000032059688237495720386505126953125,"poi_name":"Efon","parent_id":"2595346","long":4.93721000000000032059688237495720386505126953125},"2":{"id":"8636738","label":"Ekiti East","value":"8636738","lat":7.73529999999999962057017910410650074481964111328125,"lon":5.66927999999999965297092785476706922054290771484375,"poi_name":"Ekiti East","parent_id":"2595346","long":5.66927999999999965297092785476706922054290771484375},"3":{"id":"8636745","label":"Ekiti South-West","value":"8636745","lat":7.51325000000000020605739337042905390262603759765625,"lon":5.05178999999999955861085254582576453685760498046875,"poi_name":"Ekiti South-West","parent_id":"2595346","long":5.05178999999999955861085254582576453685760498046875},"4":{"id":"8636731","label":"Ekiti West","value":"8636731","lat":7.68663000000000007361222742474637925624847412109375,"lon":5.0284700000000004393996277940459549427032470703125,"poi_name":"Ekiti West","parent_id":"2595346","long":5.0284700000000004393996277940459549427032470703125},"5":{"id":"8636742","label":"Emure","value":"8636742","lat":7.43212999999999990308197084232233464717864990234375,"lon":5.51616999999999979564790919539518654346466064453125,"poi_name":"Emure","parent_id":"2595346","long":5.51616999999999979564790919539518654346466064453125},"6":{"id":"8636741","label":"Gbonyin","value":"8636741","lat":7.60653000000000023561597117804922163486480712890625,"lon":5.49894000000000016115109247039072215557098388671875,"poi_name":"Gbonyin","parent_id":"2595346","long":5.49894000000000016115109247039072215557098388671875},"7":{"id":"8636734","label":"Ido-Osi","value":"8636734","lat":7.86204000000000036152414395473897457122802734375,"lon":5.1886700000000001153921402874402701854705810546875,"poi_name":"Ido-Osi","parent_id":"2595346","long":5.1886700000000001153921402874402701854705810546875},"8":{"id":"8636732","label":"Ijero","value":"8636732","lat":7.845819999999999794226823723874986171722412109375,"lon":5.056860000000000354702933691442012786865234375,"poi_name":"Ijero","parent_id":"2595346","long":5.056860000000000354702933691442012786865234375},"9":{"id":"8636744","label":"Ikere","value":"8636744","lat":7.50208999999999992525090419803746044635772705078125,"lon":5.21806999999999998607336237910203635692596435546875,"poi_name":"Ikere","parent_id":"2595346","long":5.21806999999999998607336237910203635692596435546875},"10":{"id":"8636737","label":"Ikole","value":"8636737","lat":7.89346999999999976438402882195077836513519287109375,"lon":5.51109999999999988773424774990417063236236572265625,"poi_name":"Ikole","parent_id":"2595346","long":5.51109999999999988773424774990417063236236572265625},"11":{"id":"8636735","label":"Ilejemeje","value":"8636735","lat":7.9583700000000003882405508193187415599822998046875,"lon":5.237339999999999662350091966800391674041748046875,"poi_name":"Ilejemeje","parent_id":"2595346","long":5.237339999999999662350091966800391674041748046875},"12":{"id":"8636739","label":"Irepodun\/Ifelodun","value":"8636739","lat":7.716029999999999944293449516408145427703857421875,"lon":5.22923000000000026687985155149362981319427490234375,"poi_name":"Irepodun\/Ifelodun","parent_id":"2595346","long":5.22923000000000026687985155149362981319427490234375},"13":{"id":"8636743","label":"Ise\/Orun","value":"8636743","lat":7.44531000000000009464429240324534475803375244140625,"lon":5.39449999999999985078602549037896096706390380859375,"poi_name":"Ise\/Orun","parent_id":"2595346","long":5.39449999999999985078602549037896096706390380859375},"14":{"id":"8636733","label":"Moba","value":"8636733","lat":8.000949999999999562305674771778285503387451171875,"lon":5.1318900000000002847855284926481544971466064453125,"poi_name":"Moba","parent_id":"2595346","long":5.1318900000000002847855284926481544971466064453125},"15":{"id":"8636736","label":"Oye","value":"8636736","lat":7.88942000000000032144953365786932408809661865234375,"lon":5.3448200000000003484501576167531311511993408203125,"poi_name":"Oye","parent_id":"2595346","long":5.3448200000000003484501576167531311511993408203125}}