{"success":true,"remaining_lookups":8276,"0":{"id":"8659776","label":"Ardo-Kola","value":"8659776","lat":8.8035899999999998044586391188204288482666015625,"lon":11.1670700000000007179323802120052278041839599609375,"poi_name":"Ardo-Kola","parent_id":"2597366","long":11.1670700000000007179323802120052278041839599609375},"1":{"id":"8659779","label":"Bali","value":"8659779","lat":8.155409999999999826059138285927474498748779296875,"lon":10.9685299999999994469135344843380153179168701171875,"poi_name":"Bali","parent_id":"2597366","long":10.9685299999999994469135344843380153179168701171875},"2":{"id":"8659781","label":"Donga","value":"8659781","lat":7.590939999999999798774297232739627361297607421875,"lon":10.213300000000000267164068645797669887542724609375,"poi_name":"Donga","parent_id":"2597366","long":10.213300000000000267164068645797669887542724609375},"3":{"id":"8659786","label":"Gashaka","value":"8659786","lat":7.49945000000000039364067561109550297260284423828125,"lon":11.388960000000000860609361552633345127105712890625,"poi_name":"Gashaka","parent_id":"2597366","long":11.388960000000000860609361552633345127105712890625},"4":{"id":"8659778","label":"Gassol","value":"8659778","lat":8.47269000000000005456968210637569427490234375,"lon":10.544200000000000017053025658242404460906982421875,"poi_name":"Gassol","parent_id":"2597366","long":10.544200000000000017053025658242404460906982421875},"5":{"id":"8659777","label":"Ibi","value":"8659777","lat":8.350880000000000080717654782347381114959716796875,"lon":9.8873099999999993769961292855441570281982421875,"poi_name":"Ibi","parent_id":"2597366","long":9.8873099999999993769961292855441570281982421875},"6":{"id":"8659775","label":"Jalingo","value":"8659775","lat":8.919499999999999317878973670303821563720703125,"lon":11.3264200000000005985612006043083965778350830078125,"poi_name":"Jalingo","parent_id":"2597366","long":11.3264200000000005985612006043083965778350830078125},"7":{"id":"8659771","label":"Karim Lamido","value":"8659771","lat":9.2220800000000000551381162949837744235992431640625,"lon":10.8653600000000007952394298627041280269622802734375,"poi_name":"Karim Lamido","parent_id":"2597366","long":10.8653600000000007952394298627041280269622802734375},"8":{"id":"8659784","label":"Kurmi","value":"8659784","lat":7.2853399999999997049826561124064028263092041015625,"lon":10.5870200000000007634071153006516396999359130859375,"poi_name":"Kurmi","parent_id":"2597366","long":10.5870200000000007634071153006516396999359130859375},"9":{"id":"8659772","label":"Lau","value":"8659772","lat":9.187039999999999650981408194638788700103759765625,"lon":11.4201099999999993173105394816957414150238037109375,"poi_name":"Lau","parent_id":"2597366","long":11.4201099999999993173105394816957414150238037109375},"10":{"id":"8659785","label":"Sardauna","value":"8659785","lat":6.874629999999999796500560478307306766510009765625,"lon":11.2118400000000004723688107333146035671234130859375,"poi_name":"Sardauna","parent_id":"2597366","long":11.2118400000000004723688107333146035671234130859375},"11":{"id":"8659782","label":"Takum","value":"8659782","lat":7.41157999999999983486986820935271680355072021484375,"lon":10.044779999999999375859260908327996730804443359375,"poi_name":"Takum","parent_id":"2597366","long":10.044779999999999375859260908327996730804443359375},"12":{"id":"8659783","label":"Ussa","value":"8659783","lat":7.086800000000000210320649784989655017852783203125,"lon":10.038109999999999644160197931341826915740966796875,"poi_name":"Ussa","parent_id":"2597366","long":10.038109999999999644160197931341826915740966796875},"13":{"id":"8659780","label":"Wukari","value":"8659780","lat":7.9632699999999996265387380844913423061370849609375,"lon":9.84767000000000081172402133233845233917236328125,"poi_name":"Wukari","parent_id":"2597366","long":9.84767000000000081172402133233845233917236328125},"14":{"id":"8659774","label":"Yorro","value":"8659774","lat":8.908699999999999619149093632586300373077392578125,"lon":11.484339999999999548663254245184361934661865234375,"poi_name":"Yorro","parent_id":"2597366","long":11.484339999999999548663254245184361934661865234375},"15":{"id":"8659773","label":"Zing","value":"8659773","lat":8.8833900000000003416289473534561693668365478515625,"lon":11.7451699999999998880184648442082107067108154296875,"poi_name":"Zing","parent_id":"2597366","long":11.7451699999999998880184648442082107067108154296875}}