{"success":true,"remaining_lookups":7634,"0":{"id":"6458818","label":"Bezirk Affoltern","value":"6458818","lat":47.273110000000002628439688123762607574462890625,"lon":8.4744399999999995287680576439015567302703857421875,"poi_name":"Bezirk Affoltern","parent_id":"2657895","long":8.4744399999999995287680576439015567302703857421875},"1":{"id":"2661751","label":"Bezirk Andelfingen","value":"2661751","lat":47.613280000000003155946615152060985565185546875,"lon":8.6812400000000007338485374930314719676971435546875,"poi_name":"Bezirk Andelfingen","parent_id":"2657895","long":8.6812400000000007338485374930314719676971435546875},"2":{"id":"6458867","label":"Bezirk B\u00fclach","value":"6458867","lat":47.49705999999999761485014460049569606781005859375,"lon":8.567640000000000810587152955122292041778564453125,"poi_name":"Bezirk B\u00fclach","parent_id":"2657895","long":8.567640000000000810587152955122292041778564453125},"3":{"id":"6458865","label":"Bezirk Dielsdorf","value":"6458865","lat":47.47180999999999784222382004372775554656982421875,"lon":8.4563100000000002154365574824623763561248779296875,"poi_name":"Bezirk Dielsdorf","parent_id":"2657895","long":8.4563100000000002154365574824623763561248779296875},"4":{"id":"6458760","label":"Bezirk Dietikon","value":"6458760","lat":47.38803999999999660985849914140999317169189453125,"lon":8.4426000000000005485389920067973434925079345703125,"poi_name":"Bezirk Dietikon","parent_id":"2657895","long":8.4426000000000005485389920067973434925079345703125},"5":{"id":"6458797","label":"Bezirk Hinwil","value":"6458797","lat":47.29646000000000327645466313697397708892822265625,"lon":8.8343100000000003291233952040784060955047607421875,"poi_name":"Bezirk Hinwil","parent_id":"2657895","long":8.8343100000000003291233952040784060955047607421875},"6":{"id":"6458847","label":"Bezirk Horgen","value":"6458847","lat":47.25766999999999740111888968385756015777587890625,"lon":8.5970200000000005502442945726215839385986328125,"poi_name":"Bezirk Horgen","parent_id":"2657895","long":8.5970200000000005502442945726215839385986328125},"7":{"id":"2659702","label":"Bezirk Meilen","value":"2659702","lat":47.27920000000000300133251585066318511962890625,"lon":8.6625899999999997902477844036184251308441162109375,"poi_name":"Bezirk Meilen","parent_id":"2657895","long":8.6625899999999997902477844036184251308441162109375},"8":{"id":"6458852","label":"Bezirk Pf\u00e4ffikon","value":"6458852","lat":47.40905000000000057980287238024175167083740234375,"lon":8.7720800000000007656808520550839602947235107421875,"poi_name":"Bezirk Pf\u00e4ffikon","parent_id":"2657895","long":8.7720800000000007656808520550839602947235107421875},"9":{"id":"6458751","label":"Bezirk Uster","value":"6458751","lat":47.3495199999999982765075401403009891510009765625,"lon":8.7135300000000004416733645484782755374908447265625,"poi_name":"Bezirk Uster","parent_id":"2657895","long":8.7135300000000004416733645484782755374908447265625},"10":{"id":"6458808","label":"Bezirk Winterthur","value":"6458808","lat":47.50780999999999920646587270312011241912841796875,"lon":8.7690000000000001278976924368180334568023681640625,"poi_name":"Bezirk Winterthur","parent_id":"2657895","long":8.7690000000000001278976924368180334568023681640625},"11":{"id":"6458798","label":"Bezirk Z\u00fcrich","value":"6458798","lat":47.3710999999999984311216394416987895965576171875,"lon":8.5432299999999994355448507121764123439788818359375,"poi_name":"Bezirk Z\u00fcrich","parent_id":"2657895","long":8.5432299999999994355448507121764123439788818359375}}