{"success":true,"remaining_lookups":7639,"0":{"id":"6458841","label":"Bezirk Bucheggberg","value":"6458841","lat":47.13204999999999955662133288569748401641845703125,"lon":7.47885000000000044195758164278231561183929443359375,"poi_name":"Bezirk Bucheggberg","parent_id":"2658563","long":7.47885000000000044195758164278231561183929443359375},"1":{"id":"6458904","label":"Bezirk Dorneck","value":"6458904","lat":47.48031999999999896999725024215877056121826171875,"lon":7.618159999999999598685462842695415019989013671875,"poi_name":"Bezirk Dorneck","parent_id":"2658563","long":7.618159999999999598685462842695415019989013671875},"2":{"id":"6458742","label":"Bezirk G\u00e4u","value":"6458742","lat":47.2960599999999971032593748532235622406005859375,"lon":7.77503000000000010771827874123118817806243896484375,"poi_name":"Bezirk G\u00e4u","parent_id":"2658563","long":7.77503000000000010771827874123118817806243896484375},"3":{"id":"6458874","label":"Bezirk G\u00f6sgen","value":"6458874","lat":47.37758000000000180307324626483023166656494140625,"lon":7.92030000000000011795009413617663085460662841796875,"poi_name":"Bezirk G\u00f6sgen","parent_id":"2658563","long":7.92030000000000011795009413617663085460662841796875},"4":{"id":"6458829","label":"Bezirk Lebern","value":"6458829","lat":47.2179799999999971760189509950578212738037109375,"lon":7.4805299999999999016608853708021342754364013671875,"poi_name":"Bezirk Lebern","parent_id":"2658563","long":7.4805299999999999016608853708021342754364013671875},"5":{"id":"6458893","label":"Bezirk Olten","value":"6458893","lat":47.34425999999999845613274374045431613922119140625,"lon":7.90754999999999963478103381930850446224212646484375,"poi_name":"Bezirk Olten","parent_id":"2658563","long":7.90754999999999963478103381930850446224212646484375},"6":{"id":"6458779","label":"Bezirk Solothurn","value":"6458779","lat":47.208179999999998699422576464712619781494140625,"lon":7.53084000000000042263081923010759055614471435546875,"poi_name":"Bezirk Solothurn","parent_id":"2658563","long":7.53084000000000042263081923010759055614471435546875},"7":{"id":"6458869","label":"Bezirk Thal","value":"6458869","lat":47.31094999999999828332875040359795093536376953125,"lon":7.63591999999999959669594318256713449954986572265625,"poi_name":"Bezirk Thal","parent_id":"2658563","long":7.63591999999999959669594318256713449954986572265625},"8":{"id":"2658380","label":"Bezirk Thierstein","value":"2658380","lat":47.3833300000000008367351256310939788818359375,"lon":7.54999999999999982236431605997495353221893310546875,"poi_name":"Bezirk Thierstein","parent_id":"2658563","long":7.54999999999999982236431605997495353221893310546875},"9":{"id":"6458885","label":"Bezirk Wasseramt","value":"6458885","lat":47.189109999999999445208231918513774871826171875,"lon":7.59156999999999992922994351829402148723602294921875,"poi_name":"Bezirk Wasseramt","parent_id":"2658563","long":7.59156999999999992922994351829402148723602294921875}}