{"success":true,"remaining_lookups":7637,"0":{"id":"8260144","label":"Arbon District","value":"8260144","lat":47.5486700000000013233147910796105861663818359375,"lon":9.3515899999999998470912032644264400005340576171875,"poi_name":"Arbon District","parent_id":"2658372","long":9.3515899999999998470912032644264400005340576171875},"1":{"id":"8260143","label":"Frauenfeld District","value":"8260143","lat":47.61115000000000208046913030557334423065185546875,"lon":8.894439999999999457713784067891538143157958984375,"poi_name":"Frauenfeld District","parent_id":"2658372","long":8.894439999999999457713784067891538143157958984375},"2":{"id":"8260146","label":"Kreuzlingen District","value":"8260146","lat":47.630459999999999354258761741220951080322265625,"lon":9.1645800000000008367351256310939788818359375,"poi_name":"Kreuzlingen District","parent_id":"2658372","long":9.1645800000000008367351256310939788818359375},"3":{"id":"8260145","label":"M\u00fcnchwilen District","value":"8260145","lat":47.47323999999999699639374739490449428558349609375,"lon":8.9881200000000003313971319585107266902923583984375,"poi_name":"M\u00fcnchwilen District","parent_id":"2658372","long":8.9881200000000003313971319585107266902923583984375},"4":{"id":"8260147","label":"Weinfelden District","value":"8260147","lat":47.54236999999999824240148882381618022918701171875,"lon":9.1571300000000004359890226623974740505218505859375,"poi_name":"Weinfelden District","parent_id":"2658372","long":9.1571300000000004359890226623974740505218505859375}}