{"success":true,"remaining_lookups":7638,"0":{"id":"7285000","label":"Wahlkreis Rheintal","value":"7285000","lat":47.377690000000001191438059322535991668701171875,"lon":9.579029999999999489546098629944026470184326171875,"poi_name":"Wahlkreis Rheintal","parent_id":"2658821","long":9.579029999999999489546098629944026470184326171875},"1":{"id":"6458838","label":"Wahlkreis Rorschach","value":"6458838","lat":47.4664700000000010504663805477321147918701171875,"lon":9.442460000000000519548848387785255908966064453125,"poi_name":"Wahlkreis Rorschach","parent_id":"2658821","long":9.442460000000000519548848387785255908966064453125},"2":{"id":"2658792","label":"Wahlkreis Sarganserland","value":"2658792","lat":47.0499999999999971578290569595992565155029296875,"lon":9.4333299999999997709210219909437000751495361328125,"poi_name":"Wahlkreis Sarganserland","parent_id":"2658821","long":9.4333299999999997709210219909437000751495361328125},"3":{"id":"7285010","label":"Wahlkreis See-Gaster","value":"7285010","lat":47.22458999999999917918103164993226528167724609375,"lon":9.016799999999999926103555480949580669403076171875,"poi_name":"Wahlkreis See-Gaster","parent_id":"2658821","long":9.016799999999999926103555480949580669403076171875},"4":{"id":"6458770","label":"Wahlkreis St. Gallen","value":"6458770","lat":47.4634199999999992769517120905220508575439453125,"lon":9.3905200000000004223466021358035504817962646484375,"poi_name":"Wahlkreis St. Gallen","parent_id":"2658821","long":9.3905200000000004223466021358035504817962646484375},"5":{"id":"7285001","label":"Wahlkreis Toggenburg","value":"7285001","lat":47.29453000000000173486114363186061382293701171875,"lon":9.1728299999999993730170899652875959873199462890625,"poi_name":"Wahlkreis Toggenburg","parent_id":"2658821","long":9.1728299999999993730170899652875959873199462890625},"6":{"id":"6458880","label":"Wahlkreis Werdenberg","value":"6458880","lat":47.1774300000000010868461686186492443084716796875,"lon":9.4629899999999995685584508464671671390533447265625,"poi_name":"Wahlkreis Werdenberg","parent_id":"2658821","long":9.4629899999999995685584508464671671390533447265625},"7":{"id":"6458840","label":"Wahlkreis Wil","value":"6458840","lat":47.4259100000000017871570889838039875030517578125,"lon":9.1245100000000007867129170335829257965087890625,"poi_name":"Wahlkreis Wil","parent_id":"2658821","long":9.1245100000000007867129170335829257965087890625}}