{"success":true,"remaining_lookups":7644,"0":{"id":"8740968","label":"Entlebuch District","value":"8740968","lat":46.9258999999999986130205797962844371795654296875,"lon":8.014269999999999782858139951713383197784423828125,"poi_name":"Entlebuch District","parent_id":"2659810","long":8.014269999999999782858139951713383197784423828125},"1":{"id":"8740969","label":"Hochdorf District","value":"8740969","lat":47.1706199999999995498001226224005222320556640625,"lon":8.2870200000000000528643795405514538288116455078125,"poi_name":"Hochdorf District","parent_id":"2659810","long":8.2870200000000000528643795405514538288116455078125},"2":{"id":"8718162","label":"Lucerne-Land District","value":"8718162","lat":47.04046000000000304908098769374191761016845703125,"lon":8.29270999999999958163243718445301055908203125,"poi_name":"Lucerne-Land District","parent_id":"2659810","long":8.29270999999999958163243718445301055908203125},"3":{"id":"8718163","label":"Lucerne-Stadt District","value":"8718163","lat":47.05333999999999861074684304185211658477783203125,"lon":8.310629999999999739657141617499291896820068359375,"poi_name":"Lucerne-Stadt District","parent_id":"2659810","long":8.310629999999999739657141617499291896820068359375},"4":{"id":"8740970","label":"Sursee District","value":"8740970","lat":47.15590999999999866076905163936316967010498046875,"lon":8.1370400000000007167955118347890675067901611328125,"poi_name":"Sursee District","parent_id":"2659810","long":8.1370400000000007167955118347890675067901611328125},"5":{"id":"8740971","label":"Willisau District","value":"8740971","lat":47.14097000000000292629920295439660549163818359375,"lon":7.9593299999999995719690559781156480312347412109375,"poi_name":"Willisau District","parent_id":"2659810","long":7.9593299999999995719690559781156480312347412109375}}