{"success":true,"remaining_lookups":7648,"0":{"id":"6458843","label":"Bezirk Arlesheim","value":"6458843","lat":47.51668000000000091631591203622519969940185546875,"lon":7.5873299999999996856558936997316777706146240234375,"poi_name":"Bezirk Arlesheim","parent_id":"2661603","long":7.5873299999999996856558936997316777706146240234375},"1":{"id":"6458833","label":"Bezirk Laufen","value":"6458833","lat":47.42323999999999983856469043530523777008056640625,"lon":7.48749999999999982236431605997495353221893310546875,"poi_name":"Bezirk Laufen","parent_id":"2661603","long":7.48749999999999982236431605997495353221893310546875},"2":{"id":"6458854","label":"Bezirk Liestal","value":"6458854","lat":47.4812399999999996680344338528811931610107421875,"lon":7.7271400000000003416289473534561693668365478515625,"poi_name":"Bezirk Liestal","parent_id":"2661603","long":7.7271400000000003416289473534561693668365478515625},"3":{"id":"6458823","label":"Bezirk Sissach","value":"6458823","lat":47.4423699999999968213160173036158084869384765625,"lon":7.84870999999999963137042868766002357006072998046875,"poi_name":"Bezirk Sissach","parent_id":"2661603","long":7.84870999999999963137042868766002357006072998046875},"4":{"id":"6458748","label":"Bezirk Waldenburg","value":"6458748","lat":47.3936700000000001864464138634502887725830078125,"lon":7.741369999999999862438926356844604015350341796875,"poi_name":"Bezirk Waldenburg","parent_id":"2661603","long":7.741369999999999862438926356844604015350341796875}}