{"success":true,"remaining_lookups":8147,"0":{"id":"8349574","label":"Bellavista","value":"8349574","lat":-7.63825000000000020605739337042905390262603759765625,"lon":-76.31932000000000471118255518376827239990234375,"poi_name":"Bellavista","parent_id":"3692385","long":-76.31932000000000471118255518376827239990234375},"1":{"id":"8349575","label":"El Dorado","value":"8349575","lat":-6.562979999999999591864252579398453235626220703125,"lon":-76.741299999999995407051756046712398529052734375,"poi_name":"El Dorado","parent_id":"3692385","long":-76.741299999999995407051756046712398529052734375},"2":{"id":"8349576","label":"Picota","value":"8349576","lat":-6.902210000000000178488335222937166690826416015625,"lon":-76.255729999999999790816218592226505279541015625,"poi_name":"Picota","parent_id":"3692385","long":-76.255729999999999790816218592226505279541015625},"3":{"id":"3696534","label":"Provincia de Huallaga","value":"3696534","lat":-6.75663999999999997925215211580507457256317138671875,"lon":-76.9014300000000048385118134319782257080078125,"poi_name":"Provincia de Huallaga","parent_id":"3692385","long":-76.9014300000000048385118134319782257080078125},"4":{"id":"3695756","label":"Provincia de Lamas","value":"3695756","lat":-6.333330000000000126192389870993793010711669921875,"lon":-76.6666699999999963210939313285052776336669921875,"poi_name":"Provincia de Lamas","parent_id":"3692385","long":-76.6666699999999963210939313285052776336669921875},"5":{"id":"3694924","label":"Provincia de Mariscal C\u00e1ceres","value":"3694924","lat":-7.27390000000000025437429940211586654186248779296875,"lon":-77.1821599999999961028152029030025005340576171875,"poi_name":"Provincia de Mariscal C\u00e1ceres","parent_id":"3692385","long":-77.1821599999999961028152029030025005340576171875},"6":{"id":"3694563","label":"Provincia de Moyobamba","value":"3694563","lat":-5.75,"lon":-77.25,"poi_name":"Provincia de Moyobamba","parent_id":"3692385","long":-77.25},"7":{"id":"3692862","label":"Provincia de Rioja","value":"3692862","lat":-6,"lon":-77.4166699999999963210939313285052776336669921875,"poi_name":"Provincia de Rioja","parent_id":"3692385","long":-77.4166699999999963210939313285052776336669921875},"8":{"id":"3692383","label":"Provincia de San Mart\u00edn","value":"3692383","lat":-6.583330000000000126192389870993793010711669921875,"lon":-76.1666699999999963210939313285052776336669921875,"poi_name":"Provincia de San Mart\u00edn","parent_id":"3692385","long":-76.1666699999999963210939313285052776336669921875},"9":{"id":"8349577","label":"Tocache","value":"8349577","lat":-8.2492999999999998550492819049395620822906494140625,"lon":-76.634510000000005902620614506304264068603515625,"poi_name":"Tocache","parent_id":"3692385","long":-76.634510000000005902620614506304264068603515625}}