{"success":true,"remaining_lookups":8148,"0":{"id":"8349555","label":"Huacaybamba","value":"8349555","lat":-8.9947999999999996845190253225155174732208251953125,"lon":-76.81027000000000271029421128332614898681640625,"poi_name":"Huacaybamba","parent_id":"3696416","long":-76.81027000000000271029421128332614898681640625},"1":{"id":"8349557","label":"Lauricocha","value":"8349557","lat":-10.20054999999999978399500832892954349517822265625,"lon":-76.7035900000000054888005251996219158172607421875,"poi_name":"Lauricocha","parent_id":"3696416","long":-76.7035900000000054888005251996219158172607421875},"2":{"id":"3947955","label":"Provincia de Ambo","value":"3947955","lat":-10.166669999999999873807610129006206989288330078125,"lon":-76.1666699999999963210939313285052776336669921875,"poi_name":"Provincia de Ambo","parent_id":"3696416","long":-76.1666699999999963210939313285052776336669921875},"3":{"id":"3697460","label":"Provincia de Dos de Mayo","value":"3697460","lat":-9.916669999999999873807610129006206989288330078125,"lon":-76.75,"poi_name":"Provincia de Dos de Mayo","parent_id":"3696416","long":-76.75},"4":{"id":"3696505","label":"Provincia de Huamal\u00edes","value":"3696505","lat":-9.25,"lon":-76.5,"poi_name":"Provincia de Huamal\u00edes","parent_id":"3696416","long":-76.5},"5":{"id":"3696415","label":"Provincia de Hu\u00e1nuco","value":"3696415","lat":-9.666669999999999873807610129006206989288330078125,"lon":-76.0833300000000036789060686714947223663330078125,"poi_name":"Provincia de Hu\u00e1nuco","parent_id":"3696416","long":-76.0833300000000036789060686714947223663330078125},"6":{"id":"3695414","label":"Provincia de Leoncio Prado","value":"3695414","lat":-9.166669999999999873807610129006206989288330078125,"lon":-76,"poi_name":"Provincia de Leoncio Prado","parent_id":"3696416","long":-76},"7":{"id":"3694961","label":"Provincia de Mara\u00f1\u00f3n","value":"3694961","lat":-8.75,"lon":-76.6666699999999963210939313285052776336669921875,"poi_name":"Provincia de Mara\u00f1\u00f3n","parent_id":"3696416","long":-76.6666699999999963210939313285052776336669921875},"8":{"id":"3694144","label":"Provincia de Pachitea","value":"3694144","lat":-9.952619999999999578221832052804529666900634765625,"lon":-75.8139000000000038426151149906218051910400390625,"poi_name":"Provincia de Pachitea","parent_id":"3696416","long":-75.8139000000000038426151149906218051910400390625},"9":{"id":"8349556","label":"Puerto Inca","value":"8349556","lat":-9.3669600000000006190248313941992819309234619140625,"lon":-75.0895799999999979945641825906932353973388671875,"poi_name":"Puerto Inca","parent_id":"3696416","long":-75.0895799999999979945641825906932353973388671875},"10":{"id":"8349558","label":"Yarowilca","value":"8349558","lat":-9.80263000000000062073013396002352237701416015625,"lon":-76.5951600000000070167516241781413555145263671875,"poi_name":"Yarowilca","parent_id":"3696416","long":-76.5951600000000070167516241781413555145263671875}}