{"success":true,"remaining_lookups":8163,"0":{"id":"3699094","label":"Provincia de Cajabamba","value":"3699094","lat":-7.5,"lon":-78.1666699999999963210939313285052776336669921875,"poi_name":"Provincia de Cajabamba","parent_id":"3699087","long":-78.1666699999999963210939313285052776336669921875},"1":{"id":"3699086","label":"Provincia de Cajamarca","value":"3699086","lat":-7.333330000000000126192389870993793010711669921875,"lon":-78.4166699999999963210939313285052776336669921875,"poi_name":"Provincia de Cajamarca","parent_id":"3699087","long":-78.4166699999999963210939313285052776336669921875},"2":{"id":"3698607","label":"Provincia de Celend\u00edn","value":"3698607","lat":-6.833330000000000126192389870993793010711669921875,"lon":-78.25,"poi_name":"Provincia de Celend\u00edn","parent_id":"3699087","long":-78.25},"3":{"id":"3698139","label":"Provincia de Chota","value":"3698139","lat":-6.38332000000000032713387554395012557506561279296875,"lon":-79.1805499999999966576069709844887256622314453125,"poi_name":"Provincia de Chota","parent_id":"3699087","long":-79.1805499999999966576069709844887256622314453125},"4":{"id":"3697832","label":"Provincia de Contumaz\u00e1","value":"3697832","lat":-7.333330000000000126192389870993793010711669921875,"lon":-78.9166699999999963210939313285052776336669921875,"poi_name":"Provincia de Contumaz\u00e1","parent_id":"3699087","long":-78.9166699999999963210939313285052776336669921875},"5":{"id":"3697539","label":"Provincia de Cutervo","value":"3697539","lat":-6.36667000000000005144329406903125345706939697265625,"lon":-78.849999999999994315658113919198513031005859375,"poi_name":"Provincia de Cutervo","parent_id":"3699087","long":-78.849999999999994315658113919198513031005859375},"6":{"id":"3696537","label":"Provincia de Hualgayoc","value":"3696537","lat":-6.67999999999999971578290569595992565155029296875,"lon":-78.530000000000001136868377216160297393798828125,"poi_name":"Provincia de Hualgayoc","parent_id":"3699087","long":-78.530000000000001136868377216160297393798828125},"7":{"id":"3696149","label":"Provincia de Ja\u00e9n","value":"3696149","lat":-5.71074000000000037147174225538037717342376708984375,"lon":-79.004379999999997608028934337198734283447265625,"poi_name":"Provincia de Ja\u00e9n","parent_id":"3699087","long":-79.004379999999997608028934337198734283447265625},"8":{"id":"3692526","label":"Provincia de San Ignacio","value":"3692526","lat":-5.083330000000000126192389870993793010711669921875,"lon":-79,"poi_name":"Provincia de San Ignacio","parent_id":"3699087","long":-79},"9":{"id":"3692365","label":"Provincia de San Miguel","value":"3692365","lat":-7,"lon":-79,"poi_name":"Provincia de San Miguel","parent_id":"3699087","long":-79},"10":{"id":"3692215","label":"Provincia de Santa Cruz","value":"3692215","lat":-6.833330000000000126192389870993793010711669921875,"lon":-79,"poi_name":"Provincia de Santa Cruz","parent_id":"3699087","long":-79},"11":{"id":"8349552","label":"San Marcos","value":"8349552","lat":-7.28277999999999980929032972198911011219024658203125,"lon":-78.06054000000000314685166813433170318603515625,"poi_name":"San Marcos","parent_id":"3699087","long":-78.06054000000000314685166813433170318603515625},"12":{"id":"8349553","label":"San Pablo","value":"8349553","lat":-7.07509999999999994457766661071218550205230712890625,"lon":-78.7492199999999940018824418075382709503173828125,"poi_name":"San Pablo","parent_id":"3699087","long":-78.7492199999999940018824418075382709503173828125}}