{"success":true,"remaining_lookups":7815,"0":{"id":"2253376","label":"Dagana Department","value":"2253376","lat":16.333999999999999630517777404747903347015380859375,"lon":-15.8390000000000004121147867408581078052520751953125,"poi_name":"Dagana Department","parent_id":"2246451","long":-15.8390000000000004121147867408581078052520751953125},"1":{"id":"9166367","label":"Kanel Department","value":"9166367","lat":15.4916699999999991632648743689060211181640625,"lon":-13.1763899999999996026645021629519760608673095703125,"poi_name":"Kanel Department","parent_id":"2246451","long":-13.1763899999999996026645021629519760608673095703125},"2":{"id":"7670870","label":"Matam Department","value":"7670870","lat":15.731909999999999172359821386635303497314453125,"lon":-13.63392999999999943838702165521681308746337890625,"poi_name":"Matam Department","parent_id":"2246451","long":-13.63392999999999943838702165521681308746337890625},"3":{"id":"2246656","label":"Podor","value":"2246656","lat":16.25019999999999953388396534137427806854248046875,"lon":-14.59767000000000081172402133233845233917236328125,"poi_name":"Podor","parent_id":"2246451","long":-14.59767000000000081172402133233845233917236328125},"4":{"id":"11429067","label":"Saint-Louis Department","value":"11429067","lat":16.02799999999999869260136620141565799713134765625,"lon":-16.408080000000001774651536834426224231719970703125,"poi_name":"Saint-Louis Department","parent_id":"2246451","long":-16.408080000000001774651536834426224231719970703125}}