{"success":true,"remaining_lookups":7823,"0":{"id":"10376918","label":"Birkilane Department","value":"10376918","lat":14.1333300000000008367351256310939788818359375,"lon":-15.75,"poi_name":"Birkilane Department","parent_id":"2250804","long":-15.75},"1":{"id":"10778869","label":"D\u00e9partement de Guinguin\u00e9o","value":"10778869","lat":14.2988599999999994594190866337157785892486572265625,"lon":-15.920719999999999316742105293087661266326904296875,"poi_name":"D\u00e9partement de Guinguin\u00e9o","parent_id":"2250804","long":-15.920719999999999316742105293087661266326904296875},"2":{"id":"2251008","label":"Kaffrine Department","value":"2251008","lat":14.25,"lon":-15.25,"poi_name":"Kaffrine Department","parent_id":"2250804","long":-15.25},"3":{"id":"2250807","label":"Kaolack","value":"2250807","lat":14.0572599999999994224708643741905689239501953125,"lon":-16.078980000000001382431946694850921630859375,"poi_name":"Kaolack","parent_id":"2250804","long":-16.078980000000001382431946694850921630859375},"4":{"id":"2247158","label":"Nioro du Rip","value":"2247158","lat":13.7351299999999998391331246239133179187774658203125,"lon":-15.83924999999999982946974341757595539093017578125,"poi_name":"Nioro du Rip","parent_id":"2250804","long":-15.83924999999999982946974341757595539093017578125}}