{"success":true,"remaining_lookups":8728,"0":{"id":"1656563","label":"Muang Kham","value":"1656563","lat":19.75768000000000057525539887137711048126220703125,"lon":103.656890000000004192770575173199176788330078125,"poi_name":"Muang Kham","parent_id":"1652077","long":103.656890000000004192770575173199176788330078125},"1":{"id":"1904814","label":"Muang Khoun","value":"1904814","lat":19.27978999999999842884790268726646900177001953125,"lon":103.5089799999999939927874947898089885711669921875,"poi_name":"Muang Khoun","parent_id":"1652077","long":103.5089799999999939927874947898089885711669921875},"2":{"id":"1655320","label":"Muang Mok","value":"1655320","lat":18.916669999999999873807610129006206989288330078125,"lon":104.016670000000004847606760449707508087158203125,"poi_name":"Muang Mok","parent_id":"1652077","long":104.016670000000004847606760449707508087158203125},"3":{"id":"1904812","label":"Muang Nongh\u00e8t","value":"1904812","lat":19.5604799999999983128873282112181186676025390625,"lon":103.923550000000005866240826435387134552001953125,"poi_name":"Muang Nongh\u00e8t","parent_id":"1652077","long":103.923550000000005866240826435387134552001953125},"4":{"id":"1904813","label":"Muang Phaxai","value":"1904813","lat":19.25807999999999964302332955412566661834716796875,"lon":103.0906700000000029149305191822350025177001953125,"poi_name":"Muang Phaxai","parent_id":"1652077","long":103.0906700000000029149305191822350025177001953125},"5":{"id":"1904816","label":"Muang Phou Kont","value":"1904816","lat":19.6258499999999997953636921010911464691162109375,"lon":103.0185599999999936926542432047426700592041015625,"poi_name":"Muang Phou Kont","parent_id":"1652077","long":103.0185599999999936926542432047426700592041015625},"6":{"id":"1654248","label":"Muang P\u00e8k","value":"1654248","lat":19.51371999999999928832039586268365383148193359375,"lon":103.2738499999999959300112095661461353302001953125,"poi_name":"Muang P\u00e8k","parent_id":"1652077","long":103.2738499999999959300112095661461353302001953125}}