{"success":true,"remaining_lookups":8738,"0":{"id":"1657870","label":"Muang Boun Tai","value":"1657870","lat":21.33209000000000088448359747417271137237548828125,"lon":101.9984500000000053887561080045998096466064453125,"poi_name":"Muang Boun Tai","parent_id":"1653893","long":101.9984500000000053887561080045998096466064453125},"1":{"id":"1904829","label":"Muang Boun-Nua","value":"1904829","lat":21.66787000000000062982508097775280475616455078125,"lon":101.8939600000000069712768890894949436187744140625,"poi_name":"Muang Boun-Nua","parent_id":"1653893","long":101.8939600000000069712768890894949436187744140625},"2":{"id":"1904830","label":"Muang Gnot-Ou","value":"1904830","lat":22.195859999999999701003616792149841785430908203125,"lon":101.873999999999995225152815692126750946044921875,"poi_name":"Muang Gnot-Ou","parent_id":"1653893","long":101.873999999999995225152815692126750946044921875},"3":{"id":"1656290","label":"Muang Khoa","value":"1656290","lat":21.0671099999999995588950696401298046112060546875,"lon":102.37623999999999568899511359632015228271484375,"poi_name":"Muang Khoa","parent_id":"1653893","long":102.37623999999999568899511359632015228271484375},"4":{"id":"1904828","label":"Muang Mai","value":"1904828","lat":21.3847099999999983310772222466766834259033203125,"lon":102.7259399999999942565409583039581775665283203125,"poi_name":"Muang Mai","parent_id":"1653893","long":102.7259399999999942565409583039581775665283203125},"5":{"id":"1653892","label":"Muang Ph\u00f4ngsali","value":"1653892","lat":21.864020000000000010231815394945442676544189453125,"lon":102.200749999999999317878973670303821563720703125,"poi_name":"Muang Ph\u00f4ngsali","parent_id":"1653893","long":102.200749999999999317878973670303821563720703125},"6":{"id":"7647987","label":"Samphanh","value":"7647987","lat":21.57000000000000028421709430404007434844970703125,"lon":102.409999999999996589394868351519107818603515625,"poi_name":"Samphanh","parent_id":"1653893","long":102.409999999999996589394868351519107818603515625}}