{"success":true,"remaining_lookups":8737,"0":{"id":"10375967","label":"Kaysone Phomvihane","value":"10375967","lat":16.549430000000000973159330897033214569091796875,"lon":104.8233900000000033969627111218869686126708984375,"poi_name":"Kaysone Phomvihane","parent_id":"1653315","long":104.8233900000000033969627111218869686126708984375},"1":{"id":"1904784","label":"Muang Alsaphangthong","value":"1904784","lat":16.7264499999999998181010596454143524169921875,"lon":105.39325999999999794454197399318218231201171875,"poi_name":"Muang Alsaphangthong","parent_id":"1653315","long":105.39325999999999794454197399318218231201171875},"2":{"id":"1904786","label":"Muang Atsaphan","value":"1904786","lat":16.947399999999998243538357201032340526580810546875,"lon":105.4029000000000024783730623312294483184814453125,"poi_name":"Muang Atsaphan","parent_id":"1653315","long":105.4029000000000024783730623312294483184814453125},"3":{"id":"1657816","label":"Muang Champhon","value":"1657816","lat":16.493629999999999569126885035075247287750244140625,"lon":105.220200000000005502442945726215839385986328125,"poi_name":"Muang Champhon","parent_id":"1653315","long":105.220200000000005502442945726215839385986328125},"4":{"id":"1654616","label":"Muang Nong","value":"1654616","lat":16.384579999999999699866748414933681488037109375,"lon":106.5041899999999941428541205823421478271484375,"poi_name":"Muang Nong","parent_id":"1653315","long":106.5041899999999941428541205823421478271484375},"5":{"id":"1904783","label":"Muang Outhoumphon","value":"1904783","lat":16.666669999999999873807610129006206989288330078125,"lon":105.0499999999999971578290569595992565155029296875,"poi_name":"Muang Outhoumphon","parent_id":"1653315","long":105.0499999999999971578290569595992565155029296875},"6":{"id":"1653916","label":"Muang Phin","value":"1653916","lat":16.44315999999999888814272708259522914886474609375,"lon":106.03019000000000460204319097101688385009765625,"poi_name":"Muang Phin","parent_id":"1653315","long":106.03019000000000460204319097101688385009765625},"7":{"id":"1653070","label":"Muang Songkhon","value":"1653070","lat":16.1711600000000004229150363244116306304931640625,"lon":105.307289999999994734025676734745502471923828125,"poi_name":"Muang Songkhon","parent_id":"1653315","long":105.307289999999994734025676734745502471923828125},"8":{"id":"1904777","label":"Muang Thapangthong","value":"1904777","lat":16.091319999999999623696567141450941562652587890625,"lon":105.8103799999999949932316667400300502777099609375,"poi_name":"Muang Thapangthong","parent_id":"1653315","long":105.8103799999999949932316667400300502777099609375},"9":{"id":"1904787","label":"Muang Vilabouli","value":"1904787","lat":16.940670000000000783302311901934444904327392578125,"lon":105.936769999999995661710272543132305145263671875,"poi_name":"Muang Vilabouli","parent_id":"1653315","long":105.936769999999995661710272543132305145263671875},"10":{"id":"1904785","label":"Muang Xaibouli","value":"1904785","lat":16.944320000000001158468876383267343044281005859375,"lon":104.9231199999999972760633681900799274444580078125,"poi_name":"Muang Xaibouli","parent_id":"1653315","long":104.9231199999999972760633681900799274444580078125},"11":{"id":"10375959","label":"Muang Xayphoothong","value":"10375959","lat":16.3736999999999994770405464805662631988525390625,"lon":105.021649999999993951860233210027217864990234375,"poi_name":"Muang Xayphoothong","parent_id":"1653315","long":105.021649999999993951860233210027217864990234375},"12":{"id":"1652095","label":"Muang X\u00e9p\u00f4n","value":"1652095","lat":16.76113000000000141653799801133573055267333984375,"lon":106.337569999999999481588019989430904388427734375,"poi_name":"Muang X\u00e9p\u00f4n","parent_id":"1653315","long":106.337569999999999481588019989430904388427734375},"13":{"id":"1904780","label":"Muang X\u00f4nbouli","value":"1904780","lat":16.40035999999999916099113761447370052337646484375,"lon":105.573880000000002610249794088304042816162109375,"poi_name":"Muang X\u00f4nbouli","parent_id":"1653315","long":105.573880000000002610249794088304042816162109375},"14":{"id":"7648078","label":"Thaphalanxay","value":"7648078","lat":16.699999999999999289457264239899814128875732421875,"lon":105.599999999999994315658113919198513031005859375,"poi_name":"Thaphalanxay","parent_id":"1653315","long":105.599999999999994315658113919198513031005859375}}