{"success":true,"remaining_lookups":8739,"0":{"id":"1657942","label":"Muang B\u00e8ng","value":"1657942","lat":20.353590000000000515001374878920614719390869140625,"lon":101.731279999999998153725755400955677032470703125,"poi_name":"Muang B\u00e8ng","parent_id":"1654491","long":101.731279999999998153725755400955677032470703125},"1":{"id":"1656964","label":"Muang Houn","value":"1656964","lat":20.072050000000000835598257253877818584442138671875,"lon":101.4322300000000041109160520136356353759765625,"poi_name":"Muang Houn","parent_id":"1654491","long":101.4322300000000041109160520136356353759765625},"2":{"id":"1656000","label":"Muang La","value":"1656000","lat":20.920559999999998268549461499787867069244384765625,"lon":102.13267999999999346982804127037525177001953125,"poi_name":"Muang La","parent_id":"1654491","long":102.13267999999999346982804127037525177001953125},"3":{"id":"1654902","label":"Muang Namo","value":"1654902","lat":20.890769999999999839701558812521398067474365234375,"lon":101.7276499999999970214048516936600208282470703125,"poi_name":"Muang Namo","parent_id":"1654491","long":101.7276499999999970214048516936600208282470703125},"4":{"id":"1904820","label":"Muang Nga","value":"1904820","lat":20.173899999999999721467247582040727138519287109375,"lon":101.951549999999997453414835035800933837890625,"poi_name":"Muang Nga","parent_id":"1654491","long":101.951549999999997453414835035800933837890625},"5":{"id":"1654418","label":"Muang Pakb\u00e8ng","value":"1654418","lat":19.93572999999999950659912428818643093109130859375,"lon":101.06481999999999743522494100034236907958984375,"poi_name":"Muang Pakb\u00e8ng","parent_id":"1654491","long":101.06481999999999743522494100034236907958984375},"6":{"id":"1652132","label":"Muang Xai","value":"1652132","lat":20.66447000000000144837031257338821887969970703125,"lon":101.9555399999999991678123478777706623077392578125,"poi_name":"Muang Xai","parent_id":"1654491","long":101.9555399999999991678123478777706623077392578125}}