{"success":true,"remaining_lookups":8741,"0":{"id":"11550495","label":"Kounkham","value":"11550495","lat":17.2039299999999997226041159592568874359130859375,"lon":105.53122999999999365172698162496089935302734375,"poi_name":"Kounkham","parent_id":"1656538","long":105.53122999999999365172698162496089935302734375},"1":{"id":"1904791","label":"Muang Boualapha","value":"1904791","lat":17.303290000000000503632691106759011745452880859375,"lon":105.9407700000000005502442945726215839385986328125,"poi_name":"Muang Boualapha","parent_id":"1656538","long":105.9407700000000005502442945726215839385986328125},"2":{"id":"1657427","label":"Muang Gn\u00f4mmarat","value":"1657427","lat":17.559830000000001604121280252002179622650146484375,"lon":105.264870000000001937223714776337146759033203125,"poi_name":"Muang Gn\u00f4mmarat","parent_id":"1656538","long":105.264870000000001937223714776337146759033203125},"3":{"id":"1657260","label":"Muang Hinboun","value":"1657260","lat":17.876740000000001629132384550757706165313720703125,"lon":104.59525999999999612555257044732570648193359375,"poi_name":"Muang Hinboun","parent_id":"1656538","long":104.59525999999999612555257044732570648193359375},"4":{"id":"1655492","label":"Muang Mahaxai","value":"1655492","lat":17.363170000000000214868123293854296207427978515625,"lon":105.3149700000000024147084332071244716644287109375,"poi_name":"Muang Mahaxai","parent_id":"1656538","long":105.3149700000000024147084332071244716644287109375},"5":{"id":"1904793","label":"Muang Na Kay","value":"1904793","lat":17.868860000000001519993020338006317615509033203125,"lon":105.2914700000000038926373235881328582763671875,"poi_name":"Muang Na Kay","parent_id":"1656538","long":105.2914700000000038926373235881328582763671875},"6":{"id":"1904788","label":"Muang Nongb\u00f4k","value":"1904788","lat":17.061330000000001660964699112810194492340087890625,"lon":104.8238999999999947476680972613394260406494140625,"poi_name":"Muang Nongb\u00f4k","parent_id":"1656538","long":104.8238999999999947476680972613394260406494140625},"7":{"id":"1656537","label":"Muang Thakh\u00e8k","value":"1656537","lat":17.4087999999999993860910763032734394073486328125,"lon":104.82639000000000351064954884350299835205078125,"poi_name":"Muang Thakh\u00e8k","parent_id":"1656538","long":104.82639000000000351064954884350299835205078125},"8":{"id":"1904790","label":"Muang Xaibouathong","value":"1904790","lat":17.181139999999999190549715422093868255615234375,"lon":105.551749999999998408384271897375583648681640625,"poi_name":"Muang Xaibouathong","parent_id":"1656538","long":105.551749999999998408384271897375583648681640625},"9":{"id":"1904789","label":"Muang Xebangfai","value":"1904789","lat":17.17620000000000146656020660884678363800048828125,"lon":105.1259000000000014551915228366851806640625,"poi_name":"Muang Xebangfai","parent_id":"1656538","long":105.1259000000000014551915228366851806640625}}