{"success":true,"remaining_lookups":8740,"0":{"id":"1651946","label":"Muang Houayxay","value":"1651946","lat":20.38763000000000147338141687214374542236328125,"lon":100.62686999999999670762917958199977874755859375,"poi_name":"Muang Houayxay","parent_id":"1904616","long":100.62686999999999670762917958199977874755859375},"1":{"id":"1904823","label":"Muang Meung","value":"1904823","lat":20.675850000000000505906427861191332340240478515625,"lon":100.5263900000000063528204918839037418365478515625,"poi_name":"Muang Meung","parent_id":"1904616","long":100.5263900000000063528204918839037418365478515625},"2":{"id":"1654385","label":"Muang Paktha","value":"1654385","lat":20.091080000000001604121280252002179622650146484375,"lon":100.59940000000000281943357549607753753662109375,"poi_name":"Muang Paktha","parent_id":"1904616","long":100.59940000000000281943357549607753753662109375},"3":{"id":"1904821","label":"Muang Pha Oud\u00f4m","value":"1904821","lat":20.187439999999998718749338877387344837188720703125,"lon":100.9260000000000019326762412674725055694580078125,"poi_name":"Muang Pha Oud\u00f4m","parent_id":"1904616","long":100.9260000000000019326762412674725055694580078125},"4":{"id":"1904822","label":"Muang T\u00f4npheung","value":"1904822","lat":20.53464999999999918145476840436458587646484375,"lon":100.2962399999999973942976794205605983734130859375,"poi_name":"Muang T\u00f4npheung","parent_id":"1904616","long":100.2962399999999973942976794205605983734130859375}}