{"success":true,"remaining_lookups":9454,"0":{"id":"10400552","label":"Funa","value":"10400552","lat":-4.3574999999999999289457264239899814128875732421875,"lon":15.297100000000000363797880709171295166015625,"poi_name":"Funa","parent_id":"2314300","long":15.297100000000000363797880709171295166015625},"1":{"id":"8260568","label":"Kinshasa Urban","value":"8260568","lat":-4.4402799999999995606003722059540450572967529296875,"lon":15.4134399999999995856114765047095715999603271484375,"poi_name":"Kinshasa Urban","parent_id":"2314300","long":15.4134399999999995856114765047095715999603271484375},"2":{"id":"8260567","label":"Kinshasa rural","value":"8260567","lat":-4.3839600000000000790123522165231406688690185546875,"lon":15.59515999999999991132426657713949680328369140625,"poi_name":"Kinshasa rural","parent_id":"2314300","long":15.59515999999999991132426657713949680328369140625},"3":{"id":"9166122","label":"Lukunga District","value":"9166122","lat":-4.30539999999999967172925607883371412754058837890625,"lon":15.303200000000000358113538823090493679046630859375,"poi_name":"Lukunga District","parent_id":"2314300","long":15.303200000000000358113538823090493679046630859375},"4":{"id":"9179198","label":"Makala District","value":"9179198","lat":-4.3797899999999998499333742074668407440185546875,"lon":15.32224000000000074805939220823347568511962890625,"poi_name":"Makala District","parent_id":"2314300","long":15.32224000000000074805939220823347568511962890625},"5":{"id":"10861174","label":"Mont Amba District","value":"10861174","lat":-4.3627599999999997493205228238366544246673583984375,"lon":15.3367400000000007054268280626274645328521728515625,"poi_name":"Mont Amba District","parent_id":"2314300","long":15.3367400000000007054268280626274645328521728515625},"6":{"id":"9166123","label":"Tshangu District","value":"9166123","lat":-4.42035000000000000142108547152020037174224853515625,"lon":15.385490000000000776481101638637483119964599609375,"poi_name":"Tshangu District","parent_id":"2314300","long":15.385490000000000776481101638637483119964599609375}}