{"success":true,"remaining_lookups":9459,"0":{"id":"3077684","label":"Okres Chomutov","value":"3077684","lat":50.41667000000000342652128892950713634490966796875,"lon":13.333330000000000126192389870993793010711669921875,"poi_name":"Okres Chomutov","parent_id":"3339577","long":13.333330000000000126192389870993793010711669921875},"1":{"id":"3077243","label":"Okres D\u011b\u010d\u00edn","value":"3077243","lat":50.82905000000000228510543820448219776153564453125,"lon":14.3432499999999993889332472463138401508331298828125,"poi_name":"Okres D\u011b\u010d\u00edn","parent_id":"3339577","long":14.3432499999999993889332472463138401508331298828125},"2":{"id":"3071676","label":"Okres Litom\u011b\u0159ice","value":"3071676","lat":50.5,"lon":14.166669999999999873807610129006206989288330078125,"poi_name":"Okres Litom\u011b\u0159ice","parent_id":"3339577","long":14.166669999999999873807610129006206989288330078125},"3":{"id":"3071506","label":"Okres Louny","value":"3071506","lat":50.33332999999999657347871107049286365509033203125,"lon":13.666669999999999873807610129006206989288330078125,"poi_name":"Okres Louny","parent_id":"3339577","long":13.666669999999999873807610129006206989288330078125},"4":{"id":"3070290","label":"Okres Most","value":"3070290","lat":50.5499999999999971578290569595992565155029296875,"lon":13.6333300000000008367351256310939788818359375,"poi_name":"Okres Most","parent_id":"3339577","long":13.6333300000000008367351256310939788818359375},"5":{"id":"3064287","label":"Okres Teplice","value":"3064287","lat":50.6333300000000008367351256310939788818359375,"lon":13.833330000000000126192389870993793010711669921875,"poi_name":"Okres Teplice","parent_id":"3339577","long":13.833330000000000126192389870993793010711669921875},"6":{"id":"3063547","label":"Okres \u00dast\u00ed nad Labem","value":"3063547","lat":50.66667000000000342652128892950713634490966796875,"lon":14.050000000000000710542735760100185871124267578125,"poi_name":"Okres \u00dast\u00ed nad Labem","parent_id":"3339577","long":14.050000000000000710542735760100185871124267578125}}