{"success":true,"remaining_lookups":9468,"0":{"id":"3075918","label":"Okres Havl\u00ed\u010dk\u016fv Brod","value":"3075918","lat":49.66667000000000342652128892950713634490966796875,"lon":15.583330000000000126192389870993793010711669921875,"poi_name":"Okres Havl\u00ed\u010dk\u016fv Brod","parent_id":"3339538","long":15.583330000000000126192389870993793010711669921875},"1":{"id":"3074197","label":"Okres Jihlava","value":"3074197","lat":49.33332999999999657347871107049286365509033203125,"lon":15.583330000000000126192389870993793010711669921875,"poi_name":"Okres Jihlava","parent_id":"3339538","long":15.583330000000000126192389870993793010711669921875},"2":{"id":"3068444","label":"Okres Pelh\u0159imov","value":"3068444","lat":49.41667000000000342652128892950713634490966796875,"lon":15.166669999999999873807610129006206989288330078125,"poi_name":"Okres Pelh\u0159imov","parent_id":"3339538","long":15.166669999999999873807610129006206989288330078125},"3":{"id":"3064103","label":"Okres T\u0159eb\u00ed\u010d","value":"3064103","lat":49.1333300000000008367351256310939788818359375,"lon":15.9333299999999997709210219909437000751495361328125,"poi_name":"Okres T\u0159eb\u00ed\u010d","parent_id":"3339538","long":15.9333299999999997709210219909437000751495361328125},"4":{"id":"3061694","label":"Okres \u017d\u010f\u00e1r nad S\u00e1zavou","value":"3061694","lat":49.5,"lon":16.03332999999999941564965411089360713958740234375,"poi_name":"Okres \u017d\u010f\u00e1r nad S\u00e1zavou","parent_id":"3339538","long":16.03332999999999941564965411089360713958740234375},"5":{"id":"3061695","label":"\u017d\u010f\u00e1r nad S\u00e1zavou","value":"3061695","lat":49.5626299999999986312104738317430019378662109375,"lon":15.9392399999999998527755451505072414875030517578125,"poi_name":"\u017d\u010f\u00e1r nad S\u00e1zavou","parent_id":"3339538","long":15.9392399999999998527755451505072414875030517578125}}