{"success":true,"remaining_lookups":9470,"0":{"id":"3074148","label":"Okres Jind\u0159ich\u016fv Hradec","value":"3074148","lat":49.08332999999999657347871107049286365509033203125,"lon":15.166669999999999873807610129006206989288330078125,"poi_name":"Okres Jind\u0159ich\u016fv Hradec","parent_id":"3339537","long":15.166669999999999873807610129006206989288330078125},"1":{"id":"3067712","label":"Okres Prachatice","value":"3067712","lat":49,"lon":13.8666699999999991632648743689060211181640625,"poi_name":"Okres Prachatice","parent_id":"3339537","long":13.8666699999999991632648743689060211181640625},"2":{"id":"3068289","label":"Okres P\u00edsek","value":"3068289","lat":49.39999999999999857891452847979962825775146484375,"lon":14.199999999999999289457264239899814128875732421875,"poi_name":"Okres P\u00edsek","parent_id":"3339537","long":14.199999999999999289457264239899814128875732421875},"3":{"id":"3065066","label":"Okres Strakonice","value":"3065066","lat":49.26666999999999774217940284870564937591552734375,"lon":13.9000000000000003552713678800500929355621337890625,"poi_name":"Okres Strakonice","parent_id":"3339537","long":13.9000000000000003552713678800500929355621337890625},"4":{"id":"3064377","label":"Okres T\u00e1bor","value":"3064377","lat":49.41667000000000342652128892950713634490966796875,"lon":14.666669999999999873807610129006206989288330078125,"poi_name":"Okres T\u00e1bor","parent_id":"3339537","long":14.666669999999999873807610129006206989288330078125},"5":{"id":"3077915","label":"Okres \u010cesk\u00e9 Bud\u011bjovice","value":"3077915","lat":49,"lon":14.5,"poi_name":"Okres \u010cesk\u00e9 Bud\u011bjovice","parent_id":"3339537","long":14.5},"6":{"id":"3077888","label":"Okres \u010cesk\u00fd Krumlov","value":"3077888","lat":48.75,"lon":14.333330000000000126192389870993793010711669921875,"poi_name":"Okres \u010cesk\u00fd Krumlov","parent_id":"3339537","long":14.333330000000000126192389870993793010711669921875}}