{"success":true,"remaining_lookups":9793,"0":{"id":"11184252","label":"German Busch","value":"11184252","lat":-17.77317000000000035697667044587433338165283203125,"lon":-63.19086999999999676447259844280779361724853515625,"poi_name":"German Busch","parent_id":"3904907","long":-63.19086999999999676447259844280779361724853515625},"1":{"id":"11184253","label":"Guarayos","value":"11184253","lat":-15.8213200000000000500222085975110530853271484375,"lon":-63.2428000000000025693225325085222721099853515625,"poi_name":"Guarayos","parent_id":"3904907","long":-63.2428000000000025693225325085222721099853515625},"2":{"id":"3923972","label":"Provincia Andr\u00e9s Ib\u00e1\u00f1ez","value":"3923972","lat":-17.75,"lon":-63.25,"poi_name":"Provincia Andr\u00e9s Ib\u00e1\u00f1ez","parent_id":"3904907","long":-63.25},"3":{"id":"3444670","label":"Provincia Chiquitos","value":"3444670","lat":-18,"lon":-60,"poi_name":"Provincia Chiquitos","parent_id":"3904907","long":-60},"4":{"id":"3919115","label":"Provincia Cordillera","value":"3919115","lat":-19,"lon":-61.5,"poi_name":"Provincia Cordillera","parent_id":"3904907","long":-61.5},"5":{"id":"3915714","label":"Provincia Florida","value":"3915714","lat":-18,"lon":-63.91667000000000342652128892950713634490966796875,"poi_name":"Provincia Florida","parent_id":"3904907","long":-63.91667000000000342652128892950713634490966796875},"6":{"id":"3914360","label":"Provincia Ichilo","value":"3914360","lat":-17,"lon":-64,"poi_name":"Provincia Ichilo","parent_id":"3904907","long":-64},"7":{"id":"3910776","label":"Provincia Manuel Mar\u00eda Caballero","value":"3910776","lat":-17.833330000000000126192389870993793010711669921875,"lon":-64.4166699999999963210939313285052776336669921875,"poi_name":"Provincia Manuel Mar\u00eda Caballero","parent_id":"3904907","long":-64.4166699999999963210939313285052776336669921875},"8":{"id":"3904660","label":"Provincia Santiesteban","value":"3904660","lat":-16.5,"lon":-63.5,"poi_name":"Provincia Santiesteban","parent_id":"3904907","long":-63.5},"9":{"id":"3904588","label":"Provincia Sara","value":"3904588","lat":-16.833330000000000126192389870993793010711669921875,"lon":-63.91667000000000342652128892950713634490966796875,"poi_name":"Provincia Sara","parent_id":"3904907","long":-63.91667000000000342652128892950713634490966796875},"10":{"id":"3901872","label":"Provincia Vallegrande","value":"3901872","lat":-18.5,"lon":-64.1666699999999963210939313285052776336669921875,"poi_name":"Provincia Vallegrande","parent_id":"3904907","long":-64.1666699999999963210939313285052776336669921875},"11":{"id":"3901825","label":"Provincia Velasco","value":"3901825","lat":-15.5,"lon":-61,"poi_name":"Provincia Velasco","parent_id":"3904907","long":-61},"12":{"id":"3901298","label":"Provincia Warnes","value":"3901298","lat":-17.333330000000000126192389870993793010711669921875,"lon":-63,"poi_name":"Provincia Warnes","parent_id":"3904907","long":-63},"13":{"id":"3444765","label":"Provincia \u00c1ngel Sandoval","value":"3444765","lat":-17.5,"lon":-58.5,"poi_name":"Provincia \u00c1ngel Sandoval","parent_id":"3904907","long":-58.5},"14":{"id":"3909446","label":"Provincia \u00d1uflo de Ch\u00e1vez","value":"3909446","lat":-15.916669999999999873807610129006206989288330078125,"lon":-62.5,"poi_name":"Provincia \u00d1uflo de Ch\u00e1vez","parent_id":"3904907","long":-62.5}}