{"success":true,"remaining_lookups":7857,"0":{"id":"11351732","label":"Anse Canot","value":"11351732","lat":13.9087099999999992405719240196049213409423828125,"lon":-60.90440000000000253521648119203746318817138671875,"poi_name":"Anse Canot","parent_id":"3576764","long":-60.90440000000000253521648119203746318817138671875},"1":{"id":"11351734","label":"Athens","value":"11351734","lat":13.9057399999999997675104168592952191829681396484375,"lon":-60.891840000000001964508555829524993896484375,"poi_name":"Athens","parent_id":"3576764","long":-60.891840000000001964508555829524993896484375},"2":{"id":"11351729","label":"Au Leon","value":"11351729","lat":13.9524500000000006849631972727365791797637939453125,"lon":-60.90455999999999647798176738433539867401123046875,"poi_name":"Au Leon","parent_id":"3576764","long":-60.90455999999999647798176738433539867401123046875},"3":{"id":"11351728","label":"Bara Bara","value":"11351728","lat":13.9591100000000007952394298627041280269622802734375,"lon":-60.9341399999999993042365531437098979949951171875,"poi_name":"Bara Bara","parent_id":"3576764","long":-60.9341399999999993042365531437098979949951171875},"4":{"id":"11351739","label":"Barre De L'Isle","value":"11351739","lat":13.9235799999999994014387993956916034221649169921875,"lon":-60.9601899999999972123987390659749507904052734375,"poi_name":"Barre De L'Isle","parent_id":"3576764","long":-60.9601899999999972123987390659749507904052734375},"5":{"id":"11351572","label":"Bazile","value":"11351572","lat":13.9108199999999992968469086918048560619354248046875,"lon":-60.9243000000000023419488570652902126312255859375,"poi_name":"Bazile","parent_id":"3576764","long":-60.9243000000000023419488570652902126312255859375},"6":{"id":"11351473","label":"Belmont","value":"11351473","lat":13.9504400000000003956301952712237834930419921875,"lon":-60.932760000000001809894456528127193450927734375,"poi_name":"Belmont","parent_id":"3576764","long":-60.932760000000001809894456528127193450927734375},"7":{"id":"11351474","label":"Bois Joli","value":"11351474","lat":13.9201999999999994628296917653642594814300537109375,"lon":-60.9140900000000016234480426646769046783447265625,"poi_name":"Bois Joli","parent_id":"3576764","long":-60.9140900000000016234480426646769046783447265625},"8":{"id":"11351595","label":"Bordelais","value":"11351595","lat":13.8955199999999994275867720716632902622222900390625,"lon":-60.9009199999999992769517120905220508575439453125,"poi_name":"Bordelais","parent_id":"3576764","long":-60.9009199999999992769517120905220508575439453125},"9":{"id":"11351472","label":"Bosquet D'Or","value":"11351472","lat":13.9288600000000002410160959698259830474853515625,"lon":-60.91127000000000180079950951039791107177734375,"poi_name":"Bosquet D'Or","parent_id":"3576764","long":-60.91127000000000180079950951039791107177734375},"10":{"id":"11351504","label":"Central Forest Reserve","value":"11351504","lat":13.8674800000000004729372449219226837158203125,"lon":-60.98481000000000307181835523806512355804443359375,"poi_name":"Central Forest Reserve","parent_id":"3576764","long":-60.98481000000000307181835523806512355804443359375},"11":{"id":"11351730","label":"Delaide","value":"11351730","lat":13.9299300000000005894662535865791141986846923828125,"lon":-60.9058399999999977580955601297318935394287109375,"poi_name":"Delaide","parent_id":"3576764","long":-60.9058399999999977580955601297318935394287109375},"12":{"id":"11351731","label":"Dennery By Pass","value":"11351731","lat":13.9116400000000002279421096318401396274566650390625,"lon":-60.89453999999999922465576673857867717742919921875,"poi_name":"Dennery By Pass","parent_id":"3576764","long":-60.89453999999999922465576673857867717742919921875},"13":{"id":"11351727","label":"Dennery By Pass\/Green Mountain","value":"11351727","lat":13.910940000000000082991391536779701709747314453125,"lon":-60.8980999999999994543031789362430572509765625,"poi_name":"Dennery By Pass\/Green Mountain","parent_id":"3576764","long":-60.8980999999999994543031789362430572509765625},"14":{"id":"11351738","label":"Dennery By Pass\/Rocky Lane","value":"11351738","lat":13.914429999999999409965312224812805652618408203125,"lon":-60.9001700000000028012436814606189727783203125,"poi_name":"Dennery By Pass\/Rocky Lane","parent_id":"3576764","long":-60.9001700000000028012436814606189727783203125},"15":{"id":"11351742","label":"Dennery By Pass\/White Rock Gardens","value":"11351742","lat":13.91423999999999949750417727045714855194091796875,"lon":-60.89332999999999884721546550281345844268798828125,"poi_name":"Dennery By Pass\/White Rock Gardens","parent_id":"3576764","long":-60.89332999999999884721546550281345844268798828125},"16":{"id":"11351762","label":"Dennery Village","value":"11351762","lat":13.9109899999999999664623828721232712268829345703125,"lon":-60.89121999999999701458364143036305904388427734375,"poi_name":"Dennery Village","parent_id":"3576764","long":-60.89121999999999701458364143036305904388427734375},"17":{"id":"11351749","label":"Derniere Riviere","value":"11351749","lat":13.9567899999999998073008100618608295917510986328125,"lon":-60.925780000000003155946615152060985565185546875,"poi_name":"Derniere Riviere","parent_id":"3576764","long":-60.925780000000003155946615152060985565185546875},"18":{"id":"11351741","label":"Derniere Riviere\/Fond Maricient","value":"11351741","lat":13.951299999999999812416717759333550930023193359375,"lon":-60.922179999999997335180523805320262908935546875,"poi_name":"Derniere Riviere\/Fond Maricient","parent_id":"3576764","long":-60.922179999999997335180523805320262908935546875},"19":{"id":"11351506","label":"Derniere Riviere\/Fond Petit","value":"11351506","lat":13.9655900000000006144773578853346407413482666015625,"lon":-60.93041000000000195768734556622803211212158203125,"poi_name":"Derniere Riviere\/Fond Petit","parent_id":"3576764","long":-60.93041000000000195768734556622803211212158203125},"20":{"id":"11351735","label":"Derniere Riviere\/Mardi Gras\/Morne Caca Cochon","value":"11351735","lat":13.9628800000000001801936377887614071369171142578125,"lon":-60.92029000000000138470568344928324222564697265625,"poi_name":"Derniere Riviere\/Mardi Gras\/Morne Caca Cochon","parent_id":"3576764","long":-60.92029000000000138470568344928324222564697265625},"21":{"id":"11351750","label":"Derniere Riviere\/Morne Panache","value":"11351750","lat":13.95251999999999981127984938211739063262939453125,"lon":-60.92918999999999840611053514294326305389404296875,"poi_name":"Derniere Riviere\/Morne Panache","parent_id":"3576764","long":-60.92918999999999840611053514294326305389404296875},"22":{"id":"11351751","label":"Despinoze","value":"11351751","lat":13.949709999999999610054146614857017993927001953125,"lon":-60.91181999999999874262357479892671108245849609375,"poi_name":"Despinoze","parent_id":"3576764","long":-60.91181999999999874262357479892671108245849609375},"23":{"id":"11351565","label":"Dubonnaire","value":"11351565","lat":13.9280799999999995719690559781156480312347412109375,"lon":-60.923360000000002401066012680530548095703125,"poi_name":"Dubonnaire","parent_id":"3576764","long":-60.923360000000002401066012680530548095703125},"24":{"id":"11351548","label":"Errard","value":"11351548","lat":13.8924199999999995469579516793601214885711669921875,"lon":-60.9358500000000020691004465334117412567138671875,"poi_name":"Errard","parent_id":"3576764","long":-60.9358500000000020691004465334117412567138671875},"25":{"id":"11351753","label":"Fond D'Or","value":"11351753","lat":13.9235600000000001585931386216543614864349365234375,"lon":-60.89395999999999986584953148849308490753173828125,"poi_name":"Fond D'Or","parent_id":"3576764","long":-60.89395999999999986584953148849308490753173828125},"26":{"id":"11351457","label":"Gadette","value":"11351457","lat":13.95936999999999983401721692644059658050537109375,"lon":-60.910290000000003374225343577563762664794921875,"poi_name":"Gadette","parent_id":"3576764","long":-60.910290000000003374225343577563762664794921875},"27":{"id":"11351754","label":"Glavier","value":"11351754","lat":13.9224599999999991695176504435949027538299560546875,"lon":-60.911259999999998626663000322878360748291015625,"poi_name":"Glavier","parent_id":"3576764","long":-60.911259999999998626663000322878360748291015625},"28":{"id":"11351492","label":"Grande Ravine","value":"11351492","lat":13.9426299999999994128074831678532063961029052734375,"lon":-60.93404000000000309000824927352368831634521484375,"poi_name":"Grande Ravine","parent_id":"3576764","long":-60.93404000000000309000824927352368831634521484375},"29":{"id":"11351743","label":"Grande Riviere","value":"11351743","lat":13.9330599999999993343635651399381458759307861328125,"lon":-60.93238999999999805368133820593357086181640625,"poi_name":"Grande Riviere","parent_id":"3576764","long":-60.93238999999999805368133820593357086181640625},"30":{"id":"11351592","label":"Grande Riviere\/Des Branch","value":"11351592","lat":13.93383000000000038198777474462985992431640625,"lon":-60.934989999999999099600245244801044464111328125,"poi_name":"Grande Riviere\/Des Branch","parent_id":"3576764","long":-60.934989999999999099600245244801044464111328125},"31":{"id":"11351745","label":"Grande Riviere\/En Leur Morne\/Discompere","value":"11351745","lat":13.932230000000000558202373213134706020355224609375,"lon":-60.93460999999999927467797533608973026275634765625,"poi_name":"Grande Riviere\/En Leur Morne\/Discompere","parent_id":"3576764","long":-60.93460999999999927467797533608973026275634765625},"32":{"id":"11351746","label":"Grande Riviere\/Funier","value":"11351746","lat":13.9323999999999994514610079932026565074920654296875,"lon":-60.93305000000000148929757415316998958587646484375,"poi_name":"Grande Riviere\/Funier","parent_id":"3576764","long":-60.93305000000000148929757415316998958587646484375},"33":{"id":"11351551","label":"Grande Riviere\/Morne Caca Cochon","value":"11351551","lat":13.92960000000000064801497501321136951446533203125,"lon":-60.937939999999997553459252230823040008544921875,"poi_name":"Grande Riviere\/Morne Caca Cochon","parent_id":"3576764","long":-60.937939999999997553459252230823040008544921875},"34":{"id":"11351758","label":"La Caye","value":"11351758","lat":13.932900000000000062527760746888816356658935546875,"lon":-60.90433999999999770125214126892387866973876953125,"poi_name":"La Caye","parent_id":"3576764","long":-60.90433999999999770125214126892387866973876953125},"35":{"id":"11351445","label":"La Pelle","value":"11351445","lat":13.940960000000000462705429526977241039276123046875,"lon":-60.90568999999999988403942552395164966583251953125,"poi_name":"La Pelle","parent_id":"3576764","long":-60.90568999999999988403942552395164966583251953125},"36":{"id":"11351764","label":"La Pointe","value":"11351764","lat":13.9152500000000003410605131648480892181396484375,"lon":-60.8883000000000009777068044058978557586669921875,"poi_name":"La Pointe","parent_id":"3576764","long":-60.8883000000000009777068044058978557586669921875},"37":{"id":"11351759","label":"La Ressource","value":"11351759","lat":13.942930000000000489990270580165088176727294921875,"lon":-60.91584999999999894271240918897092342376708984375,"poi_name":"La Ressource","parent_id":"3576764","long":-60.91584999999999894271240918897092342376708984375},"38":{"id":"11351585","label":"La Sociere","value":"11351585","lat":13.9734999999999995878852132591418921947479248046875,"lon":-60.899799999999999045030563138425350189208984375,"poi_name":"La Sociere","parent_id":"3576764","long":-60.899799999999999045030563138425350189208984375},"39":{"id":"11351481","label":"Louvet","value":"11351481","lat":13.959250000000000824229573481716215610504150390625,"lon":-60.88703000000000287172952084802091121673583984375,"poi_name":"Louvet","parent_id":"3576764","long":-60.88703000000000287172952084802091121673583984375},"40":{"id":"11351547","label":"Lumiere","value":"11351547","lat":13.939280000000000114823706098832190036773681640625,"lon":-60.88889000000000351064954884350299835205078125,"poi_name":"Lumiere","parent_id":"3576764","long":-60.88889000000000351064954884350299835205078125},"41":{"id":"11351766","label":"Mandele","value":"11351766","lat":13.895450000000000301270119962282478809356689453125,"lon":-60.88499999999999801048033987171947956085205078125,"poi_name":"Mandele","parent_id":"3576764","long":-60.88499999999999801048033987171947956085205078125},"42":{"id":"11351747","label":"Morne Panache","value":"11351747","lat":13.9216700000000006554046194651164114475250244140625,"lon":-60.93654000000000081627149484120309352874755859375,"poi_name":"Morne Panache","parent_id":"3576764","long":-60.93654000000000081627149484120309352874755859375},"43":{"id":"11351740","label":"Mount Beaujolais","value":"11351740","lat":13.906459999999999155306795728392899036407470703125,"lon":-60.93395000000000294448909698985517024993896484375,"poi_name":"Mount Beaujolais","parent_id":"3576764","long":-60.93395000000000294448909698985517024993896484375},"44":{"id":"11351756","label":"Pascal","value":"11351756","lat":13.901379999999999625970303895883262157440185546875,"lon":-60.8915300000000030422597774304449558258056640625,"poi_name":"Pascal","parent_id":"3576764","long":-60.8915300000000030422597774304449558258056640625},"45":{"id":"11351593","label":"Riche Fond","value":"11351593","lat":13.9364399999999992729726727702654898166656494140625,"lon":-60.9202599999999989677235134877264499664306640625,"poi_name":"Riche Fond","parent_id":"3576764","long":-60.9202599999999989677235134877264499664306640625},"46":{"id":"11351736","label":"Riche Fond\/La Belle Vie","value":"11351736","lat":13.9378200000000003200284481863491237163543701171875,"lon":-60.9290799999999990177457220852375030517578125,"poi_name":"Riche Fond\/La Belle Vie","parent_id":"3576764","long":-60.9290799999999990177457220852375030517578125},"47":{"id":"11351737","label":"Riche Fond\/New Village","value":"11351737","lat":13.936479999999999535020833718590438365936279296875,"lon":-60.9239400000000017598722479306161403656005859375,"poi_name":"Riche Fond\/New Village","parent_id":"3576764","long":-60.9239400000000017598722479306161403656005859375},"48":{"id":"11351757","label":"St. Joseph Estate","value":"11351757","lat":13.9006600000000002381739250267855823040008544921875,"lon":-60.9144399999999990313881426118314266204833984375,"poi_name":"St. Joseph Estate","parent_id":"3576764","long":-60.9144399999999990313881426118314266204833984375},"49":{"id":"11351543","label":"Thamazo","value":"11351543","lat":13.932449999999999334931999328546226024627685546875,"lon":-60.94785999999999859255694900639355182647705078125,"poi_name":"Thamazo","parent_id":"3576764","long":-60.94785999999999859255694900639355182647705078125},"50":{"id":"11351454","label":"Thomazo\/Tournesse","value":"11351454","lat":13.919019999999999726014721090905368328094482421875,"lon":-60.94465000000000287627699435688555240631103515625,"poi_name":"Thomazo\/Tournesse","parent_id":"3576764","long":-60.94465000000000287627699435688555240631103515625}}