{"success":true,"remaining_lookups":7854,"0":{"id":"11351865","label":"Anbre","value":"11351865","lat":13.826859999999999928377292235381901264190673828125,"lon":-60.92775000000000318323145620524883270263671875,"poi_name":"Anbre","parent_id":"3576567","long":-60.92775000000000318323145620524883270263671875},"1":{"id":"11351455","label":"Anse Ger","value":"11351455","lat":13.7956699999999994332711139577440917491912841796875,"lon":-60.91566999999999865167410462163388729095458984375,"poi_name":"Anse Ger","parent_id":"3576567","long":-60.91566999999999865167410462163388729095458984375},"2":{"id":"11351603","label":"Beauchamp","value":"11351603","lat":13.8177800000000008395772965741343796253204345703125,"lon":-60.91528000000000275804268312640488147735595703125,"poi_name":"Beauchamp","parent_id":"3576567","long":-60.91528000000000275804268312640488147735595703125},"3":{"id":"11351484","label":"Blanchard","value":"11351484","lat":13.8061600000000002097522155963815748691558837890625,"lon":-60.94630000000000080717654782347381114959716796875,"poi_name":"Blanchard","parent_id":"3576567","long":-60.94630000000000080717654782347381114959716796875},"4":{"id":"11351402","label":"Bois Canot","value":"11351402","lat":13.83944999999999936335370875895023345947265625,"lon":-60.93162000000000233512764680199325084686279296875,"poi_name":"Bois Canot","parent_id":"3576567","long":-60.93162000000000233512764680199325084686279296875},"5":{"id":"11351412","label":"Calypso","value":"11351412","lat":13.8255199999999991433696777676232159137725830078125,"lon":-60.9611000000000018417267710901796817779541015625,"poi_name":"Calypso","parent_id":"3576567","long":-60.9611000000000018417267710901796817779541015625},"6":{"id":"11351482","label":"Canelles","value":"11351482","lat":13.7851499999999997925215211580507457256317138671875,"lon":-60.91788999999999987267074175179004669189453125,"poi_name":"Canelles","parent_id":"3576567","long":-60.91788999999999987267074175179004669189453125},"7":{"id":"11351869","label":"Carriere","value":"11351869","lat":13.8360900000000004439471013029105961322784423828125,"lon":-60.94545000000000101181285572238266468048095703125,"poi_name":"Carriere","parent_id":"3576567","long":-60.94545000000000101181285572238266468048095703125},"8":{"id":"11351857","label":"Catter Beaufond","value":"11351857","lat":13.8424899999999997390887074288912117481231689453125,"lon":-60.9459599999999994679455994628369808197021484375,"poi_name":"Catter Beaufond","parent_id":"3576567","long":-60.9459599999999994679455994628369808197021484375},"9":{"id":"11351393","label":"Cazuca","value":"11351393","lat":13.800019999999999953388396534137427806854248046875,"lon":-60.9048099999999976716935634613037109375,"poi_name":"Cazuca","parent_id":"3576567","long":-60.9048099999999976716935634613037109375},"10":{"id":"11351866","label":"Chique\/Blanchard","value":"11351866","lat":13.8011999999999996902033672085963189601898193359375,"lon":-60.94969999999999998863131622783839702606201171875,"poi_name":"Chique\/Blanchard","parent_id":"3576567","long":-60.94969999999999998863131622783839702606201171875},"11":{"id":"11351428","label":"Choucomel","value":"11351428","lat":13.8338300000000007372591426246799528598785400390625,"lon":-60.95853000000000321279003401286900043487548828125,"poi_name":"Choucomel","parent_id":"3576567","long":-60.95853000000000321279003401286900043487548828125},"12":{"id":"11351431","label":"Coolie Town","value":"11351431","lat":13.8542900000000006599520929739810526371002197265625,"lon":-60.91380000000000194404492503963410854339599609375,"poi_name":"Coolie Town","parent_id":"3576567","long":-60.91380000000000194404492503963410854339599609375},"13":{"id":"11351586","label":"Delomel","value":"11351586","lat":13.803380000000000649151843390427529811859130859375,"lon":-60.929270000000002482920535840094089508056640625,"poi_name":"Delomel","parent_id":"3576567","long":-60.929270000000002482920535840094089508056640625},"14":{"id":"11351883","label":"Des Blanchard","value":"11351883","lat":13.811550000000000437694325228221714496612548828125,"lon":-60.9342299999999994497557054273784160614013671875,"poi_name":"Des Blanchard","parent_id":"3576567","long":-60.9342299999999994497557054273784160614013671875},"15":{"id":"11351537","label":"Descatier\/Six Miles","value":"11351537","lat":13.8402200000000004109779183636419475078582763671875,"lon":-60.978329999999999699866748414933681488037109375,"poi_name":"Descatier\/Six Miles","parent_id":"3576567","long":-60.978329999999999699866748414933681488037109375},"16":{"id":"11351531","label":"Desruisseaux","value":"11351531","lat":13.7964000000000002188471626141108572483062744140625,"lon":-60.9354000000000013415046851150691509246826171875,"poi_name":"Desruisseaux","parent_id":"3576567","long":-60.9354000000000013415046851150691509246826171875},"17":{"id":"11351485","label":"Dugard","value":"11351485","lat":13.810900000000000176214598468504846096038818359375,"lon":-60.91414999999999935198502498678863048553466796875,"poi_name":"Dugard","parent_id":"3576567","long":-60.91414999999999935198502498678863048553466796875},"18":{"id":"11351532","label":"En Mango","value":"11351532","lat":13.800000000000000710542735760100185871124267578125,"lon":-60.9245599999999996043698047287762165069580078125,"poi_name":"En Mango","parent_id":"3576567","long":-60.9245599999999996043698047287762165069580078125},"19":{"id":"11351581","label":"Escap","value":"11351581","lat":13.830310000000000769659891375340521335601806640625,"lon":-60.89672999999999802867023390717804431915283203125,"poi_name":"Escap","parent_id":"3576567","long":-60.89672999999999802867023390717804431915283203125},"20":{"id":"11351557","label":"Fond D'Lor\/Dugard","value":"11351557","lat":13.8106899999999992445509633398614823818206787109375,"lon":-60.92119000000000283989720628596842288970947265625,"poi_name":"Fond D'Lor\/Dugard","parent_id":"3576567","long":-60.92119000000000283989720628596842288970947265625},"21":{"id":"11351589","label":"Fond Estate","value":"11351589","lat":13.84243000000000023419488570652902126312255859375,"lon":-60.91861999999999710553311160765588283538818359375,"poi_name":"Fond Estate","parent_id":"3576567","long":-60.91861999999999710553311160765588283538818359375},"22":{"id":"11351863","label":"Fond\/Desruisseaux","value":"11351863","lat":13.79420999999999963847585604526102542877197265625,"lon":-60.94127999999999900637703831307590007781982421875,"poi_name":"Fond\/Desruisseaux","parent_id":"3576567","long":-60.94127999999999900637703831307590007781982421875},"23":{"id":"11351871","label":"Galba","value":"11351871","lat":13.8359199999999997743316271225921809673309326171875,"lon":-60.93930999999999897909219725988805294036865234375,"poi_name":"Galba","parent_id":"3576567","long":-60.93930999999999897909219725988805294036865234375},"24":{"id":"11351867","label":"Gomier","value":"11351867","lat":13.81484999999999985220711096189916133880615234375,"lon":-60.95251999999999981127984938211739063262939453125,"poi_name":"Gomier","parent_id":"3576567","long":-60.95251999999999981127984938211739063262939453125},"25":{"id":"11351862","label":"Gouette","value":"11351862","lat":13.806499999999999772626324556767940521240234375,"lon":-60.93963999999999714418663643300533294677734375,"poi_name":"Gouette","parent_id":"3576567","long":-60.93963999999999714418663643300533294677734375},"26":{"id":"11351536","label":"Honeymoon Beach","value":"11351536","lat":13.7774599999999995958432918996550142765045166015625,"lon":-60.90493000000000023419488570652902126312255859375,"poi_name":"Honeymoon Beach","parent_id":"3576567","long":-60.90493000000000023419488570652902126312255859375},"27":{"id":"11351483","label":"L'Eau Mineau","value":"11351483","lat":13.8067200000000003257127900724299252033233642578125,"lon":-60.921030000000001791704562492668628692626953125,"poi_name":"L'Eau Mineau","parent_id":"3576567","long":-60.921030000000001791704562492668628692626953125},"28":{"id":"11351538","label":"L'Orangerie Road","value":"11351538","lat":13.856249999999999289457264239899814128875732421875,"lon":-60.9355199999999967985786497592926025390625,"poi_name":"L'Orangerie Road","parent_id":"3576567","long":-60.9355199999999967985786497592926025390625},"29":{"id":"11351861","label":"L'Union","value":"11351861","lat":13.876519999999999299689079634845256805419921875,"lon":-60.9008299999999991314325598068535327911376953125,"poi_name":"L'Union","parent_id":"3576567","long":-60.9008299999999991314325598068535327911376953125},"30":{"id":"11351872","label":"La Courville","value":"11351872","lat":13.8105600000000006133404895081184804439544677734375,"lon":-60.92766000000000303771230392158031463623046875,"poi_name":"La Courville","parent_id":"3576567","long":-60.92766000000000303771230392158031463623046875},"31":{"id":"11351860","label":"La Croix","value":"11351860","lat":13.8738200000000002631850293255411088466644287109375,"lon":-60.90185000000000314912540488876402378082275390625,"poi_name":"La Croix","parent_id":"3576567","long":-60.90185000000000314912540488876402378082275390625},"32":{"id":"11351873","label":"La Fille","value":"11351873","lat":13.8351699999999997459099176921881735324859619140625,"lon":-60.93401000000000067302607931196689605712890625,"poi_name":"La Fille","parent_id":"3576567","long":-60.93401000000000067302607931196689605712890625},"33":{"id":"11351859","label":"La Gwen Ba","value":"11351859","lat":13.8766200000000008429879017057828605175018310546875,"lon":-60.91210000000000235331754083745181560516357421875,"poi_name":"La Gwen Ba","parent_id":"3576567","long":-60.91210000000000235331754083745181560516357421875},"34":{"id":"11351852","label":"La Haut","value":"11351852","lat":13.858879999999999199644662439823150634765625,"lon":-60.906779999999997698978404514491558074951171875,"poi_name":"La Haut","parent_id":"3576567","long":-60.906779999999997698978404514491558074951171875},"35":{"id":"11351874","label":"La Pointe","value":"11351874","lat":13.845929999999999182591636781580746173858642578125,"lon":-60.8933200000000027785063139162957668304443359375,"poi_name":"La Pointe","parent_id":"3576567","long":-60.8933200000000027785063139162957668304443359375},"36":{"id":"11351847","label":"La Tille","value":"11351847","lat":13.827439999999999287183527485467493534088134765625,"lon":-60.91716000000000263980837189592421054840087890625,"poi_name":"La Tille","parent_id":"3576567","long":-60.91716000000000263980837189592421054840087890625},"37":{"id":"11351839","label":"Lezy","value":"11351839","lat":13.8037200000000002120259523508138954639434814453125,"lon":-60.9390599999999977853804011829197406768798828125,"poi_name":"Lezy","parent_id":"3576567","long":-60.9390599999999977853804011829197406768798828125},"38":{"id":"11351477","label":"Lombard","value":"11351477","lat":13.857720000000000482032191939651966094970703125,"lon":-60.91510000000000246700437855906784534454345703125,"poi_name":"Lombard","parent_id":"3576567","long":-60.91510000000000246700437855906784534454345703125},"39":{"id":"11351533","label":"London Road","value":"11351533","lat":13.7974399999999999266719896695576608180999755859375,"lon":-60.942239999999998190105543471872806549072265625,"poi_name":"London Road","parent_id":"3576567","long":-60.942239999999998190105543471872806549072265625},"40":{"id":"11351878","label":"Mahaut","value":"11351878","lat":13.8439099999999992718358043930493295192718505859375,"lon":-60.953969999999998208295437507331371307373046875,"poi_name":"Mahaut","parent_id":"3576567","long":-60.953969999999998208295437507331371307373046875},"41":{"id":"11351569","label":"Malgretoute","value":"11351569","lat":13.841989999999999128021954675205051898956298828125,"lon":-60.90411000000000285581336356699466705322265625,"poi_name":"Malgretoute","parent_id":"3576567","long":-60.90411000000000285581336356699466705322265625},"42":{"id":"11351404","label":"Mamiku","value":"11351404","lat":13.8674400000000002108890839735977351665496826171875,"lon":-60.90183999999999997498889570124447345733642578125,"poi_name":"Mamiku","parent_id":"3576567","long":-60.90183999999999997498889570124447345733642578125},"43":{"id":"11351469","label":"Mine","value":"11351469","lat":13.873120000000000118234311230480670928955078125,"lon":-60.90950000000000130739863379858434200286865234375,"poi_name":"Mine","parent_id":"3576567","long":-60.90950000000000130739863379858434200286865234375},"44":{"id":"11351438","label":"Mon Repos","value":"11351438","lat":13.858650000000000801492205937393009662628173828125,"lon":-60.8959100000000006502887117676436901092529296875,"poi_name":"Mon Repos","parent_id":"3576567","long":-60.8959100000000006502887117676436901092529296875},"45":{"id":"11351564","label":"Moreau","value":"11351564","lat":13.82676000000000016143530956469476222991943359375,"lon":-60.9423799999999999954525264911353588104248046875,"poi_name":"Moreau","parent_id":"3576567","long":-60.9423799999999999954525264911353588104248046875},"46":{"id":"11351843","label":"Morne Vient","value":"11351843","lat":13.8064599999999995105781636084429919719696044921875,"lon":-60.9524100000000004229150363244116306304931640625,"poi_name":"Morne Vient","parent_id":"3576567","long":-60.9524100000000004229150363244116306304931640625},"47":{"id":"11351495","label":"Mount Erole","value":"11351495","lat":13.8602000000000007418066161335445940494537353515625,"lon":-60.911979999999999790816218592226505279541015625,"poi_name":"Mount Erole","parent_id":"3576567","long":-60.911979999999999790816218592226505279541015625},"48":{"id":"11351559","label":"Myette Gardens","value":"11351559","lat":13.818619999999999237161318887956440448760986328125,"lon":-60.90440000000000253521648119203746318817138671875,"poi_name":"Myette Gardens","parent_id":"3576567","long":-60.90440000000000253521648119203746318817138671875},"49":{"id":"11351877","label":"New Village","value":"11351877","lat":13.8244600000000001926991899381391704082489013671875,"lon":-60.8986400000000003274180926382541656494140625,"poi_name":"New Village","parent_id":"3576567","long":-60.8986400000000003274180926382541656494140625},"50":{"id":"11351885","label":"Paix Bouche","value":"11351885","lat":13.8155599999999996185806594439782202243804931640625,"lon":-60.940730000000002064552973024547100067138671875,"poi_name":"Paix Bouche","parent_id":"3576567","long":-60.940730000000002064552973024547100067138671875},"51":{"id":"11351552","label":"Palmiste Estate","value":"11351552","lat":13.853770000000000806039679446257650852203369140625,"lon":-60.960070000000001755324774421751499176025390625,"poi_name":"Palmiste Estate","parent_id":"3576567","long":-60.960070000000001755324774421751499176025390625},"52":{"id":"11351396","label":"Patience","value":"11351396","lat":13.8499999999999996447286321199499070644378662109375,"lon":-60.90874000000000165755409398116171360015869140625,"poi_name":"Patience","parent_id":"3576567","long":-60.90874000000000165755409398116171360015869140625},"53":{"id":"11351529","label":"Pelouze","value":"11351529","lat":13.878299999999999414512785733677446842193603515625,"lon":-60.917720000000002755768946371972560882568359375,"poi_name":"Pelouze","parent_id":"3576567","long":-60.917720000000002755768946371972560882568359375},"54":{"id":"11351544","label":"Planard","value":"11351544","lat":13.8052100000000006474465408246032893657684326171875,"lon":-60.91539999999999821511664777062833309173583984375,"poi_name":"Planard","parent_id":"3576567","long":-60.91539999999999821511664777062833309173583984375},"55":{"id":"11351429","label":"Praslin","value":"11351429","lat":13.8846900000000008645884008728899061679840087890625,"lon":-60.89650000000000318323145620524883270263671875,"poi_name":"Praslin","parent_id":"3576567","long":-60.89650000000000318323145620524883270263671875},"56":{"id":"11351449","label":"Raillon Road","value":"11351449","lat":13.8707300000000000039790393202565610408782958984375,"lon":-60.9341399999999993042365531437098979949951171875,"poi_name":"Raillon Road","parent_id":"3576567","long":-60.9341399999999993042365531437098979949951171875},"57":{"id":"11351888","label":"Rameau","value":"11351888","lat":13.8305500000000005655920176650397479534149169921875,"lon":-60.9237499999999982946974341757595539093017578125,"poi_name":"Rameau","parent_id":"3576567","long":-60.9237499999999982946974341757595539093017578125},"58":{"id":"11351432","label":"Rouarne","value":"11351432","lat":13.77750999999999947931428323499858379364013671875,"lon":-60.9160600000000016507328837178647518157958984375,"poi_name":"Rouarne","parent_id":"3576567","long":-60.9160600000000016507328837178647518157958984375},"59":{"id":"11351434","label":"Saint Marie Road","value":"11351434","lat":13.854440000000000310365066980011761188507080078125,"lon":-60.9180300000000016780177247710525989532470703125,"poi_name":"Saint Marie Road","parent_id":"3576567","long":-60.9180300000000016780177247710525989532470703125},"60":{"id":"11351534","label":"Saut","value":"11351534","lat":13.8127200000000005530864655156619846820831298828125,"lon":-60.94375000000000142108547152020037174224853515625,"poi_name":"Saut","parent_id":"3576567","long":-60.94375000000000142108547152020037174224853515625},"61":{"id":"11351433","label":"Savannes","value":"11351433","lat":13.7709799999999997766053638770245015621185302734375,"lon":-60.9201699999999988222043612040579319000244140625,"poi_name":"Savannes","parent_id":"3576567","long":-60.9201699999999988222043612040579319000244140625},"62":{"id":"11351436","label":"St Helen Estate","value":"11351436","lat":13.787349999999999994315658113919198513031005859375,"lon":-60.90726000000000084355633589439094066619873046875,"poi_name":"St Helen Estate","parent_id":"3576567","long":-60.90726000000000084355633589439094066619873046875},"63":{"id":"11351881","label":"Ti Riviere","value":"11351881","lat":13.830059999999999575948095298372209072113037109375,"lon":-60.93773999999999801957528688944876194000244140625,"poi_name":"Ti Riviere","parent_id":"3576567","long":-60.93773999999999801957528688944876194000244140625},"64":{"id":"11351435","label":"Ti Rocher","value":"11351435","lat":13.8173399999999997334043655428104102611541748046875,"lon":-60.9285799999999966303221299313008785247802734375,"poi_name":"Ti Rocher","parent_id":"3576567","long":-60.9285799999999966303221299313008785247802734375},"65":{"id":"11351886","label":"Tou Cochan\/Ti Rocher","value":"11351886","lat":13.8217499999999997584154698415659368038177490234375,"lon":-60.9473100000000016507328837178647518157958984375,"poi_name":"Tou Cochan\/Ti Rocher","parent_id":"3576567","long":-60.9473100000000016507328837178647518157958984375},"66":{"id":"11351397","label":"Troumassee","value":"11351397","lat":13.80892000000000052750692702829837799072265625,"lon":-60.90341000000000093450580607168376445770263671875,"poi_name":"Troumassee","parent_id":"3576567","long":-60.90341000000000093450580607168376445770263671875},"67":{"id":"11351401","label":"Village","value":"11351401","lat":13.8190399999999993241317497449927031993865966796875,"lon":-60.89692000000000149384504766203463077545166015625,"poi_name":"Village","parent_id":"3576567","long":-60.89692000000000149384504766203463077545166015625},"68":{"id":"11351887","label":"Volet","value":"11351887","lat":13.8262599999999995503685568110086023807525634765625,"lon":-60.90789000000000186219040188007056713104248046875,"poi_name":"Volet","parent_id":"3576567","long":-60.90789000000000186219040188007056713104248046875}}