{"success":true,"remaining_lookups":7852,"0":{"id":"11351853","label":"Anse De Sables\/Beane Field","value":"11351853","lat":13.7315400000000007452172212651930749416351318359375,"lon":-60.94078999999999979308995534665882587432861328125,"poi_name":"Anse De Sables\/Beane Field","parent_id":"3576413","long":-60.94078999999999979308995534665882587432861328125},"1":{"id":"11351909","label":"Augier","value":"11351909","lat":13.766690000000000537738742423243820667266845703125,"lon":-60.98062999999999789224602864123880863189697265625,"poi_name":"Augier","parent_id":"3576413","long":-60.98062999999999789224602864123880863189697265625},"2":{"id":"11351913","label":"Beane Field","value":"11351913","lat":13.739760000000000417230694438330829143524169921875,"lon":-60.94740999999999786496118758805096149444580078125,"poi_name":"Beane Field","parent_id":"3576413","long":-60.94740999999999786496118758805096149444580078125},"3":{"id":"11351914","label":"Beausejour","value":"11351914","lat":13.7522900000000003473132892395369708538055419921875,"lon":-60.9551900000000017598722479306161403656005859375,"poi_name":"Beausejour","parent_id":"3576413","long":-60.9551900000000017598722479306161403656005859375},"4":{"id":"11351905","label":"Belle Vue","value":"11351905","lat":13.7921800000000001062971932697109878063201904296875,"lon":-60.953789999999997917257132939994335174560546875,"poi_name":"Belle Vue","parent_id":"3576413","long":-60.953789999999997917257132939994335174560546875},"5":{"id":"11351440","label":"Black Bay","value":"11351440","lat":13.7432999999999996276756064617075026035308837890625,"lon":-60.982720000000000482032191939651966094970703125,"poi_name":"Black Bay","parent_id":"3576413","long":-60.982720000000000482032191939651966094970703125},"6":{"id":"11351929","label":"Bruceville\/Shanty Town","value":"11351929","lat":13.72558000000000077989170677028596401214599609375,"lon":-60.94906999999999896999725024215877056121826171875,"poi_name":"Bruceville\/Shanty Town","parent_id":"3576413","long":-60.94906999999999896999725024215877056121826171875},"7":{"id":"11351508","label":"Cacoa","value":"11351508","lat":13.778890000000000526370058651082217693328857421875,"lon":-60.9386200000000002319211489520967006683349609375,"poi_name":"Cacoa","parent_id":"3576413","long":-60.9386200000000002319211489520967006683349609375},"8":{"id":"11351915","label":"Cantonement","value":"11351915","lat":13.75665000000000048885340220294892787933349609375,"lon":-60.976619999999996935002855025231838226318359375,"poi_name":"Cantonement","parent_id":"3576413","long":-60.976619999999996935002855025231838226318359375},"9":{"id":"11351911","label":"Carierre","value":"11351911","lat":13.7851400000000001710986907710321247577667236328125,"lon":-60.96721000000000145746525959111750125885009765625,"poi_name":"Carierre","parent_id":"3576413","long":-60.96721000000000145746525959111750125885009765625},"10":{"id":"11351541","label":"Catin","value":"11351541","lat":13.776939999999999741930878371931612491607666015625,"lon":-60.9797300000000035424818634055554866790771484375,"poi_name":"Catin","parent_id":"3576413","long":-60.9797300000000035424818634055554866790771484375},"11":{"id":"11351906","label":"Cocoa Dan","value":"11351906","lat":13.730869999999999464534994331188499927520751953125,"lon":-60.97194999999999964757080306299030780792236328125,"poi_name":"Cocoa Dan","parent_id":"3576413","long":-60.97194999999999964757080306299030780792236328125},"12":{"id":"11351912","label":"Coolie Town","value":"11351912","lat":13.7691099999999995162625054945237934589385986328125,"lon":-60.96679999999999921556081972084939479827880859375,"poi_name":"Coolie Town","parent_id":"3576413","long":-60.96679999999999921556081972084939479827880859375},"13":{"id":"11351918","label":"De Mailly","value":"11351918","lat":13.7964900000000003643663148977793753147125244140625,"lon":-60.94937999999999789224602864123880863189697265625,"poi_name":"De Mailly","parent_id":"3576413","long":-60.94937999999999789224602864123880863189697265625},"14":{"id":"11351910","label":"Derierre Bois","value":"11351910","lat":13.7680699999999998084376784390769898891448974609375,"lon":-60.977249999999997953636921010911464691162109375,"poi_name":"Derierre Bois","parent_id":"3576413","long":-60.977249999999997953636921010911464691162109375},"15":{"id":"11351919","label":"Derierre Morne","value":"11351919","lat":13.741260000000000474074113299138844013214111328125,"lon":-60.96056999999999703732100897468626499176025390625,"poi_name":"Derierre Morne","parent_id":"3576413","long":-60.96056999999999703732100897468626499176025390625},"16":{"id":"11351923","label":"Docamel\/La Resource","value":"11351923","lat":13.742020000000000123918653116561472415924072265625,"lon":-60.956040000000001555235940031707286834716796875,"poi_name":"Docamel\/La Resource","parent_id":"3576413","long":-60.956040000000001555235940031707286834716796875},"17":{"id":"11351468","label":"Eau Piquant\/St Urbain","value":"11351468","lat":13.7602499999999992041921359486877918243408203125,"lon":-60.94012000000000028876456781290471553802490234375,"poi_name":"Eau Piquant\/St Urbain","parent_id":"3576413","long":-60.94012000000000028876456781290471553802490234375},"18":{"id":"11351517","label":"En Bamboo","value":"11351517","lat":13.781549999999999300825948012061417102813720703125,"lon":-60.94762999999999664169081370346248149871826171875,"poi_name":"En Bamboo","parent_id":"3576413","long":-60.94762999999999664169081370346248149871826171875},"19":{"id":"11351916","label":"Esperance","value":"11351916","lat":13.7885399999999993525534591753967106342315673828125,"lon":-60.96108000000000259888111031614243984222412109375,"poi_name":"Esperance","parent_id":"3576413","long":-60.96108000000000259888111031614243984222412109375},"20":{"id":"11351937","label":"Fond Capeche","value":"11351937","lat":13.7744900000000001227817847393453121185302734375,"lon":-60.94834999999999780584403197281062602996826171875,"poi_name":"Fond Capeche","parent_id":"3576413","long":-60.94834999999999780584403197281062602996826171875},"21":{"id":"11351917","label":"Fond Sabot","value":"11351917","lat":13.7765900000000005576339390245266258716583251953125,"lon":-60.9554600000000021964297047816216945648193359375,"poi_name":"Fond Sabot","parent_id":"3576413","long":-60.9554600000000021964297047816216945648193359375},"22":{"id":"11351925","label":"Grace","value":"11351925","lat":13.7767800000000004700950739788822829723358154296875,"lon":-60.9663699999999977308107190765440464019775390625,"poi_name":"Grace","parent_id":"3576413","long":-60.9663699999999977308107190765440464019775390625},"23":{"id":"11351921","label":"Hewanorra Orchard","value":"11351921","lat":13.744859999999999189412847044877707958221435546875,"lon":-60.97283999999999792862581671215593814849853515625,"poi_name":"Hewanorra Orchard","parent_id":"3576413","long":-60.97283999999999792862581671215593814849853515625},"24":{"id":"11351920","label":"Hope Estate","value":"11351920","lat":13.7647700000000003939248927053995430469512939453125,"lon":-60.9583099999999973306330502964556217193603515625,"poi_name":"Hope Estate","parent_id":"3576413","long":-60.9583099999999973306330502964556217193603515625},"25":{"id":"11351521","label":"Industrial Estate","value":"11351521","lat":13.7409599999999993968913258868269622325897216796875,"lon":-60.97393000000000284899215330369770526885986328125,"poi_name":"Industrial Estate","parent_id":"3576413","long":-60.97393000000000284899215330369770526885986328125},"26":{"id":"11351922","label":"Joyeux","value":"11351922","lat":13.783129999999999881765688769519329071044921875,"lon":-60.96068000000000353111317963339388370513916015625,"poi_name":"Joyeux","parent_id":"3576413","long":-60.96068000000000353111317963339388370513916015625},"27":{"id":"11351441","label":"La Resource","value":"11351441","lat":13.7479899999999997106669979984872043132781982421875,"lon":-60.96236999999999994770405464805662631988525390625,"poi_name":"La Resource","parent_id":"3576413","long":-60.96236999999999994770405464805662631988525390625},"28":{"id":"11351394","label":"La Retraite","value":"11351394","lat":13.7594399999999996708766047959215939044952392578125,"lon":-60.96632000000000317641024594195187091827392578125,"poi_name":"La Retraite","parent_id":"3576413","long":-60.96632000000000317641024594195187091827392578125},"29":{"id":"11351926","label":"La Tourney\/Cedar Heights","value":"11351926","lat":13.7411399999999996879296304541639983654022216796875,"lon":-60.96517000000000052750692702829837799072265625,"poi_name":"La Tourney\/Cedar Heights","parent_id":"3576413","long":-60.96517000000000052750692702829837799072265625},"30":{"id":"11351927","label":"Maganier","value":"11351927","lat":13.794499999999999317878973670303821563720703125,"lon":-60.985129999999998062776285223662853240966796875,"poi_name":"Maganier","parent_id":"3576413","long":-60.985129999999998062776285223662853240966796875},"31":{"id":"11351928","label":"Morne Cayenne","value":"11351928","lat":13.783490000000000463842297904193401336669921875,"lon":-60.955060000000003128661774098873138427734375,"poi_name":"Morne Cayenne","parent_id":"3576413","long":-60.955060000000003128661774098873138427734375},"32":{"id":"11351930","label":"Morne Vert","value":"11351930","lat":13.77899000000000029331204132176935672760009765625,"lon":-60.97617000000000331283445120789110660552978515625,"poi_name":"Morne Vert","parent_id":"3576413","long":-60.97617000000000331283445120789110660552978515625},"33":{"id":"11351476","label":"Moule A Chique","value":"11351476","lat":13.7145799999999997709210219909437000751495361328125,"lon":-60.94834999999999780584403197281062602996826171875,"poi_name":"Moule A Chique","parent_id":"3576413","long":-60.94834999999999780584403197281062602996826171875},"34":{"id":"11351907","label":"Obrier","value":"11351907","lat":13.7683099999999996043698047287762165069580078125,"lon":-60.973129999999997608028934337198734283447265625,"poi_name":"Obrier","parent_id":"3576413","long":-60.973129999999997608028934337198734283447265625},"35":{"id":"11351931","label":"Pierrot","value":"11351931","lat":13.768570000000000419504431192763149738311767578125,"lon":-60.9438099999999991496224538423120975494384765625,"poi_name":"Pierrot","parent_id":"3576413","long":-60.9438099999999991496224538423120975494384765625},"36":{"id":"11351924","label":"Plut","value":"11351924","lat":13.7741699999999998027533365529961884021759033203125,"lon":-60.96076000000000050249582272954285144805908203125,"poi_name":"Plut","parent_id":"3576413","long":-60.96076000000000050249582272954285144805908203125},"37":{"id":"11351933","label":"Pomme","value":"11351933","lat":13.7579200000000003711875251610763370990753173828125,"lon":-60.98147000000000161890056915581226348876953125,"poi_name":"Pomme","parent_id":"3576413","long":-60.98147000000000161890056915581226348876953125},"38":{"id":"11351934","label":"St Jude'S Highway","value":"11351934","lat":13.7586700000000003996092345914803445339202880859375,"lon":-60.97359999999999757847035652957856655120849609375,"poi_name":"St Jude'S Highway","parent_id":"3576413","long":-60.97359999999999757847035652957856655120849609375},"39":{"id":"11351932","label":"Tete Morne\/Morne Andrew","value":"11351932","lat":13.7711400000000008247980076703242957592010498046875,"lon":-60.95194000000000045247361413203179836273193359375,"poi_name":"Tete Morne\/Morne Andrew","parent_id":"3576413","long":-60.95194000000000045247361413203179836273193359375},"40":{"id":"11351935","label":"Town","value":"11351935","lat":13.7283500000000007190692485892213881015777587890625,"lon":-60.95407999999999759666025056503713130950927734375,"poi_name":"Town","parent_id":"3576413","long":-60.95407999999999759666025056503713130950927734375},"41":{"id":"11351413","label":"Viancelle","value":"11351413","lat":13.812689999999999912461134954355657100677490234375,"lon":-60.9739900000000005775291356258094310760498046875,"poi_name":"Viancelle","parent_id":"3576413","long":-60.9739900000000005775291356258094310760498046875},"42":{"id":"11351936","label":"Vieux Fort\/Laborie Highway","value":"11351936","lat":13.731970000000000453610482509247958660125732421875,"lon":-60.95477000000000344925865647383034229278564453125,"poi_name":"Vieux Fort\/Laborie Highway","parent_id":"3576413","long":-60.95477000000000344925865647383034229278564453125},"43":{"id":"11351450","label":"Vige'","value":"11351450","lat":13.7869200000000002859223968698643147945404052734375,"lon":-60.93549999999999755573298898525536060333251953125,"poi_name":"Vige'","parent_id":"3576413","long":-60.93549999999999755573298898525536060333251953125},"44":{"id":"11351542","label":"Westall Group\/The Mangue","value":"11351542","lat":13.7270699999999994389554558438248932361602783203125,"lon":-60.9531199999999984129317454062402248382568359375,"poi_name":"Westall Group\/The Mangue","parent_id":"3576413","long":-60.9531199999999984129317454062402248382568359375},"45":{"id":"11351587","label":"Woodlands","value":"11351587","lat":13.7992299999999996629185261554084718227386474609375,"lon":-60.9805199999999985038812155835330486297607421875,"poi_name":"Woodlands","parent_id":"3576413","long":-60.9805199999999985038812155835330486297607421875}}