{"success":true,"remaining_lookups":7345,"0":{"id":"8030577","label":"Buikwe District","value":"8030577","lat":0.30120000000000002327027459614328108727931976318359375,"lon":33.051839999999998553903424181044101715087890625,"poi_name":"Buikwe District","parent_id":"234594","long":33.051839999999998553903424181044101715087890625},"1":{"id":"8030579","label":"Bukomansimbi District","value":"8030579","lat":-0.128549999999999997601918266809661872684955596923828125,"lon":31.62527000000000043655745685100555419921875,"poi_name":"Bukomansimbi District","parent_id":"234594","long":31.62527000000000043655745685100555419921875},"2":{"id":"7910136","label":"Butambala District","value":"7910136","lat":0.1380500000000000060396132539608515799045562744140625,"lon":32.2182600000000007867129170335829257965087890625,"poi_name":"Butambala District","parent_id":"234594","long":32.2182600000000007867129170335829257965087890625},"3":{"id":"8030576","label":"Buvuma District","value":"8030576","lat":-0.3674399999999999888444790485664270818233489990234375,"lon":33.2007100000000008321876521222293376922607421875,"poi_name":"Buvuma District","parent_id":"234594","long":33.2007100000000008321876521222293376922607421875},"4":{"id":"8030578","label":"Gomba District","value":"8030578","lat":0.2001699999999999868283140358471428044140338897705078125,"lon":31.750229999999998398152456502430140972137451171875,"poi_name":"Gomba District","parent_id":"234594","long":31.750229999999998398152456502430140972137451171875},"5":{"id":"443338","label":"Kalangala District","value":"443338","lat":-0.57477999999999995761612581191002391278743743896484375,"lon":32.3810799999999971987563185393810272216796875,"poi_name":"Kalangala District","parent_id":"234594","long":32.3810799999999971987563185393810272216796875},"6":{"id":"7910134","label":"Kalungu District","value":"7910134","lat":-0.16342000000000000969890834312536753714084625244140625,"lon":31.797180000000000887894202605821192264556884765625,"poi_name":"Kalungu District","parent_id":"234594","long":31.797180000000000887894202605821192264556884765625},"7":{"id":"443339","label":"Kampala District","value":"443339","lat":0.335079999999999988968824027324444614350795745849609375,"lon":32.5831299999999970395947457291185855865478515625,"poi_name":"Kampala District","parent_id":"234594","long":32.5831299999999970395947457291185855865478515625},"8":{"id":"448218","label":"Kayunga District","value":"448218","lat":1,"lon":32.8666699999999991632648743689060211181640625,"poi_name":"Kayunga District","parent_id":"234594","long":32.8666699999999991632648743689060211181640625},"9":{"id":"443344","label":"Kiboga District","value":"443344","lat":0.84999999999999997779553950749686919152736663818359375,"lon":31.932829999999999159854269237257540225982666015625,"poi_name":"Kiboga District","parent_id":"234594","long":31.932829999999999159854269237257540225982666015625},"10":{"id":"8030582","label":"Kyankwanzi District","value":"8030582","lat":1.123720000000000052153836804791353642940521240234375,"lon":31.646049999999998902922015986405313014984130859375,"poi_name":"Kyankwanzi District","parent_id":"234594","long":31.646049999999998902922015986405313014984130859375},"11":{"id":"443350","label":"Luwero District","value":"443350","lat":0.81999999999999995115018691649311222136020660400390625,"lon":32.61399999999999721467247582040727138519287109375,"poi_name":"Luwero District","parent_id":"234594","long":32.61399999999999721467247582040727138519287109375},"12":{"id":"8030580","label":"Lwengo District","value":"8030580","lat":-0.42603000000000001978861519091879017651081085205078125,"lon":31.451370000000000715090209268964827060699462890625,"poi_name":"Lwengo District","parent_id":"234594","long":31.451370000000000715090209268964827060699462890625},"13":{"id":"7056290","label":"Lyantonde District","value":"7056290","lat":-0.2405899999999999983035792183727608062326908111572265625,"lon":31.19294000000000011141310096718370914459228515625,"poi_name":"Lyantonde District","parent_id":"234594","long":31.19294000000000011141310096718370914459228515625},"14":{"id":"8643206","label":"Masaka District","value":"8643206","lat":-0.366669999999999995932142837773426435887813568115234375,"lon":31.699999999999999289457264239899814128875732421875,"poi_name":"Masaka District","parent_id":"234594","long":31.699999999999999289457264239899814128875732421875},"15":{"id":"7056293","label":"Mityana District","value":"7056293","lat":0.43213000000000001410427330483798868954181671142578125,"lon":32.066969999999997753548086620867252349853515625,"poi_name":"Mityana District","parent_id":"234594","long":32.066969999999997753548086620867252349853515625},"16":{"id":"233709","label":"Mpigi District","value":"233709","lat":0.0728499999999999980904163976447307504713535308837890625,"lon":32.19901999999999731016941950656473636627197265625,"poi_name":"Mpigi District","parent_id":"234594","long":32.19901999999999731016941950656473636627197265625},"17":{"id":"443358","label":"Mubende District","value":"443358","lat":0.5,"lon":31.5,"poi_name":"Mubende District","parent_id":"234594","long":31.5},"18":{"id":"443359","label":"Mukono District","value":"443359","lat":0.299999999999999988897769753748434595763683319091796875,"lon":32.77499999999999857891452847979962825775146484375,"poi_name":"Mukono District","parent_id":"234594","long":32.77499999999999857891452847979962825775146484375},"19":{"id":"7056294","label":"Nakaseke District","value":"7056294","lat":1.0406299999999999439381781485280953347682952880859375,"lon":32.18968000000000273530531558208167552947998046875,"poi_name":"Nakaseke District","parent_id":"234594","long":32.18968000000000273530531558208167552947998046875},"20":{"id":"443786","label":"Nakasongola District","value":"443786","lat":1.3890299999999999869260136620141565799713134765625,"lon":32.41608000000000089357854449190199375152587890625,"poi_name":"Nakasongola District","parent_id":"234594","long":32.41608000000000089357854449190199375152587890625},"21":{"id":"443363","label":"Rakai District","value":"443363","lat":-0.757730000000000014637180356658063828945159912109375,"lon":31.509899999999998243538357201032340526580810546875,"poi_name":"Rakai District","parent_id":"234594","long":31.509899999999998243538357201032340526580810546875},"22":{"id":"443787","label":"Sembabule District","value":"443787","lat":-0.008250000000000000388578058618804789148271083831787109375,"lon":31.355129999999999057536115287803113460540771484375,"poi_name":"Sembabule District","parent_id":"234594","long":31.355129999999999057536115287803113460540771484375},"23":{"id":"448224","label":"Wakiso District","value":"448224","lat":0.2376300000000000078870243669371120631694793701171875,"lon":32.47836000000000211684891837649047374725341796875,"poi_name":"Wakiso District","parent_id":"234594","long":32.47836000000000211684891837649047374725341796875}}