{"success":true,"remaining_lookups":7344,"0":{"id":"7056276","label":"Amuria District","value":"7056276","lat":2.083330000000000126192389870993793010711669921875,"lon":33.66667000000000342652128892950713634490966796875,"poi_name":"Amuria District","parent_id":"8260673","long":33.66667000000000342652128892950713634490966796875},"1":{"id":"7056279","label":"Budaka District","value":"7056279","lat":1.0524899999999999256061755659175105392932891845703125,"lon":33.9922100000000000363797880709171295166015625,"poi_name":"Budaka District","parent_id":"8260673","long":33.9922100000000000363797880709171295166015625},"2":{"id":"7056280","label":"Bududa District","value":"7056280","lat":1.0500000000000000444089209850062616169452667236328125,"lon":34.39999999999999857891452847979962825775146484375,"poi_name":"Bududa District","parent_id":"8260673","long":34.39999999999999857891452847979962825775146484375},"3":{"id":"443783","label":"Bugiri District","value":"443783","lat":0.53329999999999999626965063725947402417659759521484375,"lon":33.78999999999999914734871708787977695465087890625,"poi_name":"Bugiri District","parent_id":"8260673","long":33.78999999999999914734871708787977695465087890625},"4":{"id":"234411","label":"Bukedea District","value":"234411","lat":1.36667000000000005144329406903125345706939697265625,"lon":34.1333300000000008367351256310939788818359375,"poi_name":"Bukedea District","parent_id":"8260673","long":34.1333300000000008367351256310939788818359375},"5":{"id":"7056296","label":"Bukwa District","value":"7056296","lat":1.271150000000000002131628207280300557613372802734375,"lon":34.66778000000000048430592869408428668975830078125,"poi_name":"Bukwa District","parent_id":"8260673","long":34.66778000000000048430592869408428668975830078125},"6":{"id":"8030573","label":"Bulambuli District","value":"8030573","lat":1.32054999999999989057641869294457137584686279296875,"lon":34.28061999999999898136593401432037353515625,"poi_name":"Bulambuli District","parent_id":"8260673","long":34.28061999999999898136593401432037353515625},"7":{"id":"443784","label":"Busia District","value":"443784","lat":0.41761999999999999122479721336276270449161529541015625,"lon":34.00421000000000049112713895738124847412109375,"poi_name":"Busia District","parent_id":"8260673","long":34.00421000000000049112713895738124847412109375},"8":{"id":"7056282","label":"Butaleja District","value":"7056282","lat":0.8907599999999999962341235004714690148830413818359375,"lon":33.9449699999999978672349243424832820892333984375,"poi_name":"Butaleja District","parent_id":"8260673","long":33.9449699999999978672349243424832820892333984375},"9":{"id":"8030571","label":"Buyende District","value":"8030571","lat":1.2662999999999999811706175023573450744152069091796875,"lon":33.1426799999999985857357387430965900421142578125,"poi_name":"Buyende District","parent_id":"8260673","long":33.1426799999999985857357387430965900421142578125},"10":{"id":"443334","label":"Iganga District","value":"443334","lat":0.6999999999999999555910790149937383830547332763671875,"lon":33.53329999999999699866748414933681488037109375,"poi_name":"Iganga District","parent_id":"8260673","long":33.53329999999999699866748414933681488037109375},"11":{"id":"443335","label":"Jinja District","value":"443335","lat":0.51100000000000000976996261670137755572795867919921875,"lon":33.31499999999999772626324556767940521240234375,"poi_name":"Jinja District","parent_id":"8260673","long":33.31499999999999772626324556767940521240234375},"12":{"id":"448215","label":"Kaberamaido District","value":"448215","lat":1.75731999999999999317878973670303821563720703125,"lon":33.22576000000000107093001133762300014495849609375,"poi_name":"Kaberamaido District","parent_id":"8260673","long":33.22576000000000107093001133762300014495849609375},"13":{"id":"7056287","label":"Kaliro District","value":"7056287","lat":1.07782000000000000028421709430404007434844970703125,"lon":33.48763000000000289446688839234411716461181640625,"poi_name":"Kaliro District","parent_id":"8260673","long":33.48763000000000289446688839234411716461181640625},"14":{"id":"443340","label":"Kamuli District","value":"443340","lat":0.9499999999999999555910790149937383830547332763671875,"lon":33.1166699999999991632648743689060211181640625,"poi_name":"Kamuli District","parent_id":"8260673","long":33.1166699999999991632648743689060211181640625},"15":{"id":"443341","label":"Kapchorwa District","value":"443341","lat":1.333299999999999929656269159750081598758697509765625,"lon":34.4200000000000017053025658242404460906982421875,"poi_name":"Kapchorwa District","parent_id":"8260673","long":34.4200000000000017053025658242404460906982421875},"16":{"id":"443785","label":"Katakwi District","value":"443785","lat":1.92157000000000000028421709430404007434844970703125,"lon":34.04753000000000184854798135347664356231689453125,"poi_name":"Katakwi District","parent_id":"8260673","long":34.04753000000000184854798135347664356231689453125},"17":{"id":"8030572","label":"Kibuku District","value":"8030572","lat":1.0500000000000000444089209850062616169452667236328125,"lon":33.8087900000000018962964531965553760528564453125,"poi_name":"Kibuku District","parent_id":"8260673","long":33.8087900000000018962964531965553760528564453125},"18":{"id":"443348","label":"Kumi District","value":"443348","lat":1.5,"lon":33.9500000000000028421709430404007434844970703125,"poi_name":"Kumi District","parent_id":"8260673","long":33.9500000000000028421709430404007434844970703125},"19":{"id":"8030574","label":"Kween District","value":"8030574","lat":1.37732000000000009976020010071806609630584716796875,"lon":34.57455999999999818328433320857584476470947265625,"poi_name":"Kween District","parent_id":"8260673","long":34.57455999999999818328433320857584476470947265625},"20":{"id":"8030588","label":"Luuka District","value":"8030588","lat":0.8240499999999999491961943931528367102146148681640625,"lon":33.3325099999999991950971889309585094451904296875,"poi_name":"Luuka District","parent_id":"8260673","long":33.3325099999999991950971889309585094451904296875},"21":{"id":"7056291","label":"Manafwa District","value":"7056291","lat":0.88332999999999994855670593096874654293060302734375,"lon":34.33332999999999657347871107049286365509033203125,"poi_name":"Manafwa District","parent_id":"8260673","long":34.33332999999999657347871107049286365509033203125},"22":{"id":"448220","label":"Mayuge District","value":"448220","lat":0.26900000000000001687538997430237941443920135498046875,"lon":33.56099999999999994315658113919198513031005859375,"poi_name":"Mayuge District","parent_id":"8260673","long":33.56099999999999994315658113919198513031005859375},"23":{"id":"443353","label":"Mbale District","value":"443353","lat":1.0160000000000000142108547152020037174224853515625,"lon":34.191000000000002501110429875552654266357421875,"poi_name":"Mbale District","parent_id":"8260673","long":34.191000000000002501110429875552654266357421875},"24":{"id":"8030575","label":"Namayingo District","value":"8030575","lat":0.278000000000000024868995751603506505489349365234375,"lon":33.808999999999997498889570124447345733642578125,"poi_name":"Namayingo District","parent_id":"8260673","long":33.808999999999997498889570124447345733642578125},"25":{"id":"234069","label":"Namutumba District","value":"234069","lat":0.86667000000000005144329406903125345706939697265625,"lon":33.66667000000000342652128892950713634490966796875,"poi_name":"Namutumba District","parent_id":"8260673","long":33.66667000000000342652128892950713634490966796875},"26":{"id":"8030570","label":"Ngora District","value":"8030570","lat":1.4820299999999999585043042316101491451263427734375,"lon":33.758319999999997662598616443574428558349609375,"poi_name":"Ngora District","parent_id":"8260673","long":33.758319999999997662598616443574428558349609375},"27":{"id":"443362","label":"Pallisa District","value":"443362","lat":1.2259299999999999641886461176909506320953369140625,"lon":33.7797699999999991860022419132292270660400390625,"poi_name":"Pallisa District","parent_id":"8260673","long":33.7797699999999991860022419132292270660400390625},"28":{"id":"8030569","label":"Serere District","value":"8030569","lat":1.4870000000000000994759830064140260219573974609375,"lon":33.451999999999998181010596454143524169921875,"poi_name":"Serere District","parent_id":"8260673","long":33.451999999999998181010596454143524169921875},"29":{"id":"448223","label":"Sironko District","value":"448223","lat":1.157000000000000028421709430404007434844970703125,"lon":34.31400000000000005684341886080801486968994140625,"poi_name":"Sironko District","parent_id":"8260673","long":34.31400000000000005684341886080801486968994140625},"30":{"id":"443365","label":"Soroti District","value":"443365","lat":1.7848100000000000076028072726330719888210296630859375,"lon":33.59432000000000329009708366356790065765380859375,"poi_name":"Soroti District","parent_id":"8260673","long":33.59432000000000329009708366356790065765380859375},"31":{"id":"443366","label":"Tororo District","value":"443366","lat":0.75,"lon":34.08332999999999657347871107049286365509033203125,"poi_name":"Tororo District","parent_id":"8260673","long":34.08332999999999657347871107049286365509033203125}}