{"success":true,"remaining_lookups":8098,"0":{"id":"8010541","label":"Alcoba\u00e7a","value":"8010541","lat":39.55440999999999718284016125835478305816650390625,"lon":-8.9883299999999994867039276869036257266998291015625,"poi_name":"Alcoba\u00e7a","parent_id":"2267094","long":-8.9883299999999994867039276869036257266998291015625},"1":{"id":"8010542","label":"Alvai\u00e1zere","value":"8010542","lat":39.81951000000000107093001133762300014495849609375,"lon":-8.3885799999999992593302522436715662479400634765625,"poi_name":"Alvai\u00e1zere","parent_id":"2267094","long":-8.3885799999999992593302522436715662479400634765625},"2":{"id":"8010543","label":"Ansi\u00e3o","value":"8010543","lat":39.9342400000000026238922146148979663848876953125,"lon":-8.4204500000000006565414878423325717449188232421875,"poi_name":"Ansi\u00e3o","parent_id":"2267094","long":-8.4204500000000006565414878423325717449188232421875},"3":{"id":"8010544","label":"Batalha","value":"8010544","lat":39.647840000000002191882231272757053375244140625,"lon":-8.781079999999999330384525819681584835052490234375,"poi_name":"Batalha","parent_id":"2267094","long":-8.781079999999999330384525819681584835052490234375},"4":{"id":"8010545","label":"Bombarral","value":"8010545","lat":39.281059999999996534825186245143413543701171875,"lon":-9.1700199999999991717913871980272233486175537109375,"poi_name":"Bombarral","parent_id":"2267094","long":-9.1700199999999991717913871980272233486175537109375},"5":{"id":"8010546","label":"Caldas da Rainha","value":"8010546","lat":39.41586000000000211684891837649047374725341796875,"lon":-9.1337600000000005451283868751488626003265380859375,"poi_name":"Caldas da Rainha","parent_id":"2267094","long":-9.1337600000000005451283868751488626003265380859375},"6":{"id":"8010547","label":"Castanheira de P\u00eara","value":"8010547","lat":40.0322800000000000864019966684281826019287109375,"lon":-8.1888900000000006684786058031022548675537109375,"poi_name":"Castanheira de P\u00eara","parent_id":"2267094","long":-8.1888900000000006684786058031022548675537109375},"7":{"id":"8010548","label":"Figueir\u00f3 Dos Vinhos","value":"8010548","lat":39.906170000000003028617356903851032257080078125,"lon":-8.2775300000000004985167834092862904071807861328125,"poi_name":"Figueir\u00f3 Dos Vinhos","parent_id":"2267094","long":-8.2775300000000004985167834092862904071807861328125},"8":{"id":"8010549","label":"Leiria","value":"8010549","lat":39.74643999999999977035258780233561992645263671875,"lon":-8.806229999999999336068867705762386322021484375,"poi_name":"Leiria","parent_id":"2267094","long":-8.806229999999999336068867705762386322021484375},"9":{"id":"8010550","label":"Marinha Grande","value":"8010550","lat":39.7768099999999975580067257396876811981201171875,"lon":-8.9500499999999991729282555752433836460113525390625,"poi_name":"Marinha Grande","parent_id":"2267094","long":-8.9500499999999991729282555752433836460113525390625},"10":{"id":"8010551","label":"Nazar\u00e9","value":"8010551","lat":39.5996499999999969077180139720439910888671875,"lon":-9.071619999999999350848156609572470188140869140625,"poi_name":"Nazar\u00e9","parent_id":"2267094","long":-9.071619999999999350848156609572470188140869140625},"11":{"id":"8010553","label":"Pedr\u00f3g\u00e3o Grande","value":"8010553","lat":39.92681999999999931105776340700685977935791015625,"lon":-8.200929999999999608917278237640857696533203125,"poi_name":"Pedr\u00f3g\u00e3o Grande","parent_id":"2267094","long":-8.200929999999999608917278237640857696533203125},"12":{"id":"8010554","label":"Peniche","value":"8010554","lat":39.361660000000000536601874046027660369873046875,"lon":-9.3686900000000008503775461576879024505615234375,"poi_name":"Peniche","parent_id":"2267094","long":-9.3686900000000008503775461576879024505615234375},"13":{"id":"8010555","label":"Pombal","value":"8010555","lat":39.90735000000000098907548817805945873260498046875,"lon":-8.669489999999999696456143283285200595855712890625,"poi_name":"Pombal","parent_id":"2267094","long":-8.669489999999999696456143283285200595855712890625},"14":{"id":"8010556","label":"Porto de M\u00f3s","value":"8010556","lat":39.605469999999996844053384847939014434814453125,"lon":-8.8189299999999999357669366872869431972503662109375,"poi_name":"Porto de M\u00f3s","parent_id":"2267094","long":-8.8189299999999999357669366872869431972503662109375},"15":{"id":"8010552","label":"\u00d3bidos","value":"8010552","lat":39.35853999999999786041371407918632030487060546875,"lon":-9.176030000000000796944732428528368473052978515625,"poi_name":"\u00d3bidos","parent_id":"2267094","long":-9.176030000000000796944732428528368473052978515625}}