{"success":true,"remaining_lookups":8101,"0":{"id":"8010472","label":"Belmonte","value":"8010472","lat":40.36180999999999841065800865180790424346923828125,"lon":-7.35156999999999971606712279026396572589874267578125,"poi_name":"Belmonte","parent_id":"2269513","long":-7.35156999999999971606712279026396572589874267578125},"1":{"id":"8010473","label":"Castelo Branco","value":"8010473","lat":39.8884699999999980946085997857153415679931640625,"lon":-7.513130000000000308091330225579440593719482421875,"poi_name":"Castelo Branco","parent_id":"2269513","long":-7.513130000000000308091330225579440593719482421875},"2":{"id":"8010474","label":"Covilh\u00e3","value":"8010474","lat":40.292270000000002028173184953629970550537109375,"lon":-7.503659999999999996589394868351519107818603515625,"poi_name":"Covilh\u00e3","parent_id":"2269513","long":-7.503659999999999996589394868351519107818603515625},"3":{"id":"2739186","label":"Fund\u00e3o","value":"2739186","lat":40.12411999999999778765413793735206127166748046875,"lon":-7.49542000000000019355184122105129063129425048828125,"poi_name":"Fund\u00e3o","parent_id":"2269513","long":-7.49542000000000019355184122105129063129425048828125},"4":{"id":"8010475","label":"Idanha-A-Nova","value":"8010475","lat":39.9295699999999982310328050516545772552490234375,"lon":-7.2369000000000003325340003357268869876861572265625,"poi_name":"Idanha-A-Nova","parent_id":"2269513","long":-7.2369000000000003325340003357268869876861572265625},"5":{"id":"8010476","label":"Oleiros","value":"8010476","lat":39.94948000000000121190169011242687702178955078125,"lon":-7.88591999999999959669594318256713449954986572265625,"poi_name":"Oleiros","parent_id":"2269513","long":-7.88591999999999959669594318256713449954986572265625},"6":{"id":"8010477","label":"Penamacor","value":"8010477","lat":40.1549499999999994770405464805662631988525390625,"lon":-7.1714900000000003643663148977793753147125244140625,"poi_name":"Penamacor","parent_id":"2269513","long":-7.1714900000000003643663148977793753147125244140625},"7":{"id":"8010478","label":"Proen\u00e7a-A-Nova","value":"8010478","lat":39.75699999999999789679350215010344982147216796875,"lon":-7.92595000000000027284841053187847137451171875,"poi_name":"Proen\u00e7a-A-Nova","parent_id":"2269513","long":-7.92595000000000027284841053187847137451171875},"8":{"id":"8010479","label":"Sert\u00e3","value":"8010479","lat":39.82175000000000153477230924181640148162841796875,"lon":-8.0984499999999997044142219237983226776123046875,"poi_name":"Sert\u00e3","parent_id":"2269513","long":-8.0984499999999997044142219237983226776123046875},"9":{"id":"6930622","label":"Vila Velha de R\u00f3d\u00e3o","value":"6930622","lat":39.6870899999999977580955601297318935394287109375,"lon":-7.6598699999999997345412339200265705585479736328125,"poi_name":"Vila Velha de R\u00f3d\u00e3o","parent_id":"2269513","long":-7.6598699999999997345412339200265705585479736328125},"10":{"id":"8010480","label":"Vila de Rei","value":"8010480","lat":39.706850000000002864908310584723949432373046875,"lon":-8.1283600000000006957634468562901020050048828125,"poi_name":"Vila de Rei","parent_id":"2269513","long":-8.1283600000000006957634468562901020050048828125}}