{"success":true,"remaining_lookups":8091,"0":{"id":"8010651","label":"Armamar","value":"8010651","lat":41.09718000000000159843693836592137813568115234375,"lon":-7.685529999999999972715158946812152862548828125,"poi_name":"Armamar","parent_id":"2732264","long":-7.685529999999999972715158946812152862548828125},"1":{"id":"7116056","label":"Carregal do Sal","value":"7116056","lat":40.4500699999999966394170769490301609039306640625,"lon":-7.99819000000000013272938303998671472072601318359375,"poi_name":"Carregal do Sal","parent_id":"2732264","long":-7.99819000000000013272938303998671472072601318359375},"2":{"id":"8010652","label":"Castro Daire","value":"8010652","lat":40.92278999999999911096892901696264743804931640625,"lon":-7.93878000000000039193537304527126252651214599609375,"poi_name":"Castro Daire","parent_id":"2732264","long":-7.93878000000000039193537304527126252651214599609375},"3":{"id":"8010653","label":"Cinf\u00e3es","value":"8010653","lat":41.03985999999999734200173406861722469329833984375,"lon":-8.1121800000000003905142875737510621547698974609375,"poi_name":"Cinf\u00e3es","parent_id":"2732264","long":-8.1121800000000003905142875737510621547698974609375},"4":{"id":"8010654","label":"Lamego","value":"8010654","lat":41.10229000000000354475560015998780727386474609375,"lon":-7.810249999999999914734871708787977695465087890625,"poi_name":"Lamego","parent_id":"2732264","long":-7.810249999999999914734871708787977695465087890625},"5":{"id":"8010655","label":"Mangualde","value":"8010655","lat":40.59559999999999746478351880796253681182861328125,"lon":-7.71727000000000007418066161335445940494537353515625,"poi_name":"Mangualde","parent_id":"2732264","long":-7.71727000000000007418066161335445940494537353515625},"6":{"id":"8010656","label":"Moimenta da Beira","value":"8010656","lat":40.97133999999999787178239785134792327880859375,"lon":-7.62959000000000031604940886609256267547607421875,"poi_name":"Moimenta da Beira","parent_id":"2732264","long":-7.62959000000000031604940886609256267547607421875},"7":{"id":"8010657","label":"Mort\u00e1gua","value":"8010657","lat":40.39433999999999969077180139720439910888671875,"lon":-8.2581100000000002836486601154319941997528076171875,"poi_name":"Mort\u00e1gua","parent_id":"2732264","long":-8.2581100000000002836486601154319941997528076171875},"8":{"id":"8010658","label":"Nelas","value":"8010658","lat":40.529460000000000263753463514149188995361328125,"lon":-7.88259000000000042973624658770859241485595703125,"poi_name":"Nelas","parent_id":"2732264","long":-7.88259000000000042973624658770859241485595703125},"9":{"id":"8010659","label":"Oliveira de Frades","value":"8010659","lat":40.74638999999999811052475706674158573150634765625,"lon":-8.175200000000000244426701101474463939666748046875,"poi_name":"Oliveira de Frades","parent_id":"2732264","long":-8.175200000000000244426701101474463939666748046875},"10":{"id":"8010660","label":"Penalva do Castelo","value":"8010660","lat":40.66790999999999911551640252582728862762451171875,"lon":-7.6601499999999997925215211580507457256317138671875,"poi_name":"Penalva do Castelo","parent_id":"2732264","long":-7.6601499999999997925215211580507457256317138671875},"11":{"id":"8010661","label":"Penedono","value":"8010661","lat":40.99300000000000210320649784989655017852783203125,"lon":-7.3940099999999997493205228238366544246673583984375,"poi_name":"Penedono","parent_id":"2732264","long":-7.3940099999999997493205228238366544246673583984375},"12":{"id":"8010662","label":"Resende","value":"8010662","lat":41.0768800000000027239366318099200725555419921875,"lon":-7.95122999999999979792164594982750713825225830078125,"poi_name":"Resende","parent_id":"2732264","long":-7.95122999999999979792164594982750713825225830078125},"13":{"id":"8010663","label":"Santa Comba D\u00e3o","value":"8010663","lat":40.4044200000000017780621419660747051239013671875,"lon":-8.1137999999999994571453498792834579944610595703125,"poi_name":"Santa Comba D\u00e3o","parent_id":"2732264","long":-8.1137999999999994571453498792834579944610595703125},"14":{"id":"8010667","label":"Sernancelhe","value":"8010667","lat":40.9209699999999969577402225695550441741943359375,"lon":-7.51226000000000038170355765032581984996795654296875,"poi_name":"Sernancelhe","parent_id":"2732264","long":-7.51226000000000038170355765032581984996795654296875},"15":{"id":"8010666","label":"S\u00e1t\u00e3o","value":"8010666","lat":40.76245999999999725105226389132440090179443359375,"lon":-7.6760000000000001563194018672220408916473388671875,"poi_name":"S\u00e1t\u00e3o","parent_id":"2732264","long":-7.6760000000000001563194018672220408916473388671875},"16":{"id":"8010664","label":"S\u00e3o Jo\u00e3o da Pesqueira","value":"8010664","lat":41.11079000000000149839252117089927196502685546875,"lon":-7.43381999999999987238652465748600661754608154296875,"poi_name":"S\u00e3o Jo\u00e3o da Pesqueira","parent_id":"2732264","long":-7.43381999999999987238652465748600661754608154296875},"17":{"id":"8010665","label":"S\u00e3o Pedro do Sul","value":"8010665","lat":40.8007300000000014961187844164669513702392578125,"lon":-8.0902300000000000324007487506605684757232666015625,"poi_name":"S\u00e3o Pedro do Sul","parent_id":"2732264","long":-8.0902300000000000324007487506605684757232666015625},"18":{"id":"8010668","label":"Tabua\u00e7o","value":"8010668","lat":41.095550000000002910383045673370361328125,"lon":-7.56735000000000024300561562995426356792449951171875,"poi_name":"Tabua\u00e7o","parent_id":"2732264","long":-7.56735000000000024300561562995426356792449951171875},"19":{"id":"8010669","label":"Tarouca","value":"8010669","lat":41.026510000000001809894456528127193450927734375,"lon":-7.74997999999999986897591952583752572536468505859375,"poi_name":"Tarouca","parent_id":"2732264","long":-7.74997999999999986897591952583752572536468505859375},"20":{"id":"2733531","label":"Tondela","value":"2733531","lat":40.5405200000000007776179700158536434173583984375,"lon":-8.10040000000000048885340220294892787933349609375,"poi_name":"Tondela","parent_id":"2732264","long":-8.10040000000000048885340220294892787933349609375},"21":{"id":"8010670","label":"Vila Nova de Paiva","value":"8010670","lat":40.86590000000000344471118296496570110321044921875,"lon":-7.761269999999999669171302230097353458404541015625,"poi_name":"Vila Nova de Paiva","parent_id":"2732264","long":-7.761269999999999669171302230097353458404541015625},"22":{"id":"8010671","label":"Viseu","value":"8010671","lat":40.67450000000000187583282240666449069976806640625,"lon":-7.91720999999999985874410413089208304882049560546875,"poi_name":"Viseu","parent_id":"2732264","long":-7.91720999999999985874410413089208304882049560546875},"23":{"id":"8010672","label":"Vouzela","value":"8010672","lat":40.68943999999999761030267109163105487823486328125,"lon":-8.1135999999999999232613845379091799259185791015625,"poi_name":"Vouzela","parent_id":"2732264","long":-8.1135999999999999232613845379091799259185791015625}}