{"success":true,"remaining_lookups":8107,"0":{"id":"8010691","label":"Angra do Hero\u00edsmo","value":"8010691","lat":38.69525999999999754663804196752607822418212890625,"lon":-27.24913000000000096179064712487161159515380859375,"poi_name":"Angra do Hero\u00edsmo","parent_id":"3411865","long":-27.24913000000000096179064712487161159515380859375},"1":{"id":"8010694","label":"Calheta de S\u00e3o Jorge","value":"8010694","lat":38.59767000000000081172402133233845233917236328125,"lon":-27.914590000000000458157956018112599849700927734375,"poi_name":"Calheta de S\u00e3o Jorge","parent_id":"3411865","long":-27.914590000000000458157956018112599849700927734375},"2":{"id":"8010702","label":"Corvo","value":"8010702","lat":39.697710000000000718500814400613307952880859375,"lon":-31.10549999999999926103555480949580669403076171875,"poi_name":"Corvo","parent_id":"3411865","long":-31.10549999999999926103555480949580669403076171875},"3":{"id":"8010699","label":"Horta","value":"8010699","lat":38.5709700000000026420821086503565311431884765625,"lon":-28.67920000000000158024704433046281337738037109375,"poi_name":"Horta","parent_id":"3411865","long":-28.67920000000000158024704433046281337738037109375},"4":{"id":"8010685","label":"Lagoa","value":"8010685","lat":37.748210000000000263753463514149188995361328125,"lon":-25.540279999999999205329004325903952121734619140625,"poi_name":"Lagoa","parent_id":"3411865","long":-25.540279999999999205329004325903952121734619140625},"5":{"id":"8010700","label":"Lajes Das Flores","value":"8010700","lat":39.416190000000000281943357549607753753662109375,"lon":-31.21724999999999994315658113919198513031005859375,"poi_name":"Lajes Das Flores","parent_id":"3411865","long":-31.21724999999999994315658113919198513031005859375},"6":{"id":"8010696","label":"Lajes do Pico","value":"8010696","lat":38.4279700000000019599610823206603527069091796875,"lon":-28.1740199999999987312548910267651081085205078125,"poi_name":"Lajes do Pico","parent_id":"3411865","long":-28.1740199999999987312548910267651081085205078125},"7":{"id":"8010697","label":"Madalena","value":"8010697","lat":38.5355899999999991223376127891242504119873046875,"lon":-28.523430000000001172111296909861266613006591796875,"poi_name":"Madalena","parent_id":"3411865","long":-28.523430000000001172111296909861266613006591796875},"8":{"id":"8010686","label":"Nordeste","value":"8010686","lat":37.82721000000000088903107098303735256195068359375,"lon":-25.228629999999999000692696426995098590850830078125,"poi_name":"Nordeste","parent_id":"3411865","long":-25.228629999999999000692696426995098590850830078125},"9":{"id":"8010687","label":"Ponta Delgada","value":"8010687","lat":37.7423000000000001818989403545856475830078125,"lon":-25.670929999999998472048901021480560302734375,"poi_name":"Ponta Delgada","parent_id":"3411865","long":-25.670929999999998472048901021480560302734375},"10":{"id":"8010688","label":"Povoa\u00e7\u00e3o","value":"8010688","lat":37.76471000000000088903107098303735256195068359375,"lon":-25.24486999999999881083567743189632892608642578125,"poi_name":"Povoa\u00e7\u00e3o","parent_id":"3411865","long":-25.24486999999999881083567743189632892608642578125},"11":{"id":"8010692","label":"Praia da Vit\u00f3ria","value":"8010692","lat":38.7406399999999990768628777004778385162353515625,"lon":-27.13098000000000098452801466919481754302978515625,"poi_name":"Praia da Vit\u00f3ria","parent_id":"3411865","long":-27.13098000000000098452801466919481754302978515625},"12":{"id":"8010689","label":"Ribeira Grande","value":"8010689","lat":37.80458999999999747387846582569181919097900390625,"lon":-25.4683500000000009322320693172514438629150390625,"poi_name":"Ribeira Grande","parent_id":"3411865","long":-25.4683500000000009322320693172514438629150390625},"13":{"id":"8010701","label":"Santa Cruz Das Flores","value":"8010701","lat":39.46983999999999781493897899053990840911865234375,"lon":-31.185140000000000526370058651082217693328857421875,"poi_name":"Santa Cruz Das Flores","parent_id":"3411865","long":-31.185140000000000526370058651082217693328857421875},"14":{"id":"8010693","label":"Santa Cruz da Graciosa","value":"8010693","lat":39.04946000000000339014150085859000682830810546875,"lon":-28.00431999999999987949195201508700847625732421875,"poi_name":"Santa Cruz da Graciosa","parent_id":"3411865","long":-28.00431999999999987949195201508700847625732421875},"15":{"id":"8010698","label":"S\u00e3o Roque do Pico","value":"8010698","lat":38.488169999999996662154444493353366851806640625,"lon":-28.292609999999999814690454513765871524810791015625,"poi_name":"S\u00e3o Roque do Pico","parent_id":"3411865","long":-28.292609999999999814690454513765871524810791015625},"16":{"id":"8010695","label":"Velas","value":"8010695","lat":38.67994999999999805595507496036589145660400390625,"lon":-28.1515500000000002955857780762016773223876953125,"poi_name":"Velas","parent_id":"3411865","long":-28.1515500000000002955857780762016773223876953125},"17":{"id":"8010690","label":"Vila Franca do Campo","value":"8010690","lat":37.7366099999999988767740433104336261749267578125,"lon":-25.429140000000000298996383207850158214569091796875,"poi_name":"Vila Franca do Campo","parent_id":"3411865","long":-25.429140000000000298996383207850158214569091796875},"18":{"id":"8010684","label":"Vila do Porto","value":"8010684","lat":36.97453999999999751935320091433823108673095703125,"lon":-25.099669999999999703277353546582162380218505859375,"poi_name":"Vila do Porto","parent_id":"3411865","long":-25.099669999999999703277353546582162380218505859375}}