{"success":true,"remaining_lookups":7790,"0":{"id":"9794375","label":"Dravlje District","value":"9794375","lat":46.07289999999999707824827055446803569793701171875,"lon":14.4474099999999996413180269883014261722564697265625,"poi_name":"Dravlje District","parent_id":"3239318","long":14.4474099999999996413180269883014261722564697265625},"1":{"id":"9794376","label":"Golovec District","value":"9794376","lat":46.03969000000000022509993868879973888397216796875,"lon":14.5507000000000008554934538551606237888336181640625,"poi_name":"Golovec District","parent_id":"3239318","long":14.5507000000000008554934538551606237888336181640625},"2":{"id":"9794377","label":"Jar\u0161e District","value":"9794377","lat":46.07345000000000112549969344399869441986083984375,"lon":14.5543099999999991922550179879181087017059326171875,"poi_name":"Jar\u0161e District","parent_id":"3239318","long":14.5543099999999991922550179879181087017059326171875},"3":{"id":"3196357","label":"Op\u010dina Ljubljana-Be\u017eigrad","value":"3196357","lat":46.08332999999999657347871107049286365509033203125,"lon":14.53332999999999941564965411089360713958740234375,"poi_name":"Op\u010dina Ljubljana-Be\u017eigrad","parent_id":"3239318","long":14.53332999999999941564965411089360713958740234375},"4":{"id":"3196356","label":"Op\u0161tina Ljubljana-Center","value":"3196356","lat":46.0499999999999971578290569595992565155029296875,"lon":14.53332999999999941564965411089360713958740234375,"poi_name":"Op\u0161tina Ljubljana-Center","parent_id":"3239318","long":14.53332999999999941564965411089360713958740234375},"5":{"id":"3196355","label":"Op\u0161tina Ljubljana-Moste-Polje","value":"3196355","lat":46.0666700000000020054358174093067646026611328125,"lon":14.6166699999999991632648743689060211181640625,"poi_name":"Op\u0161tina Ljubljana-Moste-Polje","parent_id":"3239318","long":14.6166699999999991632648743689060211181640625},"6":{"id":"9794378","label":"Posavje District","value":"9794378","lat":46.09411999999999665078576072119176387786865234375,"lon":14.5053900000000002279421096318401396274566650390625,"poi_name":"Posavje District","parent_id":"3239318","long":14.5053900000000002279421096318401396274566650390625},"7":{"id":"9794379","label":"Ro\u017enik District","value":"9794379","lat":46.059989999999999099600245244801044464111328125,"lon":14.46779000000000081627149484120309352874755859375,"poi_name":"Ro\u017enik District","parent_id":"3239318","long":14.46779000000000081627149484120309352874755859375},"8":{"id":"9794380","label":"Sostro District","value":"9794380","lat":46.04341000000000150293999467976391315460205078125,"lon":14.6729299999999991399590726359747350215911865234375,"poi_name":"Sostro District","parent_id":"3239318","long":14.6729299999999991399590726359747350215911865234375},"9":{"id":"9794384","label":"Trnovo District","value":"9794384","lat":46.02412000000000347199602401815354824066162109375,"lon":14.488910000000000621867002337239682674407958984375,"poi_name":"Trnovo District","parent_id":"3239318","long":14.488910000000000621867002337239682674407958984375},"10":{"id":"9794386","label":"Vi\u010d District","value":"9794386","lat":46.0077899999999999636202119290828704833984375,"lon":14.469680000000000319460013997741043567657470703125,"poi_name":"Vi\u010d District","parent_id":"3239318","long":14.469680000000000319460013997741043567657470703125},"11":{"id":"9794381","label":"\u0160entvid District","value":"9794381","lat":46.10558999999999940655470709316432476043701171875,"lon":14.43328999999999950887286104261875152587890625,"poi_name":"\u0160entvid District","parent_id":"3239318","long":14.43328999999999950887286104261875152587890625},"12":{"id":"9794382","label":"\u0160marna Gora District","value":"9794382","lat":46.124989999999996825863490812480449676513671875,"lon":14.4703700000000008429879017057828605175018310546875,"poi_name":"\u0160marna Gora District","parent_id":"3239318","long":14.4703700000000008429879017057828605175018310546875}}