{"success":true,"remaining_lookups":9617,"0":{"id":"9143472","label":"Batangafo","value":"9143472","lat":7.34569999999999989626076057902537286281585693359375,"lon":17.960609999999999075726009323261678218841552734375,"poi_name":"Batangafo","parent_id":"2383653","long":17.960609999999999075726009323261678218841552734375},"1":{"id":"7732115","label":"Bossangoa","value":"7732115","lat":6.40679999999999960635932438890449702739715576171875,"lon":17.351890000000000924273990676738321781158447265625,"poi_name":"Bossangoa","parent_id":"2383653","long":17.351890000000000924273990676738321781158447265625},"2":{"id":"9143477","label":"Bouca","value":"9143477","lat":6.37248000000000036635583455790765583515167236328125,"lon":18.28674000000000177124093170277774333953857421875,"poi_name":"Bouca","parent_id":"2383653","long":18.28674000000000177124093170277774333953857421875},"3":{"id":"9143478","label":"Kabo","value":"9143478","lat":7.79720999999999975216269376687705516815185546875,"lon":18.586349999999999482724888366647064685821533203125,"poi_name":"Kabo","parent_id":"2383653","long":18.586349999999999482724888366647064685821533203125},"4":{"id":"9143479","label":"Markounda","value":"9143479","lat":7.52906000000000030780711313127540051937103271484375,"lon":17.256840000000000401314537157304584980010986328125,"poi_name":"Markounda","parent_id":"2383653","long":17.256840000000000401314537157304584980010986328125},"5":{"id":"9143480","label":"Nana-Bakassa","value":"9143480","lat":6.97233999999999998209432305884547531604766845703125,"lon":17.379200000000000869704308570362627506256103515625,"poi_name":"Nana-Bakassa","parent_id":"2383653","long":17.379200000000000869704308570362627506256103515625},"6":{"id":"9143481","label":"Nangha Boguila","value":"9143481","lat":7.06393000000000004234834705130197107791900634765625,"lon":16.919679999999999608917278237640857696533203125,"poi_name":"Nangha Boguila","parent_id":"2383653","long":16.919679999999999608917278237640857696533203125}}