{"success":true,"remaining_lookups":9563,"0":{"id":"1808925","label":"Hangzhou Shi","value":"1808925","lat":30,"lon":119.599999999999994315658113919198513031005859375,"poi_name":"Hangzhou Shi","parent_id":"1784764","long":119.599999999999994315658113919198513031005859375},"1":{"id":"1806534","label":"Huzhou Shi","value":"1806534","lat":30.800000000000000710542735760100185871124267578125,"lon":119.900000000000005684341886080801486968994140625,"poi_name":"Huzhou Shi","parent_id":"1784764","long":119.900000000000005684341886080801486968994140625},"2":{"id":"1805952","label":"Jiaxing Shi","value":"1805952","lat":30.770700000000001494981916039250791072845458984375,"lon":120.7523800000000022691892809234559535980224609375,"poi_name":"Jiaxing Shi","parent_id":"1784764","long":120.7523800000000022691892809234559535980224609375},"3":{"id":"1805525","label":"Jinhua Shi","value":"1805525","lat":29.107780000000001763282853062264621257781982421875,"lon":120,"poi_name":"Jinhua Shi","parent_id":"1784764","long":120},"4":{"id":"1803243","label":"Lishui Shi","value":"1803243","lat":28.40805999999999897909219725988805294036865234375,"lon":119.533330000000006521077011711895465850830078125,"poi_name":"Lishui Shi","parent_id":"1784764","long":119.533330000000006521077011711895465850830078125},"5":{"id":"1799395","label":"Ningbo Shi","value":"1799395","lat":29.800000000000000710542735760100185871124267578125,"lon":121.5499999999999971578290569595992565155029296875,"poi_name":"Ningbo Shi","parent_id":"1784764","long":121.5499999999999971578290569595992565155029296875},"6":{"id":"1797262","label":"Quzhou Shi","value":"1797262","lat":28.942730000000000956106305238790810108184814453125,"lon":118.87184999999999490682967007160186767578125,"poi_name":"Quzhou Shi","parent_id":"1784764","long":118.87184999999999490682967007160186767578125},"7":{"id":"1795854","label":"Shaoxing Shi","value":"1795854","lat":29.70167000000000001591615728102624416351318359375,"lon":120.599999999999994315658113919198513031005859375,"poi_name":"Shaoxing Shi","parent_id":"1784764","long":120.599999999999994315658113919198513031005859375},"8":{"id":"1793504","label":"Taizhou Shi","value":"1793504","lat":28.683499999999998664179656771011650562286376953125,"lon":121.4440000000000026147972675971686840057373046875,"poi_name":"Taizhou Shi","parent_id":"1784764","long":121.4440000000000026147972675971686840057373046875},"9":{"id":"1791385","label":"Wenzhou Shi","value":"1791385","lat":27.8149599999999992405719240196049213409423828125,"lon":120.4851900000000028967406251467764377593994140625,"poi_name":"Wenzhou Shi","parent_id":"1784764","long":120.4851900000000028967406251467764377593994140625},"10":{"id":"1784107","label":"Zhoushan Shi","value":"1784107","lat":30.16944000000000158934199134819209575653076171875,"lon":122.4027800000000070212990976870059967041015625,"poi_name":"Zhoushan Shi","parent_id":"1784764","long":122.4027800000000070212990976870059967041015625}}