{"success":true,"remaining_lookups":9568,"0":{"id":"1818175","label":"Aba Zangzu Qiangzu Zizhizhou","value":"1818175","lat":32.4187500000000028421709430404007434844970703125,"lon":102.63663999999999987267074175179004669189453125,"poi_name":"Aba Zangzu Qiangzu Zizhizhou","parent_id":"1794299","long":102.63663999999999987267074175179004669189453125},"1":{"id":"6643375","label":"Bazhong Shi","value":"6643375","lat":32.0402500000000003410605131648480892181396484375,"lon":107.06229999999999336068867705762386322021484375,"poi_name":"Bazhong Shi","parent_id":"1794299","long":107.06229999999999336068867705762386322021484375},"2":{"id":"1815285","label":"Chengdu Shi","value":"1815285","lat":30.759820000000001272155714104883372783660888671875,"lon":103.8705499999999943838702165521681308746337890625,"poi_name":"Chengdu Shi","parent_id":"1794299","long":103.8705499999999943838702165521681308746337890625},"3":{"id":"8739734","label":"Chongqing","value":"8739734","lat":29.5352299999999985402610036544501781463623046875,"lon":107.4023399999999952569851302541792392730712890625,"poi_name":"Chongqing","parent_id":"1794299","long":107.4023399999999952569851302541792392730712890625},"4":{"id":"1813324","label":"Dazhou Shi","value":"1813324","lat":31.34512000000000142563294502906501293182373046875,"lon":107.650679999999994151949067600071430206298828125,"poi_name":"Dazhou Shi","parent_id":"1794299","long":107.650679999999994151949067600071430206298828125},"5":{"id":"6642946","label":"Deyang Shi","value":"6642946","lat":31.1366000000000013869794202037155628204345703125,"lon":104.4735500000000030240698833949863910675048828125,"poi_name":"Deyang Shi","parent_id":"1794299","long":104.4735500000000030240698833949863910675048828125},"6":{"id":"1810269","label":"Garz\u00ea Zangzu Zizhizhou","value":"1810269","lat":31.024069999999998259454514482058584690093994140625,"lon":100.40552999999999883584678173065185546875,"poi_name":"Garz\u00ea Zangzu Zizhizhou","parent_id":"1794299","long":100.40552999999999883584678173065185546875},"7":{"id":"6643372","label":"Guangyuan Shi","value":"6643372","lat":32.24387999999999721012500231154263019561767578125,"lon":105.82359999999999899955582804977893829345703125,"poi_name":"Guangyuan Shi","parent_id":"1794299","long":105.82359999999999899955582804977893829345703125},"8":{"id":"6643373","label":"Guang\u2019an Shi","value":"6643373","lat":30.472249999999998948396751075051724910736083984375,"lon":106.7159500000000065256244852207601070404052734375,"poi_name":"Guang\u2019an Shi","parent_id":"1794299","long":106.7159500000000065256244852207601070404052734375},"9":{"id":"1804151","label":"Leshan Shi","value":"1804151","lat":29.262679999999999580495568807236850261688232421875,"lon":103.5633600000000029695002012886106967926025390625,"poi_name":"Leshan Shi","parent_id":"1794299","long":103.5633600000000029695002012886106967926025390625},"10":{"id":"1803984","label":"Liangshan Yizu Zizhizhou","value":"1803984","lat":27.876439999999998775592757738195359706878662109375,"lon":102.101799999999997226041159592568874359130859375,"poi_name":"Liangshan Yizu Zizhizhou","parent_id":"1794299","long":102.101799999999997226041159592568874359130859375},"11":{"id":"1801637","label":"Luzhou Shi","value":"1801637","lat":28.567350000000001131184035330079495906829833984375,"lon":105.51897999999999910869519226253032684326171875,"poi_name":"Luzhou Shi","parent_id":"1794299","long":105.51897999999999910869519226253032684326171875},"12":{"id":"8537504","label":"Meishan Shi","value":"8537504","lat":30.030000000000001136868377216160297393798828125,"lon":104.0400000000000062527760746888816356658935546875,"poi_name":"Meishan Shi","parent_id":"1794299","long":104.0400000000000062527760746888816356658935546875},"13":{"id":"1800626","label":"Mianyang Shi","value":"1800626","lat":31.911210000000000519548848387785255908966064453125,"lon":104.753590000000002646629582159221172332763671875,"poi_name":"Mianyang Shi","parent_id":"1794299","long":104.753590000000002646629582159221172332763671875},"14":{"id":"1800145","label":"Nanchong Shi","value":"1800145","lat":31.21021999999999962938090902753174304962158203125,"lon":106.23174000000000205545802600681781768798828125,"poi_name":"Nanchong Shi","parent_id":"1794299","long":106.23174000000000205545802600681781768798828125},"15":{"id":"1799490","label":"Neijiang Shi","value":"1799490","lat":29.651979999999998227622199920006096363067626953125,"lon":104.8653199999999969804775901138782501220703125,"poi_name":"Neijiang Shi","parent_id":"1794299","long":104.8653199999999969804775901138782501220703125},"16":{"id":"1798997","label":"Panzhihua Shi","value":"1798997","lat":26.858889999999998821067492826841771602630615234375,"lon":101.579710000000005720721674151718616485595703125,"poi_name":"Panzhihua Shi","parent_id":"1794299","long":101.579710000000005720721674151718616485595703125},"17":{"id":"6643374","label":"Suining Shi","value":"6643374","lat":30.63895000000000123918653116561472415924072265625,"lon":105.468940000000003465174813754856586456298828125,"poi_name":"Suining Shi","parent_id":"1794299","long":105.468940000000003465174813754856586456298828125},"18":{"id":"9166037","label":"Wuxi County","value":"9166037","lat":31.449999999999999289457264239899814128875732421875,"lon":109.6333300000000008367351256310939788818359375,"poi_name":"Wuxi County","parent_id":"1794299","long":109.6333300000000008367351256310939788818359375},"19":{"id":"1787815","label":"Ya\u2019an Shi","value":"1787815","lat":29.980000000000000426325641456060111522674560546875,"lon":103,"poi_name":"Ya\u2019an Shi","parent_id":"1794299","long":103},"20":{"id":"1786769","label":"Yibin Shi","value":"1786769","lat":28.586890000000000355839802068658173084259033203125,"lon":104.71865999999999985448084771633148193359375,"poi_name":"Yibin Shi","parent_id":"1794299","long":104.71865999999999985448084771633148193359375},"21":{"id":"1783744","label":"Zigong Shi","value":"1783744","lat":29.2888599999999996725819073617458343505859375,"lon":104.6983500000000049112713895738124847412109375,"poi_name":"Zigong Shi","parent_id":"1794299","long":104.6983500000000049112713895738124847412109375},"22":{"id":"8594180","label":"Ziyang Shi","value":"8594180","lat":30.10000000000000142108547152020037174224853515625,"lon":105.1700000000000017053025658242404460906982421875,"poi_name":"Ziyang Shi","parent_id":"1794299","long":105.1700000000000017053025658242404460906982421875}}