{"success":true,"remaining_lookups":9569,"0":{"id":"1815461","label":"Changzhi Shi","value":"1815461","lat":36.4556400000000024874680093489587306976318359375,"lon":112.8843600000000009231371222995221614837646484375,"poi_name":"Changzhi Shi","parent_id":"1795912","long":112.8843600000000009231371222995221614837646484375},"1":{"id":"2037794","label":"Datong Shi","value":"2037794","lat":40.10484000000000293084667646326124668121337890625,"lon":113.633340000000004010871634818613529205322265625,"poi_name":"Datong Shi","parent_id":"1795912","long":113.633340000000004010871634818613529205322265625},"2":{"id":"1805739","label":"Jincheng Shi","value":"1805739","lat":35.60361999999999937926986603997647762298583984375,"lon":112.6925700000000034606273402459919452667236328125,"poi_name":"Jincheng Shi","parent_id":"1795912","long":112.6925700000000034606273402459919452667236328125},"3":{"id":"1805302","label":"Jinzhong Shi","value":"1805302","lat":37.43596999999999752617441117763519287109375,"lon":113.08782999999999674400896765291690826416015625,"poi_name":"Jinzhong Shi","parent_id":"1795912","long":113.08782999999999674400896765291690826416015625},"4":{"id":"1803566","label":"Linfen Shi","value":"1803566","lat":36.22995999999999838792064110748469829559326171875,"lon":111.3817700000000030513547244481742382049560546875,"poi_name":"Linfen Shi","parent_id":"1795912","long":111.3817700000000030513547244481742382049560546875},"5":{"id":"1802029","label":"L\u00fcliang","value":"1802029","lat":37.7356300000000004501998773775994777679443359375,"lon":111.3053799999999995407051756046712398529052734375,"poi_name":"L\u00fcliang","parent_id":"1795912","long":111.3053799999999995407051756046712398529052734375},"6":{"id":"6642609","label":"Shuozhou Shi","value":"6642609","lat":39.59273999999999915644366410560905933380126953125,"lon":112.5413400000000052614268497563898563385009765625,"poi_name":"Shuozhou Shi","parent_id":"1795912","long":112.5413400000000052614268497563898563385009765625},"7":{"id":"1793510","label":"Taiyuan Shi","value":"1793510","lat":37.93314000000000163481672643683850765228271484375,"lon":112.3192999999999983629095368087291717529296875,"poi_name":"Taiyuan Shi","parent_id":"1795912","long":112.3192999999999983629095368087291717529296875},"8":{"id":"6642630","label":"Xinzhou Shi","value":"6642630","lat":38.76501999999999981127984938211739063262939453125,"lon":112.3858100000000064255800680257380008697509765625,"poi_name":"Xinzhou Shi","parent_id":"1795912","long":112.3858100000000064255800680257380008697509765625},"9":{"id":"2033526","label":"Yanbei Diqu","value":"2033526","lat":40.0012200000000035515768104232847690582275390625,"lon":113.7262099999999946930984151549637317657470703125,"poi_name":"Yanbei Diqu","parent_id":"1795912","long":113.7262099999999946930984151549637317657470703125},"10":{"id":"1787346","label":"Yangquan Shi","value":"1787346","lat":38.11104999999999876081346883438527584075927734375,"lon":113.4962799999999987221599440090358257293701171875,"poi_name":"Yangquan Shi","parent_id":"1795912","long":113.4962799999999987221599440090358257293701171875},"11":{"id":"1785736","label":"Yuncheng Shi","value":"1785736","lat":35.218040000000002009983290918171405792236328125,"lon":111.0537199999999984356691129505634307861328125,"poi_name":"Yuncheng Shi","parent_id":"1795912","long":111.0537199999999984356691129505634307861328125}}