{"success":true,"remaining_lookups":9572,"0":{"id":"1818037","label":"Ankang Shi","value":"1818037","lat":32.81508999999999787178239785134792327880859375,"lon":108.8779899999999969395503285340964794158935546875,"poi_name":"Ankang Shi","parent_id":"1796480","long":108.8779899999999969395503285340964794158935546875},"1":{"id":"1816935","label":"Baoji Shi","value":"1816935","lat":34.36943999999999732608557678759098052978515625,"lon":107.136349999999993087840266525745391845703125,"poi_name":"Baoji Shi","parent_id":"1796480","long":107.136349999999993087840266525745391845703125},"2":{"id":"1808856","label":"Hanzhong Shi","value":"1808856","lat":33.171120000000001937223714776337146759033203125,"lon":107.0450100000000048794390750117599964141845703125,"poi_name":"Hanzhong Shi","parent_id":"1796480","long":107.0450100000000048794390750117599964141845703125},"3":{"id":"1796165","label":"Shangluo Shi","value":"1796165","lat":33.69333000000000311047188006341457366943359375,"lon":109.891109999999997626218828372657299041748046875,"poi_name":"Shangluo Shi","parent_id":"1796480","long":109.891109999999997626218828372657299041748046875},"4":{"id":"1792691","label":"Tongchuan Shi","value":"1792691","lat":35.2252799999999979263520799577236175537109375,"lon":109.045559999999994715835782699286937713623046875,"poi_name":"Tongchuan Shi","parent_id":"1796480","long":109.045559999999994715835782699286937713623046875},"5":{"id":"1791635","label":"Weinan Shi","value":"1791635","lat":34.93693999999999988403942552395164966583251953125,"lon":109.7349999999999994315658113919198513031005859375,"poi_name":"Weinan Shi","parent_id":"1796480","long":109.7349999999999994315658113919198513031005859375},"6":{"id":"1790352","label":"Xianyang Shi","value":"1790352","lat":34.73416999999999887904778006486594676971435546875,"lon":108.393609999999995352482073940336704254150390625,"poi_name":"Xianyang Shi","parent_id":"1796480","long":108.393609999999995352482073940336704254150390625},"7":{"id":"1790384","label":"Xi\u2019an Shi","value":"1790384","lat":34.06889000000000322643245453946292400360107421875,"lon":108.785830000000004247340257279574871063232421875,"poi_name":"Xi\u2019an Shi","parent_id":"1796480","long":108.785830000000004247340257279574871063232421875},"8":{"id":"1787763","label":"Yan\u2019an Shi","value":"1787763","lat":36.605559999999996989572537131607532501220703125,"lon":109.3608300000000070895112003199756145477294921875,"poi_name":"Yan\u2019an Shi","parent_id":"1796480","long":109.3608300000000070895112003199756145477294921875},"9":{"id":"1785769","label":"Yulin Shi","value":"1785769","lat":38.05360999999999904730429989285767078399658203125,"lon":109.67194000000000642103259451687335968017578125,"poi_name":"Yulin Shi","parent_id":"1796480","long":109.67194000000000642103259451687335968017578125}}