{"success":true,"remaining_lookups":9584,"0":{"id":"1816970","label":"Baoding Diqu","value":"1816970","lat":38.8666699999999991632648743689060211181640625,"lon":115.483329999999995152393239550292491912841796875,"poi_name":"Baoding Diqu","parent_id":"1808773","long":115.483329999999995152393239550292491912841796875},"1":{"id":"1816969","label":"Baoding Shi","value":"1816969","lat":38.8659999999999996589394868351519107818603515625,"lon":115.4800000000000039790393202565610408782958984375,"poi_name":"Baoding Shi","parent_id":"1808773","long":115.4800000000000039790393202565610408782958984375},"2":{"id":"1816079","label":"Cangzhou Diqu","value":"1816079","lat":38.316000000000002501110429875552654266357421875,"lon":116.8659999999999996589394868351519107818603515625,"poi_name":"Cangzhou Diqu","parent_id":"1808773","long":116.8659999999999996589394868351519107818603515625},"3":{"id":"1816078","label":"Cangzhou Shi","value":"1816078","lat":38.31000000000000227373675443232059478759765625,"lon":116.8599999999999994315658113919198513031005859375,"poi_name":"Cangzhou Shi","parent_id":"1808773","long":116.8599999999999994315658113919198513031005859375},"4":{"id":"2038085","label":"Chengde Prefecture","value":"2038085","lat":40.969999999999998863131622783839702606201171875,"lon":117.93000000000000682121026329696178436279296875,"poi_name":"Chengde Prefecture","parent_id":"1808773","long":117.93000000000000682121026329696178436279296875},"5":{"id":"1808962","label":"Handan Diqu","value":"1808962","lat":36.5834899999999976216713548637926578521728515625,"lon":114.483249999999998181010596454143524169921875,"poi_name":"Handan Diqu","parent_id":"1808773","long":114.483249999999998181010596454143524169921875},"6":{"id":"1808961","label":"Handan Shi","value":"1808961","lat":36.58312000000000097088559414260089397430419921875,"lon":114.4834100000000063346305978484451770782470703125,"poi_name":"Handan Shi","parent_id":"1808773","long":114.4834100000000063346305978484451770782470703125},"7":{"id":"1808391","label":"Hengshui Shi","value":"1808391","lat":37.72999999999999687361196265555918216705322265625,"lon":115.7000000000000028421709430404007434844970703125,"poi_name":"Hengshui Shi","parent_id":"1808773","long":115.7000000000000028421709430404007434844970703125},"8":{"id":"1804539","label":"Langfang Shi","value":"1804539","lat":39.51666999999999774217940284870564937591552734375,"lon":116.6833299999999979945641825906932353973388671875,"poi_name":"Langfang Shi","parent_id":"1808773","long":116.6833299999999979945641825906932353973388671875},"9":{"id":"1797593","label":"Qinhuangdao Shi","value":"1797593","lat":40.16834999999999666897565475665032863616943359375,"lon":119.29207999999999856299837119877338409423828125,"poi_name":"Qinhuangdao Shi","parent_id":"1808773","long":119.29207999999999856299837119877338409423828125},"10":{"id":"1795266","label":"Shijiazhuang Shi","value":"1795266","lat":38.03999999999999914734871708787977695465087890625,"lon":114.469999999999998863131622783839702606201171875,"poi_name":"Shijiazhuang Shi","parent_id":"1808773","long":114.469999999999998863131622783839702606201171875},"11":{"id":"1793343","label":"Tangshan Shi","value":"1793343","lat":39.63000000000000255795384873636066913604736328125,"lon":118.18000000000000682121026329696178436279296875,"poi_name":"Tangshan Shi","parent_id":"1808773","long":118.18000000000000682121026329696178436279296875},"12":{"id":"1788925","label":"Xingtai County","value":"1788925","lat":37.06000000000000227373675443232059478759765625,"lon":114.4899999999999948840923025272786617279052734375,"poi_name":"Xingtai County","parent_id":"1808773","long":114.4899999999999948840923025272786617279052734375},"13":{"id":"2033194","label":"Zhangjiakou Shi","value":"2033194","lat":40.83332999999999657347871107049286365509033203125,"lon":114.9333299999999979945641825906932353973388671875,"poi_name":"Zhangjiakou Shi","parent_id":"1808773","long":114.9333299999999979945641825906932353973388671875}}