{"success":true,"remaining_lookups":9586,"0":{"id":"1817965","label":"Anshun Shi","value":"1817965","lat":26.080290000000001526814230601303279399871826171875,"lon":105.909099999999995134203345514833927154541015625,"poi_name":"Anshun Shi","parent_id":"1809445","long":105.909099999999995134203345514833927154541015625},"1":{"id":"1816372","label":"Bijie Diqu","value":"1816372","lat":27.290330000000000865156835061497986316680908203125,"lon":105.300870000000003301465767435729503631591796875,"poi_name":"Bijie Diqu","parent_id":"1809445","long":105.300870000000003301465767435729503631591796875},"2":{"id":"1809458","label":"Guiyang Shi","value":"1809458","lat":26.5799999999999982946974341757595539093017578125,"lon":106.7099999999999937472239253111183643341064453125,"poi_name":"Guiyang Shi","parent_id":"1809445","long":106.7099999999999937472239253111183643341064453125},"3":{"id":"1801764","label":"Lupanshui Shi","value":"1801764","lat":26.240149999999999863575794734060764312744140625,"lon":104.7518199999999950478013488464057445526123046875,"poi_name":"Lupanshui Shi","parent_id":"1809445","long":104.7518199999999950478013488464057445526123046875},"4":{"id":"1798360","label":"Qiandongnan Miao and Dong Autonomous Prefecture","value":"1798360","lat":26.57379999999999853343979339115321636199951171875,"lon":108.599140000000005557012627832591533660888671875,"poi_name":"Qiandongnan Miao and Dong Autonomous Prefecture","parent_id":"1809445","long":108.599140000000005557012627832591533660888671875},"5":{"id":"1798280","label":"Qiannan Bouyeizu Miaozu Zizhizhou","value":"1798280","lat":26.065960000000000462705429526977241039276123046875,"lon":107.1185600000000022191670723259449005126953125,"poi_name":"Qiannan Bouyeizu Miaozu Zizhizhou","parent_id":"1809445","long":107.1185600000000022191670723259449005126953125},"6":{"id":"1798226","label":"Qianxinan Bouyeizu Miaozu Zizhizhou","value":"1798226","lat":25.388079999999998648263499489985406398773193359375,"lon":105.3873999999999995225152815692126750946044921875,"poi_name":"Qianxinan Bouyeizu Miaozu Zizhizhou","parent_id":"1809445","long":105.3873999999999995225152815692126750946044921875},"7":{"id":"1792591","label":"Tongren Diqu","value":"1792591","lat":27.741879999999998318571670097298920154571533203125,"lon":109.193119999999993297024047933518886566162109375,"poi_name":"Tongren Diqu","parent_id":"1809445","long":109.193119999999993297024047933518886566162109375},"8":{"id":"1783620","label":"Zunyi Shi","value":"1783620","lat":28.154689999999998661905920016579329967498779296875,"lon":107.0748099999999993769961292855441570281982421875,"poi_name":"Zunyi Shi","parent_id":"1809445","long":107.0748099999999993769961292855441570281982421875}}