{"success":true,"remaining_lookups":9589,"0":{"id":"1817238","label":"Baiyin Shi","value":"1817238","lat":36.53645999999999816054696566425263881683349609375,"lon":104.7849499999999949295670376159250736236572265625,"poi_name":"Baiyin Shi","parent_id":"1810676","long":104.7849499999999949295670376159250736236572265625},"1":{"id":"1812743","label":"Dingxi Shi","value":"1812743","lat":35.03710000000000235331754083745181560516357421875,"lon":104.3862299999999976307663018815219402313232421875,"poi_name":"Dingxi Shi","parent_id":"1810676","long":104.3862299999999976307663018815219402313232421875},"2":{"id":"1810686","label":"Gannan Zangzu Zizhizhou","value":"1810686","lat":34.51778999999999797410055180080235004425048828125,"lon":102.6590900000000061709215515293180942535400390625,"poi_name":"Gannan Zangzu Zizhizhou","parent_id":"1810676","long":102.6590900000000061709215515293180942535400390625},"3":{"id":"1280956","label":"Jiayuguan Shi","value":"1280956","lat":39.83984000000000236241248785518109798431396484375,"lon":98.232269999999999754436430521309375762939453125,"poi_name":"Jiayuguan Shi","parent_id":"1810676","long":98.232269999999999754436430521309375762939453125},"4":{"id":"1805747","label":"Jinchang Shi","value":"1805747","lat":38.44968999999999681449480704031884670257568359375,"lon":102.058390000000002828528522513806819915771484375,"poi_name":"Jinchang Shi","parent_id":"1810676","long":102.058390000000002828528522513806819915771484375},"5":{"id":"1280931","label":"Jiuquan Shi","value":"1280931","lat":40.64878999999999820147422724403440952301025390625,"lon":96.6647899999999964393282425589859485626220703125,"poi_name":"Jiuquan Shi","parent_id":"1810676","long":96.6647899999999964393282425589859485626220703125},"6":{"id":"1804429","label":"Lanzhou Shi","value":"1804429","lat":36.4744400000000013051248970441520214080810546875,"lon":103.7332200000000028694557840935885906219482421875,"poi_name":"Lanzhou Shi","parent_id":"1810676","long":103.7332200000000028694557840935885906219482421875},"7":{"id":"1803330","label":"Linxia Huizu Zizhizhou","value":"1803330","lat":35.6659700000000015052137314341962337493896484375,"lon":103.2407999999999930196281638927757740020751953125,"poi_name":"Linxia Huizu Zizhizhou","parent_id":"1810676","long":103.2407999999999930196281638927757740020751953125},"8":{"id":"1802494","label":"Longnan Shi","value":"1802494","lat":33.5345099999999973761077853851020336151123046875,"lon":105.3494699999999966166797094047069549560546875,"poi_name":"Longnan Shi","parent_id":"1810676","long":105.3494699999999966166797094047069549560546875},"9":{"id":"1798759","label":"Pingliang Shi","value":"1798759","lat":35.22677999999999798319549881853163242340087890625,"lon":106.4956499999999977035258780233561992645263671875,"poi_name":"Pingliang Shi","parent_id":"1810676","long":106.4956499999999977035258780233561992645263671875},"10":{"id":"1797652","label":"Qingyang Shi","value":"1797652","lat":36.2359799999999978581399773247539997100830078125,"lon":107.581130000000001700755092315375804901123046875,"poi_name":"Qingyang Shi","parent_id":"1810676","long":107.581130000000001700755092315375804901123046875},"11":{"id":"1792891","label":"Tianshui Shi","value":"1792891","lat":34.65221999999999979991116560995578765869140625,"lon":105.8069899999999989859134075231850147247314453125,"poi_name":"Tianshui Shi","parent_id":"1810676","long":105.8069899999999989859134075231850147247314453125},"12":{"id":"1790930","label":"Wuwei Shi","value":"1790930","lat":38.00856999999999885631041252054274082183837890625,"lon":103.124089999999995370671967975795269012451171875,"poi_name":"Wuwei Shi","parent_id":"1810676","long":103.124089999999995370671967975795269012451171875},"13":{"id":"1785035","label":"Zhangye Shi","value":"1785035","lat":39.1218300000000027694113668985664844512939453125,"lon":99.924949999999995498001226224005222320556640625,"poi_name":"Zhangye Shi","parent_id":"1810676","long":99.924949999999995498001226224005222320556640625}}