{"success":true,"remaining_lookups":9583,"0":{"id":"2037961","label":"Dahingganling Diqu","value":"2037961","lat":52.36534000000000332875060848891735076904296875,"lon":124.96116000000000667569111101329326629638671875,"poi_name":"Dahingganling Diqu","parent_id":"2036965","long":124.96116000000000667569111101329326629638671875},"1":{"id":"2037847","label":"Daqing Shi","value":"2037847","lat":46.29175000000000039790393202565610408782958984375,"lon":124.546019999999998617568053305149078369140625,"poi_name":"Daqing Shi","parent_id":"2036965","long":124.546019999999998617568053305149078369140625},"2":{"id":"2037012","label":"Harbin Shi","value":"2037012","lat":45.4399599999999992405719240196049213409423828125,"lon":128.030409999999989167918101884424686431884765625,"poi_name":"Harbin Shi","parent_id":"2036965","long":128.030409999999989167918101884424686431884765625},"3":{"id":"2036985","label":"Hegang Shi","value":"2036985","lat":47.4701299999999974943420966155827045440673828125,"lon":130.805890000000005102265276946127414703369140625,"poi_name":"Hegang Shi","parent_id":"2036965","long":130.805890000000005102265276946127414703369140625},"4":{"id":"2036971","label":"Heihe Shi","value":"2036971","lat":49.11878999999999706460585002787411212921142578125,"lon":127.1086499999999972487785271368920803070068359375,"poi_name":"Heihe Shi","parent_id":"2036965","long":127.1086499999999972487785271368920803070068359375},"5":{"id":"2036580","label":"Jiamusi Shi","value":"2036580","lat":47.0215699999999969804775901138782501220703125,"lon":132.044139999999998735802364535629749298095703125,"poi_name":"Jiamusi Shi","parent_id":"2036965","long":132.044139999999998735802364535629749298095703125},"6":{"id":"2036380","label":"Jixi Shi","value":"2036380","lat":45.65802000000000049340087571181356906890869140625,"lon":132.461489999999997735358192585408687591552734375,"poi_name":"Jixi Shi","parent_id":"2036965","long":132.461489999999997735358192585408687591552734375},"7":{"id":"2035713","label":"Mudanjiang Shi","value":"2035713","lat":44.63501000000000118461684905923902988433837890625,"lon":130.013380000000012159944162704050540924072265625,"poi_name":"Mudanjiang Shi","parent_id":"2036965","long":130.013380000000012159944162704050540924072265625},"8":{"id":"2035264","label":"Qiqihar Shi","value":"2035264","lat":47.73944999999999794226823723874986171722412109375,"lon":124.6512799999999998590283212251961231231689453125,"poi_name":"Qiqihar Shi","parent_id":"2036965","long":124.6512799999999998590283212251961231231689453125},"9":{"id":"2035260","label":"Qitaihe Shi","value":"2035260","lat":45.80738000000000198497218661941587924957275390625,"lon":131.093600000000009231371222995221614837646484375,"poi_name":"Qitaihe Shi","parent_id":"2036965","long":131.093600000000009231371222995221614837646484375},"10":{"id":"2034785","label":"Shuangyashan Shi","value":"2034785","lat":46.52271999999999962938090902753174304962158203125,"lon":132.645520000000004756657290272414684295654296875,"poi_name":"Shuangyashan Shi","parent_id":"2036965","long":132.645520000000004756657290272414684295654296875},"11":{"id":"2034696","label":"Songhuajiang Diqu","value":"2034696","lat":45.74546000000000134377842186950147151947021484375,"lon":126.6568099999999930105332168750464916229248046875,"poi_name":"Songhuajiang Diqu","parent_id":"2036965","long":126.6568099999999930105332168750464916229248046875},"12":{"id":"2034654","label":"Suihua Shi","value":"2034654","lat":46.88047000000000252839527092874050140380859375,"lon":126.8087100000000049249138101004064083099365234375,"poi_name":"Suihua Shi","parent_id":"2036965","long":126.8087100000000049249138101004064083099365234375},"13":{"id":"2033412","label":"Yichun Shi","value":"2033412","lat":47.69261999999999801502781338058412075042724609375,"lon":129.198970000000002755768946371972560882568359375,"poi_name":"Yichun Shi","parent_id":"2036965","long":129.198970000000002755768946371972560882568359375}}