{"success":true,"remaining_lookups":8536,"0":{"id":"1966740","label":"Bahagian Bintulu","value":"1966740","lat":2.833330000000000126192389870993793010711669921875,"lon":113.25,"poi_name":"Bahagian Bintulu","parent_id":"1733038","long":113.25},"1":{"id":"1737860","label":"Bahagian Kapit","value":"1737860","lat":2.166669999999999873807610129006206989288330078125,"lon":113.75,"poi_name":"Bahagian Kapit","parent_id":"1733038","long":113.75},"2":{"id":"1734504","label":"Bahagian Kuching","value":"1734504","lat":1.4166700000000000958522150540375150740146636962890625,"lon":110.0833300000000036789060686714947223663330078125,"poi_name":"Bahagian Kuching","parent_id":"1733038","long":110.0833300000000036789060686714947223663330078125},"3":{"id":"1737785","label":"Bahagian Limbang","value":"1737785","lat":4.166669999999999873807610129006206989288330078125,"lon":115.3333300000000036789060686714947223663330078125,"poi_name":"Bahagian Limbang","parent_id":"1733038","long":115.3333300000000036789060686714947223663330078125},"4":{"id":"1738079","label":"Bahagian Miri","value":"1738079","lat":3.75,"lon":114.5,"poi_name":"Bahagian Miri","parent_id":"1733038","long":114.5},"5":{"id":"1966741","label":"Bahagian Samarahan","value":"1966741","lat":1.25,"lon":110.75,"poi_name":"Bahagian Samarahan","parent_id":"1733038","long":110.75},"6":{"id":"1735861","label":"Bahagian Sarikei","value":"1735861","lat":2,"lon":111.6666699999999963210939313285052776336669921875,"poi_name":"Bahagian Sarikei","parent_id":"1733038","long":111.6666699999999963210939313285052776336669921875},"7":{"id":"1736980","label":"Bahagian Sibu","value":"1736980","lat":2.416669999999999873807610129006206989288330078125,"lon":112.25,"poi_name":"Bahagian Sibu","parent_id":"1733038","long":112.25},"8":{"id":"1736901","label":"Bahagian Sri Aman","value":"1736901","lat":1.5,"lon":111.5,"poi_name":"Bahagian Sri Aman","parent_id":"1733038","long":111.5}}