{"success":true,"remaining_lookups":7662,"0":{"id":"2725469","label":"Arboga Kommun","value":"2725469","lat":59.394509999999996807673596777021884918212890625,"lon":15.792609999999999814690454513765871524810791015625,"poi_name":"Arboga Kommun","parent_id":"2664179","long":15.792609999999999814690454513765871524810791015625},"1":{"id":"2715650","label":"Fagersta Kommun","value":"2715650","lat":59.948340000000001737134880386292934417724609375,"lon":15.8833199999999994389554558438248932361602783203125,"poi_name":"Fagersta Kommun","parent_id":"2664179","long":15.8833199999999994389554558438248932361602783203125},"2":{"id":"2708428","label":"Hallstahammars Kommun","value":"2708428","lat":59.6170299999999997453414835035800933837890625,"lon":16.227969999999999117790139280259609222412109375,"poi_name":"Hallstahammars Kommun","parent_id":"2664179","long":16.227969999999999117790139280259609222412109375},"3":{"id":"2698680","label":"Kungs\u00f6rs kommun","value":"2698680","lat":59.40247000000000099362296168692409992218017578125,"lon":16.07748000000000132558852783404290676116943359375,"poi_name":"Kungs\u00f6rs kommun","parent_id":"2664179","long":16.07748000000000132558852783404290676116943359375},"4":{"id":"2699780","label":"K\u00f6pings Kommun","value":"2699780","lat":59.5663899999999983947418513707816600799560546875,"lon":15.8721800000000001773514668457210063934326171875,"poi_name":"K\u00f6pings Kommun","parent_id":"2664179","long":15.8721800000000001773514668457210063934326171875},"5":{"id":"2689450","label":"Norbergs Kommun","value":"2689450","lat":60.08997000000000099362296168692409992218017578125,"lon":15.9597099999999993968913258868269622325897216796875,"poi_name":"Norbergs Kommun","parent_id":"2664179","long":15.9597099999999993968913258868269622325897216796875},"6":{"id":"2680657","label":"Sala kommun","value":"2680657","lat":59.97220999999999690999175072647631168365478515625,"lon":16.47373999999999938381733954884111881256103515625,"poi_name":"Sala kommun","parent_id":"2664179","long":16.47373999999999938381733954884111881256103515625},"7":{"id":"2677592","label":"Skinnskattebergs Kommun","value":"2677592","lat":59.7971500000000020236257114447653293609619140625,"lon":15.71462999999999965439201332628726959228515625,"poi_name":"Skinnskattebergs Kommun","parent_id":"2664179","long":15.71462999999999965439201332628726959228515625},"8":{"id":"2670612","label":"Surahammars Kommun","value":"2670612","lat":59.77486999999999994770405464805662631988525390625,"lon":16.118849999999998345856511150486767292022705078125,"poi_name":"Surahammars Kommun","parent_id":"2664179","long":16.118849999999998345856511150486767292022705078125},"9":{"id":"2664441","label":"V\u00e4ster\u00e5s","value":"2664441","lat":59.6491400000000027148416847921907901763916015625,"lon":16.56445000000000078443918027915060520172119140625,"poi_name":"V\u00e4ster\u00e5s","parent_id":"2664179","long":16.56445000000000078443918027915060520172119140625}}