{"success":true,"remaining_lookups":7659,"0":{"id":"2720036","label":"Boxholms Kommun","value":"2720036","lat":58.1484200000000015506884665228426456451416015625,"lon":15.109880000000000421778167947195470333099365234375,"poi_name":"Boxholms Kommun","parent_id":"2685867","long":15.109880000000000421778167947195470333099365234375},"1":{"id":"2714901","label":"Finsp\u00e5ngs Kommun","value":"2714901","lat":58.80568000000000239424480241723358631134033203125,"lon":15.7878299999999995861799106933176517486572265625,"poi_name":"Finsp\u00e5ngs Kommun","parent_id":"2685867","long":15.7878299999999995861799106933176517486572265625},"2":{"id":"2700854","label":"Kinda Kommun","value":"2700854","lat":58.01315000000000310365066980011761188507080078125,"lon":15.7337299999999995492316884337924420833587646484375,"poi_name":"Kinda Kommun","parent_id":"2685867","long":15.7337299999999995492316884337924420833587646484375},"3":{"id":"2694759","label":"Link\u00f6pings Kommun","value":"2694759","lat":58.41046000000000049112713895738124847412109375,"lon":15.618700000000000471800376544706523418426513671875,"poi_name":"Link\u00f6pings Kommun","parent_id":"2685867","long":15.618700000000000471800376544706523418426513671875},"4":{"id":"2691742","label":"Mj\u00f6lby Kommun","value":"2691742","lat":58.3457599999999985129761626012623310089111328125,"lon":15.138529999999999375859260908327996730804443359375,"poi_name":"Mj\u00f6lby Kommun","parent_id":"2685867","long":15.138529999999999375859260908327996730804443359375},"5":{"id":"2690959","label":"Motala Kommun","value":"2690959","lat":58.65131000000000227601049118675291538238525390625,"lon":15.191050000000000608224581810645759105682373046875,"poi_name":"Motala Kommun","parent_id":"2685867","long":15.191050000000000608224581810645759105682373046875},"6":{"id":"2688367","label":"Norrk\u00f6pings Kommun","value":"2688367","lat":58.611390000000000100044417195022106170654296875,"lon":16.3209200000000009822542779147624969482421875,"poi_name":"Norrk\u00f6pings Kommun","parent_id":"2685867","long":16.3209200000000009822542779147624969482421875},"7":{"id":"2676214","label":"S\u00f6derk\u00f6pings Kommun","value":"2676214","lat":58.42056000000000182126314030028879642486572265625,"lon":16.445100000000000051159076974727213382720947265625,"poi_name":"S\u00f6derk\u00f6pings Kommun","parent_id":"2685867","long":16.445100000000000051159076974727213382720947265625},"8":{"id":"2665901","label":"Vadstena Kommun","value":"2665901","lat":58.40782999999999702822606195695698261260986328125,"lon":14.8616200000000002745537130977027118206024169921875,"poi_name":"Vadstena Kommun","parent_id":"2685867","long":14.8616200000000002745537130977027118206024169921875},"9":{"id":"2665672","label":"Valdemarsviks Kommun","value":"2665672","lat":58.2000000000000028421709430404007434844970703125,"lon":16.60000000000000142108547152020037174224853515625,"poi_name":"Valdemarsviks Kommun","parent_id":"2685867","long":16.60000000000000142108547152020037174224853515625},"10":{"id":"2662215","label":"Ydre Kommun","value":"2662215","lat":57.86354999999999648707671440206468105316162109375,"lon":15.262660000000000337649908033199608325958251953125,"poi_name":"Ydre Kommun","parent_id":"2685867","long":15.262660000000000337649908033199608325958251953125},"11":{"id":"2724320","label":"\u00c5tvidabergs Kommun","value":"2724320","lat":58.22798999999999836063580005429685115814208984375,"lon":16.1252199999999987767296261154115200042724609375,"poi_name":"\u00c5tvidabergs Kommun","parent_id":"2685867","long":16.1252199999999987767296261154115200042724609375},"12":{"id":"2687419","label":"\u00d6desh\u00f6gs Kommun","value":"2687419","lat":58.2263999999999981582732289098203182220458984375,"lon":14.7406699999999997174882082617841660976409912109375,"poi_name":"\u00d6desh\u00f6gs Kommun","parent_id":"2685867","long":14.7406699999999997174882082617841660976409912109375}}