{"success":true,"remaining_lookups":7660,"0":{"id":"2724776","label":"Askersunds Kommun","value":"2724776","lat":58.88047999999999859710442251525819301605224609375,"lon":14.984159999999999257624949677847325801849365234375,"poi_name":"Askersunds Kommun","parent_id":"2686655","long":14.984159999999999257624949677847325801849365234375},"1":{"id":"2717881","label":"Degerfors Kommun","value":"2717881","lat":59.15579999999999927240423858165740966796875,"lon":14.4335199999999996833821569452993571758270263671875,"poi_name":"Degerfors Kommun","parent_id":"2686655","long":14.4335199999999996833821569452993571758270263671875},"2":{"id":"2708508","label":"Hallsbergs Kommun","value":"2708508","lat":59.03802999999999912006387603469192981719970703125,"lon":15.1846800000000001773514668457210063934326171875,"poi_name":"Hallsbergs Kommun","parent_id":"2686655","long":15.1846800000000001773514668457210063934326171875},"3":{"id":"2708664","label":"H\u00e4llefors Kommun","value":"2708664","lat":59.75735999999999847887011128477752208709716796875,"lon":14.61495000000000032969182939268648624420166015625,"poi_name":"H\u00e4llefors Kommun","parent_id":"2686655","long":14.61495000000000032969182939268648624420166015625},"4":{"id":"2701714","label":"Karlskoga Kommun","value":"2701714","lat":59.37382999999999810825102031230926513671875,"lon":14.5671999999999997044142219237983226776123046875,"poi_name":"Karlskoga Kommun","parent_id":"2686655","long":14.5671999999999997044142219237983226776123046875},"5":{"id":"2698753","label":"Kumla Kommun","value":"2698753","lat":59.127150000000000318323145620524883270263671875,"lon":15.146490000000000009094947017729282379150390625,"poi_name":"Kumla Kommun","parent_id":"2686655","long":15.146490000000000009094947017729282379150390625},"6":{"id":"2696803","label":"Lax\u00e5 Kommun","value":"2696803","lat":58.90912999999999755118551547639071941375732421875,"lon":14.53059999999999973852027324028313159942626953125,"poi_name":"Lax\u00e5 Kommun","parent_id":"2686655","long":14.53059999999999973852027324028313159942626953125},"7":{"id":"3337402","label":"Lekebergs Kommun","value":"3337402","lat":59.18603999999999842884790268726646900177001953125,"lon":14.797959999999999780584403197281062602996826171875,"poi_name":"Lekebergs Kommun","parent_id":"2686655","long":14.797959999999999780584403197281062602996826171875},"8":{"id":"2694892","label":"Lindesbergs Kommun","value":"2694892","lat":59.64119000000000170302882906980812549591064453125,"lon":15.34064000000000049794834922067821025848388671875,"poi_name":"Lindesbergs Kommun","parent_id":"2686655","long":15.34064000000000049794834922067821025848388671875},"9":{"id":"2694483","label":"Ljusnarsbergs Kommun","value":"2694483","lat":59.92622000000000070940586738288402557373046875,"lon":14.96499000000000023646862246096134185791015625,"poi_name":"Ljusnarsbergs Kommun","parent_id":"2686655","long":14.96499000000000023646862246096134185791015625},"10":{"id":"2689465","label":"Nora Kommun","value":"2689465","lat":59.53455999999999903593561612069606781005859375,"lon":14.907769999999999299689079634845256805419921875,"poi_name":"Nora Kommun","parent_id":"2686655","long":14.907769999999999299689079634845256805419921875},"11":{"id":"2686656","label":"\u00d6rebro Kommun","value":"2686656","lat":59.27168000000000347426976077258586883544921875,"lon":15.2836400000000001142552719102241098880767822265625,"poi_name":"\u00d6rebro Kommun","parent_id":"2686655","long":15.2836400000000001142552719102241098880767822265625}}