{"success":true,"remaining_lookups":7671,"0":{"id":"2726306","label":"Alvesta Kommun","value":"2726306","lat":56.84662999999999755118551547639071941375732421875,"lon":14.4748999999999998777866494492627680301666259765625,"poi_name":"Alvesta Kommun","parent_id":"2699050","long":14.4748999999999998777866494492627680301666259765625},"1":{"id":"2696471","label":"Lessebo Kommun","value":"2696471","lat":56.763869999999997162376530468463897705078125,"lon":15.3135899999999995912958183907903730869293212890625,"poi_name":"Lessebo Kommun","parent_id":"2699050","long":15.3135899999999995912958183907903730869293212890625},"2":{"id":"2694551","label":"Ljungby Kommun","value":"2694551","lat":56.80684000000000111185727291740477085113525390625,"lon":13.8271899999999998698285708087496459484100341796875,"poi_name":"Ljungby Kommun","parent_id":"2699050","long":13.8271899999999998698285708087496459484100341796875},"3":{"id":"2692595","label":"Markaryds Kommun","value":"2692595","lat":56.54424999999999812416717759333550930023193359375,"lon":13.623480000000000700310920365154743194580078125,"poi_name":"Markaryds Kommun","parent_id":"2699050","long":13.623480000000000700310920365154743194580078125},"4":{"id":"2669018","label":"Tingsryds Kommun","value":"2669018","lat":56.53332999999999941564965411089360713958740234375,"lon":14.96667000000000058435034588910639286041259765625,"poi_name":"Tingsryds Kommun","parent_id":"2699050","long":14.96667000000000058435034588910639286041259765625},"5":{"id":"2666201","label":"Uppvidinge Kommun","value":"2666201","lat":57.0344199999999972305886331014335155487060546875,"lon":15.447269999999999612327883369289338588714599609375,"poi_name":"Uppvidinge Kommun","parent_id":"2699050","long":15.447269999999999612327883369289338588714599609375},"6":{"id":"2663535","label":"V\u00e4xj\u00f6 Kommun","value":"2663535","lat":56.945300000000003137756721116602420806884765625,"lon":14.8998100000000004428102329256944358348846435546875,"poi_name":"V\u00e4xj\u00f6 Kommun","parent_id":"2699050","long":14.8998100000000004428102329256944358348846435546875},"7":{"id":"2726568","label":"\u00c4lmhults Kommun","value":"2726568","lat":56.58563000000000187128534889779984951019287109375,"lon":14.15502000000000037971403799019753932952880859375,"poi_name":"\u00c4lmhults Kommun","parent_id":"2699050","long":14.15502000000000037971403799019753932952880859375}}