{"success":true,"remaining_lookups":7673,"0":{"id":"2726004","label":"Aneby Kommun","value":"2726004","lat":57.86992000000000047066350816749036312103271484375,"lon":14.797959999999999780584403197281062602996826171875,"poi_name":"Aneby Kommun","parent_id":"2702976","long":14.797959999999999780584403197281062602996826171875},"1":{"id":"2716433","label":"Eksj\u00f6 Kommun","value":"2716433","lat":57.62006000000000227601049118675291538238525390625,"lon":15.21809999999999973852027324028313159942626953125,"poi_name":"Eksj\u00f6 Kommun","parent_id":"2702976","long":15.21809999999999973852027324028313159942626953125},"2":{"id":"2712044","label":"Gislaveds Kommun","value":"2712044","lat":57.303370000000001027729013003408908843994140625,"lon":13.4754799999999992365928846993483603000640869140625,"poi_name":"Gislaveds Kommun","parent_id":"2702976","long":13.4754799999999992365928846993483603000640869140625},"3":{"id":"2711789","label":"Gnosj\u00f6 Kommun","value":"2711789","lat":57.3622500000000030695446184836328029632568359375,"lon":13.80490999999999957026375341229140758514404296875,"poi_name":"Gnosj\u00f6 Kommun","parent_id":"2702976","long":13.80490999999999957026375341229140758514404296875},"4":{"id":"2709492","label":"Habo Kommun","value":"2709492","lat":57.90901000000000209411155083216726779937744140625,"lon":14.0899699999999992172661222866736352443695068359375,"poi_name":"Habo Kommun","parent_id":"2702976","long":14.0899699999999992172661222866736352443695068359375},"5":{"id":"2702977","label":"J\u00f6nk\u00f6pings Kommun","value":"2702977","lat":57.7410100000000028330759960226714611053466796875,"lon":14.2027599999999996072119756718166172504425048828125,"poi_name":"J\u00f6nk\u00f6pings Kommun","parent_id":"2702976","long":14.2027599999999996072119756718166172504425048828125},"6":{"id":"2690899","label":"Mullsj\u00f6 kommun","value":"2690899","lat":57.95427000000000106183506431989371776580810546875,"lon":13.8224099999999996413180269883014261722564697265625,"poi_name":"Mullsj\u00f6 kommun","parent_id":"2702976","long":13.8224099999999996413180269883014261722564697265625},"7":{"id":"2690167","label":"N\u00e4ssj\u00f6 Kommun","value":"2690167","lat":57.6089199999999976853359839878976345062255859375,"lon":14.640409999999999257624949677847325801849365234375,"poi_name":"N\u00e4ssj\u00f6 Kommun","parent_id":"2702976","long":14.640409999999999257624949677847325801849365234375},"8":{"id":"2679696","label":"S\u00e4vsj\u00f6 Kommun","value":"2679696","lat":57.32883000000000350837581208907067775726318359375,"lon":14.5942600000000002324895831407047808170318603515625,"poi_name":"S\u00e4vsj\u00f6 Kommun","parent_id":"2702976","long":14.5942600000000002324895831407047808170318603515625},"9":{"id":"2667625","label":"Tran\u00e5s Kommun","value":"2667625","lat":58.0290600000000011959855328314006328582763671875,"lon":14.834559999999999746478351880796253681182861328125,"poi_name":"Tran\u00e5s Kommun","parent_id":"2702976","long":14.834559999999999746478351880796253681182861328125},"10":{"id":"2665856","label":"Vaggeryds Kommun","value":"2665856","lat":57.47205999999999903593561612069606781005859375,"lon":14.1279699999999994730615071603097021579742431640625,"poi_name":"Vaggeryds Kommun","parent_id":"2702976","long":14.1279699999999994730615071603097021579742431640625},"11":{"id":"2663292","label":"Vetlanda kommun","value":"2663292","lat":57.36861999999999994770405464805662631988525390625,"lon":15.1846800000000001773514668457210063934326171875,"poi_name":"Vetlanda kommun","parent_id":"2702976","long":15.1846800000000001773514668457210063934326171875},"12":{"id":"2664852","label":"V\u00e4rnamo Kommun","value":"2664852","lat":57.17128000000000298541635856963694095611572265625,"lon":14.0531699999999997174882082617841660976409912109375,"poi_name":"V\u00e4rnamo Kommun","parent_id":"2702976","long":14.0531699999999997174882082617841660976409912109375}}