{"success":true,"remaining_lookups":7675,"0":{"id":"2715572","label":"Falkenbergs Kommun","value":"2715572","lat":57.043170000000003483364707790315151214599609375,"lon":12.7298899999999992616039889981038868427276611328125,"poi_name":"Falkenbergs Kommun","parent_id":"2708794","long":12.7298899999999992616039889981038868427276611328125},"1":{"id":"2708363","label":"Halmstads Kommun","value":"2708363","lat":56.7391999999999967485564411617815494537353515625,"lon":12.9733800000000005780975698144175112247467041015625,"poi_name":"Halmstads Kommun","parent_id":"2708794","long":12.9733800000000005780975698144175112247467041015625},"2":{"id":"2704007","label":"Hylte Kommun","value":"2704007","lat":56.973939999999998917701304890215396881103515625,"lon":13.265409999999999257624949677847325801849365234375,"poi_name":"Hylte Kommun","parent_id":"2708794","long":13.265409999999999257624949677847325801849365234375},"3":{"id":"2698726","label":"Kungsbacka Kommun","value":"2698726","lat":57.45058000000000220097717829048633575439453125,"lon":12.150610000000000354702933691442012786865234375,"poi_name":"Kungsbacka Kommun","parent_id":"2708794","long":12.150610000000000354702933691442012786865234375},"4":{"id":"2697859","label":"Laholms Kommun","value":"2697859","lat":56.49174000000000006593836587853729724884033203125,"lon":13.1914099999999994139443515450693666934967041015625,"poi_name":"Laholms Kommun","parent_id":"2708794","long":13.1914099999999994139443515450693666934967041015625},"5":{"id":"2664994","label":"Varbergs Kommun","value":"2664994","lat":57.17208000000000112095221993513405323028564453125,"lon":12.417970000000000396767063648439943790435791015625,"poi_name":"Varbergs Kommun","parent_id":"2708794","long":12.417970000000000396767063648439943790435791015625}}