{"success":true,"remaining_lookups":7669,"0":{"id":"2721533","label":"Bjuvs Kommun","value":"2721533","lat":56.054090000000002191882231272757053375244140625,"lon":12.9654199999999999448618837050162255764007568359375,"poi_name":"Bjuvs Kommun","parent_id":"3337385","long":12.9654199999999999448618837050162255764007568359375},"1":{"id":"2719105","label":"Brom\u00f6lla Kommun","value":"2719105","lat":56.11934000000000111185727291740477085113525390625,"lon":14.5114999999999998436805981327779591083526611328125,"poi_name":"Brom\u00f6lla Kommun","parent_id":"3337385","long":14.5114999999999998436805981327779591083526611328125},"2":{"id":"2718706","label":"Burl\u00f6vs Kommun","value":"2718706","lat":55.63873000000000246245690505020320415496826171875,"lon":13.0947300000000002029310053330846130847930908203125,"poi_name":"Burl\u00f6vs Kommun","parent_id":"3337385","long":13.0947300000000002029310053330846130847930908203125},"3":{"id":"2723286","label":"B\u00e5stads Kommun","value":"2723286","lat":56.4010200000000025966073735617101192474365234375,"lon":12.7991200000000002745537130977027118206024169921875,"poi_name":"B\u00e5stads Kommun","parent_id":"3337385","long":12.7991200000000002745537130977027118206024169921875},"4":{"id":"2715945","label":"Esl\u00f6vs Kommun","value":"2715945","lat":55.83606999999999942474460112862288951873779296875,"lon":13.3752200000000005530864655156619846820831298828125,"poi_name":"Esl\u00f6vs Kommun","parent_id":"3337385","long":13.3752200000000005530864655156619846820831298828125},"5":{"id":"2706766","label":"Helsingborg","value":"2706766","lat":56.05648000000000052978066378273069858551025390625,"lon":12.78717999999999932470018393360078334808349609375,"poi_name":"Helsingborg","parent_id":"3337385","long":12.78717999999999932470018393360078334808349609375},"6":{"id":"2707396","label":"H\u00e4ssleholms Kommun","value":"2707396","lat":56.20687000000000210775397135876119136810302734375,"lon":13.72373999999999938381733954884111881256103515625,"poi_name":"H\u00e4ssleholms Kommun","parent_id":"3337385","long":13.72373999999999938381733954884111881256103515625},"7":{"id":"2706001","label":"H\u00f6gan\u00e4s Kommun","value":"2706001","lat":56.22516999999999853798726690001785755157470703125,"lon":12.5970099999999991524646247853524982929229736328125,"poi_name":"H\u00f6gan\u00e4s Kommun","parent_id":"3337385","long":12.5970099999999991524646247853524982929229736328125},"8":{"id":"2705046","label":"H\u00f6rby Kommun","value":"2705046","lat":55.837659999999999627107172273099422454833984375,"lon":13.7428399999999992786570146563462913036346435546875,"poi_name":"H\u00f6rby Kommun","parent_id":"3337385","long":13.7428399999999992786570146563462913036346435546875},"9":{"id":"2705054","label":"H\u00f6\u00f6rs Kommun","value":"2705054","lat":55.9458800000000024965629563666880130767822265625,"lon":13.5168599999999994309973772033117711544036865234375,"poi_name":"H\u00f6\u00f6rs Kommun","parent_id":"3337385","long":13.5168599999999994309973772033117711544036865234375},"10":{"id":"2700483","label":"Klippans Kommun","value":"2700483","lat":56.11137999999999692590790800750255584716796875,"lon":13.23836000000000012732925824820995330810546875,"poi_name":"Klippans Kommun","parent_id":"3337385","long":13.23836000000000012732925824820995330810546875},"11":{"id":"2699308","label":"Kristianstads kommun","value":"2699308","lat":56,"lon":14.1500000000000003552713678800500929355621337890625,"poi_name":"Kristianstads kommun","parent_id":"3337385","long":14.1500000000000003552713678800500929355621337890625},"12":{"id":"2701094","label":"K\u00e4vlinge Kommun","value":"2701094","lat":55.79469000000000278305378742516040802001953125,"lon":13.0736399999999992616039889981038868427276611328125,"poi_name":"K\u00e4vlinge Kommun","parent_id":"3337385","long":13.0736399999999992616039889981038868427276611328125},"13":{"id":"2697719","label":"Landskrona","value":"2697719","lat":55.886200000000002319211489520967006683349609375,"lon":12.8588000000000004519051799434237182140350341796875,"poi_name":"Landskrona","parent_id":"3337385","long":12.8588000000000004519051799434237182140350341796875},"14":{"id":"2694260","label":"Lomma Kommun","value":"2694260","lat":55.7035800000000023146640160121023654937744140625,"lon":13.0732400000000001938360583153553307056427001953125,"poi_name":"Lomma Kommun","parent_id":"3337385","long":13.0732400000000001938360583153553307056427001953125},"15":{"id":"2693555","label":"Lunds Kommun","value":"2693555","lat":55.66897000000000161890056915581226348876953125,"lon":13.3640799999999995151256371173076331615447998046875,"poi_name":"Lunds Kommun","parent_id":"3337385","long":13.3640799999999995151256371173076331615447998046875},"16":{"id":"2692965","label":"Malm\u00f6","value":"2692965","lat":55.56512000000000028876456781290471553802490234375,"lon":13.0187399999999993127630659728311002254486083984375,"poi_name":"Malm\u00f6","parent_id":"3337385","long":13.0187399999999993127630659728311002254486083984375},"17":{"id":"2686197","label":"Osby kommun","value":"2686197","lat":56.44080999999999903593561612069606781005859375,"lon":14.1184200000000004138200893066823482513427734375,"poi_name":"Osby kommun","parent_id":"3337385","long":14.1184200000000004138200893066823482513427734375},"18":{"id":"2684202","label":"Perstorps Kommun","value":"2684202","lat":56.188569999999998572093318216502666473388671875,"lon":13.3768100000000007554490366601385176181793212890625,"poi_name":"Perstorps Kommun","parent_id":"3337385","long":13.3768100000000007554490366601385176181793212890625},"19":{"id":"2679106","label":"Simrishamns kommun","value":"2679106","lat":55.58621000000000123009158414788544178009033203125,"lon":14.2377800000000007685230229981243610382080078125,"poi_name":"Simrishamns kommun","parent_id":"3337385","long":14.2377800000000007685230229981243610382080078125},"20":{"id":"2678902","label":"Sj\u00f6bo Kommun","value":"2678902","lat":55.6514600000000001500666257925331592559814453125,"lon":13.7555700000000005189804141991771757602691650390625,"poi_name":"Sj\u00f6bo Kommun","parent_id":"3337385","long":13.7555700000000005189804141991771757602691650390625},"21":{"id":"2677024","label":"Skurups Kommun","value":"2677024","lat":55.473219999999997753548086620867252349853515625,"lon":13.545500000000000540012479177676141262054443359375,"poi_name":"Skurups Kommun","parent_id":"3337385","long":13.545500000000000540012479177676141262054443359375},"22":{"id":"2674647","label":"Staffanstorps Kommun","value":"2674647","lat":55.64999999999999857891452847979962825775146484375,"lon":13.199999999999999289457264239899814128875732421875,"poi_name":"Staffanstorps Kommun","parent_id":"3337385","long":13.199999999999999289457264239899814128875732421875},"23":{"id":"2670540","label":"Sval\u00f6vs Kommun","value":"2670540","lat":55.96497000000000099362296168692409992218017578125,"lon":13.1317299999999992365928846993483603000640869140625,"poi_name":"Sval\u00f6vs Kommun","parent_id":"3337385","long":13.1317299999999992365928846993483603000640869140625},"24":{"id":"2670127","label":"Svedala Kommun","value":"2670127","lat":55.543239999999997280610841698944568634033203125,"lon":13.268589999999999662350091966800391674041748046875,"poi_name":"Svedala Kommun","parent_id":"3337385","long":13.268589999999999662350091966800391674041748046875},"25":{"id":"2668364","label":"Tomelilla Kommun","value":"2668364","lat":55.619630000000000791260390542447566986083984375,"lon":14.0197500000000001563194018672220408916473388671875,"poi_name":"Tomelilla Kommun","parent_id":"3337385","long":14.0197500000000001563194018672220408916473388671875},"26":{"id":"2667401","label":"Trelleborgs Kommun","value":"2667401","lat":55.4127399999999994406607584096491336822509765625,"lon":13.268589999999999662350091966800391674041748046875,"poi_name":"Trelleborgs Kommun","parent_id":"3337385","long":13.268589999999999662350091966800391674041748046875},"27":{"id":"2663398","label":"Vellinge Kommun","value":"2663398","lat":55.4477600000000023783286451362073421478271484375,"lon":13.009190000000000253521648119203746318817138671875,"poi_name":"Vellinge Kommun","parent_id":"3337385","long":13.009190000000000253521648119203746318817138671875},"28":{"id":"2662148","label":"Ystads Kommun","value":"2662148","lat":55.46367000000000047066350816749036312103271484375,"lon":13.9115300000000008395772965741343796253204345703125,"poi_name":"Ystads Kommun","parent_id":"3337385","long":13.9115300000000008395772965741343796253204345703125},"29":{"id":"2725898","label":"\u00c4ngelholms Kommun","value":"2725898","lat":56.2681400000000024874680093489587306976318359375,"lon":12.96621999999999985675458447076380252838134765625,"poi_name":"\u00c4ngelholms Kommun","parent_id":"3337385","long":12.96621999999999985675458447076380252838134765625},"30":{"id":"2724424","label":"\u00c5storps Kommun","value":"2724424","lat":56.14003000000000298541635856963694095611572265625,"lon":12.972590000000000287627699435688555240631103515625,"poi_name":"\u00c5storps Kommun","parent_id":"3337385","long":12.972590000000000287627699435688555240631103515625},"31":{"id":"2686595","label":"\u00d6rkelljunga Kommun","value":"2686595","lat":56.3246400000000022600943339057266712188720703125,"lon":13.3394100000000008776623872108757495880126953125,"poi_name":"\u00d6rkelljunga Kommun","parent_id":"3337385","long":13.3394100000000008776623872108757495880126953125},"32":{"id":"2685543","label":"\u00d6stra G\u00f6inge Kommun","value":"2685543","lat":56.272120000000001027729013003408908843994140625,"lon":14.159800000000000608224581810645759105682373046875,"poi_name":"\u00d6stra G\u00f6inge Kommun","parent_id":"3337385","long":14.159800000000000608224581810645759105682373046875}}