{"success":true,"remaining_lookups":9306,"0":{"id":"7522444","label":"Antsla vald","value":"7522444","lat":57.77738000000000084810380940325558185577392578125,"lon":26.59519999999999839701558812521398067474365234375,"poi_name":"Antsla vald","parent_id":"587448","long":26.59519999999999839701558812521398067474365234375},"1":{"id":"7522407","label":"R\u00f5uge vald","value":"7522407","lat":57.7278000000000020008883439004421234130859375,"lon":26.8803300000000007230482879094779491424560546875,"poi_name":"R\u00f5uge vald","parent_id":"587448","long":26.8803300000000007230482879094779491424560546875},"2":{"id":"11776871","label":"Setomaa vald","value":"11776871","lat":57.88419999999999987494447850622236728668212890625,"lon":27.619630000000000791260390542447566986083984375,"poi_name":"Setomaa vald","parent_id":"587448","long":27.619630000000000791260390542447566986083984375},"3":{"id":"7522484","label":"V\u00f5ru linn","value":"7522484","lat":57.83552999999999855162968742661178112030029296875,"lon":27.00119000000000113459464046172797679901123046875,"poi_name":"V\u00f5ru linn","parent_id":"587448","long":27.00119000000000113459464046172797679901123046875},"4":{"id":"7522483","label":"V\u00f5ru vald","value":"7522483","lat":57.8661799999999999499777914024889469146728515625,"lon":26.974180000000000489990270580165088176727294921875,"poi_name":"V\u00f5ru vald","parent_id":"587448","long":26.974180000000000489990270580165088176727294921875}}