{"success":true,"remaining_lookups":9309,"0":{"id":"11776873","label":"Elva vald","value":"11776873","lat":58.24564000000000163481672643683850765228271484375,"lon":26.272580000000001376747604808770120143890380859375,"poi_name":"Elva vald","parent_id":"588334","long":26.272580000000001376747604808770120143890380859375},"1":{"id":"7522294","label":"Kambja vald","value":"7522294","lat":58.202550000000002228262019343674182891845703125,"lon":26.6899599999999992405719240196049213409423828125,"poi_name":"Kambja vald","parent_id":"588334","long":26.6899599999999992405719240196049213409423828125},"2":{"id":"11776877","label":"Kastre vald","value":"11776877","lat":58.31259000000000014551915228366851806640625,"lon":27.077130000000000364934749086387455463409423828125,"poi_name":"Kastre vald","parent_id":"588334","long":27.077130000000000364934749086387455463409423828125},"3":{"id":"7522334","label":"Luunja vald","value":"7522334","lat":58.3917799999999971305442159064114093780517578125,"lon":26.95573999999999870169631321914494037628173828125,"poi_name":"Luunja vald","parent_id":"588334","long":26.95573999999999870169631321914494037628173828125},"4":{"id":"7522361","label":"N\u00f5o vald","value":"7522361","lat":58.2419900000000012596501619555056095123291015625,"lon":26.524989999999998957491698092781007289886474609375,"poi_name":"N\u00f5o vald","parent_id":"588334","long":26.524989999999998957491698092781007289886474609375},"5":{"id":"7522376","label":"Peipsi\u00e4\u00e4re vald","value":"7522376","lat":58.515590000000003101376933045685291290283203125,"lon":27.184439999999998605062501155771315097808837890625,"poi_name":"Peipsi\u00e4\u00e4re vald","parent_id":"588334","long":27.184439999999998605062501155771315097808837890625},"6":{"id":"7522434","label":"Tartu linn","value":"7522434","lat":58.37498000000000075715433922596275806427001953125,"lon":26.73255999999999943383954814635217189788818359375,"poi_name":"Tartu linn","parent_id":"588334","long":26.73255999999999943383954814635217189788818359375},"7":{"id":"7522391","label":"Tartu vald","value":"7522391","lat":58.47800000000000153477230924181640148162841796875,"lon":26.749559999999998893827068968676030635833740234375,"poi_name":"Tartu vald","parent_id":"588334","long":26.749559999999998893827068968676030635833740234375}}