{"success":true,"remaining_lookups":9313,"0":{"id":"7522278","label":"H\u00e4\u00e4demeeste vald","value":"7522278","lat":58.05004000000000274894773610867559909820556640625,"lon":24.5383199999999987994669936597347259521484375,"poi_name":"H\u00e4\u00e4demeeste vald","parent_id":"589576","long":24.5383199999999987994669936597347259521484375},"1":{"id":"7522303","label":"Kihnu vald","value":"7522303","lat":58.13000000000000255795384873636066913604736328125,"lon":23.9900200000000012323653209023177623748779296875,"poi_name":"Kihnu vald","parent_id":"589576","long":23.9900200000000012323653209023177623748779296875},"2":{"id":"11776880","label":"L\u00e4\u00e4neranna vald","value":"11776880","lat":58.58908999999999878127709962427616119384765625,"lon":23.8962700000000012323653209023177623748779296875,"poi_name":"L\u00e4\u00e4neranna vald","parent_id":"589576","long":23.8962700000000012323653209023177623748779296875},"3":{"id":"862993","label":"P\u00e4rnu linn","value":"862993","lat":58.37901000000000095724317361600697040557861328125,"lon":24.527840000000001197122401208616793155670166015625,"poi_name":"P\u00e4rnu linn","parent_id":"589576","long":24.527840000000001197122401208616793155670166015625},"4":{"id":"11776883","label":"P\u00f5hja-P\u00e4rnumaa vald","value":"11776883","lat":58.63459999999999894271240918897092342376708984375,"lon":24.7918599999999997862687450833618640899658203125,"poi_name":"P\u00f5hja-P\u00e4rnumaa vald","parent_id":"589576","long":24.7918599999999997862687450833618640899658203125},"5":{"id":"7522410","label":"Saarde vald","value":"7522410","lat":58.1380199999999973670128383673727512359619140625,"lon":24.955639999999998934754330548457801342010498046875,"poi_name":"Saarde vald","parent_id":"589576","long":24.955639999999998934754330548457801342010498046875},"6":{"id":"7522394","label":"Tori vald","value":"7522394","lat":58.48662999999999811961970408447086811065673828125,"lon":24.889610000000001122089088312350213527679443359375,"poi_name":"Tori vald","parent_id":"589576","long":24.889610000000001122089088312350213527679443359375}}