{"success":true,"remaining_lookups":9476,"0":{"id":"10347038","label":"Agr\u00eddia","value":"10347038","lat":34.9312400000000025102053768932819366455078125,"lon":32.99445999999999656893123756162822246551513671875,"poi_name":"Agr\u00eddia","parent_id":"146383","long":32.99445999999999656893123756162822246551513671875},"1":{"id":"10347037","label":"Agr\u00f3s","value":"10347037","lat":34.9186600000000026966517907567322254180908203125,"lon":33.0185800000000000409272615797817707061767578125,"poi_name":"Agr\u00f3s","parent_id":"146383","long":33.0185800000000000409272615797817707061767578125},"2":{"id":"10346973","label":"Akapno\u00fa","value":"10346973","lat":34.8431700000000006411937647499144077301025390625,"lon":33.1989200000000010959411156363785266876220703125,"poi_name":"Akapno\u00fa","parent_id":"146383","long":33.1989200000000010959411156363785266876220703125},"3":{"id":"10346982","label":"Akrot\u00edri","value":"10346982","lat":34.60043999999999897454472375102341175079345703125,"lon":32.96562999999999732381184003315865993499755859375,"poi_name":"Akrot\u00edri","parent_id":"146383","long":32.96562999999999732381184003315865993499755859375},"4":{"id":"10346962","label":"Akro\u00fanta","value":"10346962","lat":34.76977000000000117552190204150974750518798828125,"lon":33.08411000000000257159626926295459270477294921875,"poi_name":"Akro\u00fanta","parent_id":"146383","long":33.08411000000000257159626926295459270477294921875},"5":{"id":"10346993","label":"Al\u00e9ktora","value":"10346993","lat":34.70318999999999931560523691587150096893310546875,"lon":32.6689099999999967849362292326986789703369140625,"poi_name":"Al\u00e9ktora","parent_id":"146383","long":32.6689099999999967849362292326986789703369140625},"6":{"id":"10347032","label":"Am\u00edantos","value":"10347032","lat":34.9280899999999974170350469648838043212890625,"lon":32.9242100000000021964297047816216945648193359375,"poi_name":"Am\u00edantos","parent_id":"146383","long":32.9242100000000021964297047816216945648193359375},"7":{"id":"10346994","label":"An\u00f3gyra","value":"10346994","lat":34.7404099999999971259967423975467681884765625,"lon":32.73391000000000161662683240137994289398193359375,"poi_name":"An\u00f3gyra","parent_id":"146383","long":32.73391000000000161662683240137994289398193359375},"8":{"id":"10346955","label":"Apesi\u00e1","value":"10346955","lat":34.78287999999999868805389269255101680755615234375,"lon":32.97612000000000165300662047229707241058349609375,"poi_name":"Apesi\u00e1","parent_id":"146383","long":32.97612000000000165300662047229707241058349609375},"9":{"id":"10346954","label":"Apsio\u00fa","value":"10346954","lat":34.80069999999999907913661445491015911102294921875,"lon":33.03011000000000052523319027386605739593505859375,"poi_name":"Apsio\u00fa","parent_id":"146383","long":33.03011000000000052523319027386605739593505859375},"10":{"id":"10346976","label":"Arakap\u00e1s","value":"10346976","lat":34.8520800000000008367351256310939788818359375,"lon":33.10560000000000258069121628068387508392333984375,"poi_name":"Arakap\u00e1s","parent_id":"146383","long":33.10560000000000258069121628068387508392333984375},"11":{"id":"10346960","label":"Armenoch\u00f3ri","value":"10346960","lat":34.75195000000000078443918027915060520172119140625,"lon":33.12447999999999836973074707202613353729248046875,"poi_name":"Armenoch\u00f3ri","parent_id":"146383","long":33.12447999999999836973074707202613353729248046875},"12":{"id":"10346967","label":"Asg\u00e1ta","value":"10346967","lat":34.77711000000000041154635255225002765655517578125,"lon":33.25030000000000285353962681256234645843505859375,"poi_name":"Asg\u00e1ta","parent_id":"146383","long":33.25030000000000285353962681256234645843505859375},"13":{"id":"10346990","label":"Avd\u00edmou","value":"10346990","lat":34.68484000000000122554411063902080059051513671875,"lon":32.76064999999999827196006663143634796142578125,"poi_name":"Avd\u00edmou","parent_id":"146383","long":32.76064999999999827196006663143634796142578125},"14":{"id":"10347039","label":"Chandri\u00e1","value":"10347039","lat":34.94697000000000031150193535722792148590087890625,"lon":32.991320000000001755324774421751499176025390625,"poi_name":"Chandri\u00e1","parent_id":"146383","long":32.991320000000001755324774421751499176025390625},"15":{"id":"10346975","label":"Dier\u00f3na","value":"10346975","lat":34.81904999999999716919774073176085948944091796875,"lon":33.0977400000000017143975128419697284698486328125,"poi_name":"Dier\u00f3na","parent_id":"146383","long":33.0977400000000017143975128419697284698486328125},"16":{"id":"10347011","label":"Dor\u00e1","value":"10347011","lat":34.78130999999999772853698232211172580718994140625,"lon":32.73129000000000132786226458847522735595703125,"poi_name":"Dor\u00e1","parent_id":"146383","long":32.73129000000000132786226458847522735595703125},"17":{"id":"10347003","label":"Dor\u00f3s","value":"10347003","lat":34.79755999999999716010279371403157711029052734375,"lon":32.9242100000000021964297047816216945648193359375,"poi_name":"Dor\u00f3s","parent_id":"146383","long":32.9242100000000021964297047816216945648193359375},"18":{"id":"10347035","label":"D\u00fdmes","value":"10347035","lat":34.92757000000000289219315163791179656982421875,"lon":32.96878000000000241698216996155679225921630859375,"poi_name":"D\u00fdmes","parent_id":"146383","long":32.96878000000000241698216996155679225921630859375},"19":{"id":"10346986","label":"Episkop\u00ed","value":"10346986","lat":34.67383000000000237150743487291038036346435546875,"lon":32.882800000000003137756721116602420806884765625,"poi_name":"Episkop\u00ed","parent_id":"146383","long":32.882800000000003137756721116602420806884765625},"20":{"id":"10346974","label":"Eptag\u00f3neia","value":"10346974","lat":34.84474000000000160071067512035369873046875,"lon":33.14912000000000347199602401815354824066162109375,"poi_name":"Eptag\u00f3neia","parent_id":"146383","long":33.14912000000000347199602401815354824066162109375},"21":{"id":"10346985","label":"Er\u00edmi","value":"10346985","lat":34.69008999999999787178239785134792327880859375,"lon":32.92002000000000094814822659827768802642822265625,"poi_name":"Er\u00edmi","parent_id":"146383","long":32.92002000000000094814822659827768802642822265625},"22":{"id":"10346951","label":"Faso\u00fala","value":"10346951","lat":34.75719000000000136196831590496003627777099609375,"lon":33.0295899999999988949639373458921909332275390625,"poi_name":"Faso\u00fala","parent_id":"146383","long":33.0295899999999988949639373458921909332275390625},"23":{"id":"10346961","label":"Foinik\u00e1ria","value":"10346961","lat":34.7603399999999993497112882323563098907470703125,"lon":33.10613000000000027966962079517543315887451171875,"poi_name":"Foinik\u00e1ria","parent_id":"146383","long":33.10613000000000027966962079517543315887451171875},"24":{"id":"10347031","label":"Foin\u00ed","value":"10347031","lat":34.90397999999999711917553213424980640411376953125,"lon":32.82041000000000252612153417430818080902099609375,"poi_name":"Foin\u00ed","parent_id":"146383","long":32.82041000000000252612153417430818080902099609375},"25":{"id":"10346944","label":"Germas\u00f3geia","value":"10346944","lat":34.722070000000002210072125308215618133544921875,"lon":33.08254000000000161207935889251530170440673828125,"poi_name":"Germas\u00f3geia","parent_id":"146383","long":33.08254000000000161207935889251530170440673828125},"26":{"id":"10347012","label":"Gerov\u00e1sa","value":"10347012","lat":34.81537999999999755118551547639071941375732421875,"lon":32.735489999999998644852894358336925506591796875,"poi_name":"Gerov\u00e1sa","parent_id":"146383","long":32.735489999999998644852894358336925506591796875},"27":{"id":"10346953","label":"Ger\u00e1sa","value":"10346953","lat":34.81013999999999697365637985058128833770751953125,"lon":32.99551000000000300360625260509550571441650390625,"poi_name":"Ger\u00e1sa","parent_id":"146383","long":32.99551000000000300360625260509550571441650390625},"28":{"id":"10347026","label":"Kamin\u00e1ria","value":"10347026","lat":34.9228499999999968395059113390743732452392578125,"lon":32.7805699999999973215381032787263393402099609375,"poi_name":"Kamin\u00e1ria","parent_id":"146383","long":32.7805699999999973215381032787263393402099609375},"29":{"id":"10346987","label":"Kanto\u00fa","value":"10346987","lat":34.700569999999999026840669102966785430908203125,"lon":32.9032499999999998863131622783839702606201171875,"poi_name":"Kanto\u00fa","parent_id":"146383","long":32.9032499999999998863131622783839702606201171875},"30":{"id":"10346958","label":"Kapilei\u00f3","value":"10346958","lat":34.83111000000000245790943154133856296539306640625,"lon":32.96562999999999732381184003315865993499755859375,"poi_name":"Kapilei\u00f3","parent_id":"146383","long":32.96562999999999732381184003315865993499755859375},"31":{"id":"10346972","label":"Kell\u00e1ki","value":"10346972","lat":34.81329000000000206682670977897942066192626953125,"lon":33.16064999999999685087459511123597621917724609375,"poi_name":"Kell\u00e1ki","parent_id":"146383","long":33.16064999999999685087459511123597621917724609375},"32":{"id":"10347014","label":"Kisso\u00fasa","value":"10347014","lat":34.80803999999999831516106496565043926239013671875,"lon":32.796819999999996753103914670646190643310546875,"poi_name":"Kisso\u00fasa","parent_id":"146383","long":32.796819999999996753103914670646190643310546875},"33":{"id":"10346970","label":"Klon\u00e1ri","value":"10346970","lat":34.8290099999999966939867590554058551788330078125,"lon":33.17846999999999724195731687359511852264404296875,"poi_name":"Klon\u00e1ri","parent_id":"146383","long":33.17846999999999724195731687359511852264404296875},"34":{"id":"10347022","label":"Koil\u00e1ni","value":"10347022","lat":34.84212000000000131194610730744898319244384765625,"lon":32.85448999999999841747921891510486602783203125,"poi_name":"Koil\u00e1ni","parent_id":"146383","long":32.85448999999999841747921891510486602783203125},"35":{"id":"10346984","label":"Kol\u00f3ssi","value":"10346984","lat":34.66807000000000016370904631912708282470703125,"lon":32.93312999999999846068021724931895732879638671875,"poi_name":"Kol\u00f3ssi","parent_id":"146383","long":32.93312999999999846068021724931895732879638671875},"36":{"id":"10346956","label":"Korf\u00ed","value":"10346956","lat":34.79231999999999658257365808822214603424072265625,"lon":32.9593399999999974170350469648838043212890625,"poi_name":"Korf\u00ed","parent_id":"146383","long":32.9593399999999974170350469648838043212890625},"37":{"id":"10347009","label":"Kouk\u00e1","value":"10347009","lat":34.855220000000002755768946371972560882568359375,"lon":32.89276000000000266254573944024741649627685546875,"poi_name":"Kouk\u00e1","parent_id":"146383","long":32.89276000000000266254573944024741649627685546875},"38":{"id":"10347040","label":"Kypero\u00fanta","value":"10347040","lat":34.945390000000003283275873400270938873291015625,"lon":32.9640600000000034697222872637212276458740234375,"poi_name":"Kypero\u00fanta","parent_id":"146383","long":32.9640600000000034697222872637212276458740234375},"39":{"id":"10346998","label":"K\u00e1to Kiv\u00eddes","value":"10346998","lat":34.765579999999999927240423858165740966796875,"lon":32.8702200000000033242031349800527095794677734375,"poi_name":"K\u00e1to Kiv\u00eddes","parent_id":"146383","long":32.8702200000000033242031349800527095794677734375},"40":{"id":"10347033","label":"K\u00e1to M\u00fdlos","value":"10347033","lat":34.8976899999999972123987390659749507904052734375,"lon":33.002330000000000609361450187861919403076171875,"poi_name":"K\u00e1to M\u00fdlos","parent_id":"146383","long":33.002330000000000609361450187861919403076171875},"41":{"id":"10347029","label":"K\u00e1to Pl\u00e1tres","value":"10347029","lat":34.88038999999999845158527023158967494964599609375,"lon":32.82827999999999946112438919954001903533935546875,"poi_name":"K\u00e1to Pl\u00e1tres","parent_id":"146383","long":32.82827999999999946112438919954001903533935546875},"42":{"id":"10346947","label":"K\u00e1to Polem\u00eddia","value":"10346947","lat":34.70318999999999931560523691587150096893310546875,"lon":32.97769000000000261252353084273636341094970703125,"poi_name":"K\u00e1to Polem\u00eddia","parent_id":"146383","long":32.97769000000000261252353084273636341094970703125},"43":{"id":"10346941","label":"Lemes\u00f3s","value":"10346941","lat":34.69218000000000046156856114976108074188232421875,"lon":33.02853999999999956571627990342676639556884765625,"poi_name":"Lemes\u00f3s","parent_id":"146383","long":33.02853999999999956571627990342676639556884765625},"44":{"id":"10347028","label":"Lem\u00edthou","value":"10347028","lat":34.95011000000000223053575609810650348663330078125,"lon":32.8067800000000033833202905952930450439453125,"poi_name":"Lem\u00edthou","parent_id":"146383","long":32.8067800000000033833202905952930450439453125},"45":{"id":"10346957","label":"Limn\u00e1tis","value":"10346957","lat":34.79755999999999716010279371403157711029052734375,"lon":32.945189999999996643964550457894802093505859375,"poi_name":"Limn\u00e1tis","parent_id":"146383","long":32.945189999999996643964550457894802093505859375},"46":{"id":"10346980","label":"Louvar\u00e1s","value":"10346980","lat":34.83111000000000245790943154133856296539306640625,"lon":33.04164999999999707824827055446803569793701171875,"poi_name":"Louvar\u00e1s","parent_id":"146383","long":33.04164999999999707824827055446803569793701171875},"47":{"id":"10347004","label":"L\u00e1neia","value":"10347004","lat":34.830060000000003128661774098873138427734375,"lon":32.91844999999999998863131622783839702606201171875,"poi_name":"L\u00e1neia","parent_id":"146383","long":32.91844999999999998863131622783839702606201171875},"48":{"id":"10347001","label":"L\u00f3fou","value":"10347001","lat":34.8033199999999993679011822678148746490478515625,"lon":32.879130000000003519744495861232280731201171875,"poi_name":"L\u00f3fou","parent_id":"146383","long":32.879130000000003519744495861232280731201171875},"49":{"id":"10347015","label":"Mali\u00e1","value":"10347015","lat":34.80646999999999735564415459521114826202392578125,"lon":32.76536999999999721921994932927191257476806640625,"poi_name":"Mali\u00e1","parent_id":"146383","long":32.76536999999999721921994932927191257476806640625},"50":{"id":"10347019","label":"Mandri\u00e1","value":"10347019","lat":34.86780999999999863803168409503996372222900390625,"lon":32.836669999999998026396497152745723724365234375,"poi_name":"Mandri\u00e1","parent_id":"146383","long":32.836669999999998026396497152745723724365234375},"51":{"id":"10346952","label":"Mathikol\u00f3ni","value":"10346952","lat":34.78235000000000098907548817805945873260498046875,"lon":33.0605199999999967985786497592926025390625,"poi_name":"Mathikol\u00f3ni","parent_id":"146383","long":33.0605199999999967985786497592926025390625},"52":{"id":"10346966","label":"Monagro\u00falli","value":"10346966","lat":34.74723000000000183717929758131504058837890625,"lon":33.215699999999998226485331542789936065673828125,"poi_name":"Monagro\u00falli","parent_id":"146383","long":33.215699999999998226485331542789936065673828125},"53":{"id":"10347010","label":"Moni\u00e1tis","value":"10347010","lat":34.8830099999999987403498380444943904876708984375,"lon":32.9063900000000018053469830192625522613525390625,"poi_name":"Moni\u00e1tis","parent_id":"146383","long":32.9063900000000018053469830192625522613525390625},"54":{"id":"10347006","label":"Mon\u00e1gri","value":"10347006","lat":34.79335999999999984311216394416987895965576171875,"lon":32.91320999999999941110218060202896595001220703125,"poi_name":"Mon\u00e1gri","parent_id":"146383","long":32.91320999999999941110218060202896595001220703125},"55":{"id":"10346959","label":"Mouttagi\u00e1ka","value":"10346959","lat":34.722070000000002210072125308215618133544921875,"lon":33.1050800000000009504219633527100086212158203125,"poi_name":"Mouttagi\u00e1ka","parent_id":"146383","long":33.1050800000000009504219633527100086212158203125},"56":{"id":"10346942","label":"M\u00e9sa Geitoni\u00e1","value":"10346942","lat":34.700569999999999026840669102966785430908203125,"lon":33.0437399999999996680344338528811931610107421875,"poi_name":"M\u00e9sa Geitoni\u00e1","parent_id":"146383","long":33.0437399999999996680344338528811931610107421875},"57":{"id":"10347024","label":"Palai\u00f3mylos","value":"10347024","lat":34.92913999999999674628270440734922885894775390625,"lon":32.825659999999999172359821386635303497314453125,"poi_name":"Palai\u00f3mylos","parent_id":"146383","long":32.825659999999999172359821386635303497314453125},"58":{"id":"10346948","label":"Pal\u00f3deia","value":"10346948","lat":34.74407999999999674400896765291690826416015625,"lon":32.9892200000000030968294595368206501007080078125,"poi_name":"Pal\u00f3deia","parent_id":"146383","long":32.9892200000000030968294595368206501007080078125},"59":{"id":"10346989","label":"Param\u00e1li","value":"10346989","lat":34.68693999999999988403942552395164966583251953125,"lon":32.7978700000000031877789297141134738922119140625,"poi_name":"Param\u00e1li","parent_id":"146383","long":32.7978700000000031877789297141134738922119140625},"60":{"id":"10346949","label":"Param\u00fdtha","value":"10346949","lat":34.7561400000000020327206584624946117401123046875,"lon":32.97245000000000203499439521692693233489990234375,"poi_name":"Param\u00fdtha","parent_id":"146383","long":32.97245000000000203499439521692693233489990234375},"61":{"id":"10346964","label":"Parekklisi\u00e1","value":"10346964","lat":34.757710000000002992237568832933902740478515625,"lon":33.15435999999999694409780204296112060546875,"poi_name":"Parekklisi\u00e1","parent_id":"146383","long":33.15435999999999694409780204296112060546875},"62":{"id":"10347036","label":"Pel\u00e9ndri","value":"10347036","lat":34.8940199999999975943865138106048107147216796875,"lon":32.951999999999998181010596454143524169921875,"poi_name":"Pel\u00e9ndri","parent_id":"146383","long":32.951999999999998181010596454143524169921875},"63":{"id":"10346965","label":"Pent\u00e1komo","value":"10346965","lat":34.7314999999999969304553815163671970367431640625,"lon":33.25030000000000285353962681256234645843505859375,"poi_name":"Pent\u00e1komo","parent_id":"146383","long":33.25030000000000285353962681256234645843505859375},"64":{"id":"10346995","label":"Pisso\u00fari","value":"10346995","lat":34.67016000000000275349520961754024028778076171875,"lon":32.70141000000000275349520961754024028778076171875,"poi_name":"Pisso\u00fari","parent_id":"146383","long":32.70141000000000275349520961754024028778076171875},"65":{"id":"10346991","label":"Platan\u00edsteia","value":"10346991","lat":34.7100099999999969213604344986379146575927734375,"lon":32.71085000000000064801497501321136951446533203125,"poi_name":"Platan\u00edsteia","parent_id":"146383","long":32.71085000000000064801497501321136951446533203125},"66":{"id":"10347020","label":"Potamio\u00fa","value":"10347020","lat":34.82428999999999774672687635757029056549072265625,"lon":32.8057400000000001227817847393453121185302734375,"poi_name":"Potamio\u00fa","parent_id":"146383","long":32.8057400000000001227817847393453121185302734375},"67":{"id":"10347034","label":"Potam\u00edtissa","value":"10347034","lat":34.90397999999999711917553213424980640411376953125,"lon":32.987650000000002137312549166381359100341796875,"poi_name":"Potam\u00edtissa","parent_id":"146383","long":32.987650000000002137312549166381359100341796875},"68":{"id":"10347025","label":"Pr\u00f3dromos","value":"10347025","lat":34.94120000000000203499439521692693233489990234375,"lon":32.83928999999999831516106496565043926239013671875,"poi_name":"Pr\u00f3dromos","parent_id":"146383","long":32.83928999999999831516106496565043926239013671875},"69":{"id":"10347002","label":"P\u00e1chna","value":"10347002","lat":34.76924999999999954525264911353588104248046875,"lon":32.785290000000003374225343577563762664794921875,"poi_name":"P\u00e1chna","parent_id":"146383","long":32.785290000000003374225343577563762664794921875},"70":{"id":"10346999","label":"P\u00e1no Kiv\u00eddes","value":"10346999","lat":34.7509000000000014551915228366851806640625,"lon":32.8419099999999986039256327785551548004150390625,"poi_name":"P\u00e1no Kiv\u00eddes","parent_id":"146383","long":32.8419099999999986039256327785551548004150390625},"71":{"id":"10347030","label":"P\u00e1no Pl\u00e1tres","value":"10347030","lat":34.9113200000000034606273402459919452667236328125,"lon":32.879130000000003519744495861232280731201171875,"poi_name":"P\u00e1no Pl\u00e1tres","parent_id":"146383","long":32.879130000000003519744495861232280731201171875},"72":{"id":"10346945","label":"P\u00e1no Polem\u00eddia","value":"10346945","lat":34.711060000000003356035449542105197906494140625,"lon":32.99184000000000338559402734972536563873291015625,"poi_name":"P\u00e1no Polem\u00eddia","parent_id":"146383","long":32.99184000000000338559402734972536563873291015625},"73":{"id":"10347018","label":"P\u00e9ra Ped\u00ed","value":"10347018","lat":34.8646600000000006502887117676436901092529296875,"lon":32.8707399999999978490450303070247173309326171875,"poi_name":"P\u00e9ra Ped\u00ed","parent_id":"146383","long":32.8707399999999978490450303070247173309326171875},"74":{"id":"10346969","label":"San\u00edda","value":"10346969","lat":34.80279999999999773763192933984100818634033203125,"lon":33.19053000000000253066900768317282199859619140625,"poi_name":"San\u00edda","parent_id":"146383","long":33.19053000000000253066900768317282199859619140625},"75":{"id":"10347005","label":"Sil\u00edkou","value":"10347005","lat":34.83373000000000274667399935424327850341796875,"lon":32.88593999999999795136318425647914409637451171875,"poi_name":"Sil\u00edkou","parent_id":"146383","long":32.88593999999999795136318425647914409637451171875},"76":{"id":"10346988","label":"Sot\u00edra","value":"10346988","lat":34.70318999999999931560523691587150096893310546875,"lon":32.84085999999999927467797533608973026275634765625,"poi_name":"Sot\u00edra","parent_id":"146383","long":32.84085999999999927467797533608973026275634765625},"77":{"id":"10346996","label":"So\u00fani-Zanaki\u00e1","value":"10346996","lat":34.73570000000000135287336888723075389862060546875,"lon":32.88436999999999699184627388603985309600830078125,"poi_name":"So\u00fani-Zanaki\u00e1","parent_id":"146383","long":32.88436999999999699184627388603985309600830078125},"78":{"id":"10346950","label":"Spit\u00e1li","value":"10346950","lat":34.765050000000002228262019343674182891845703125,"lon":33.00809000000000281715983874164521694183349609375,"poi_name":"Spit\u00e1li","parent_id":"146383","long":33.00809000000000281715983874164521694183349609375},"79":{"id":"10346979","label":"Syk\u00f3petra","value":"10346979","lat":34.88195999999999941110218060202896595001220703125,"lon":33.10560000000000258069121628068387508392333984375,"poi_name":"Syk\u00f3petra","parent_id":"146383","long":33.10560000000000258069121628068387508392333984375},"80":{"id":"10347027","label":"Treis Eli\u00e9s","value":"10347027","lat":34.9333400000000011687006917782127857208251953125,"lon":32.79525000000000289901436190120875835418701171875,"poi_name":"Treis Eli\u00e9s","parent_id":"146383","long":32.79525000000000289901436190120875835418701171875},"81":{"id":"10347007","label":"Trim\u00edklini","value":"10347007","lat":34.85103000000000150748746818862855434417724609375,"lon":32.91268000000000171212377608753740787506103515625,"poi_name":"Trim\u00edklini","parent_id":"146383","long":32.91268000000000171212377608753740787506103515625},"82":{"id":"10346983","label":"Tserk\u00e9zoi","value":"10346983","lat":34.64867000000000274440026259981095790863037109375,"lon":32.99027000000000242607711697928607463836669921875,"poi_name":"Tserk\u00e9zoi","parent_id":"146383","long":32.99027000000000242607711697928607463836669921875},"83":{"id":"10347017","label":"Voun\u00ed","value":"10347017","lat":34.815910000000002355591277591884136199951171875,"lon":32.8272300000000001318767317570745944976806640625,"poi_name":"Voun\u00ed","parent_id":"146383","long":32.8272300000000001318767317570745944976806640625},"84":{"id":"10346968","label":"V\u00e1sa","value":"10346968","lat":34.8033199999999993679011822678148746490478515625,"lon":33.22250999999999976353137753903865814208984375,"poi_name":"V\u00e1sa","parent_id":"146383","long":33.22250999999999976353137753903865814208984375},"85":{"id":"10347016","label":"V\u00e1sa","value":"10347016","lat":34.8374000000000023646862246096134185791015625,"lon":32.78685999999999722831489634700119495391845703125,"poi_name":"V\u00e1sa","parent_id":"146383","long":32.78685999999999722831489634700119495391845703125},"86":{"id":"10346971","label":"V\u00edkla","value":"10346971","lat":34.82795999999999736473910161294043064117431640625,"lon":33.201019999999999754436430521309375762939453125,"poi_name":"V\u00edkla","parent_id":"146383","long":33.201019999999999754436430521309375762939453125},"87":{"id":"10346981","label":"Zoopig\u00ed","value":"10346981","lat":34.866230000000001609805622138082981109619140625,"lon":33.00285000000000223963070311583578586578369140625,"poi_name":"Zoopig\u00ed","parent_id":"146383","long":33.00285000000000223963070311583578586578369140625},"88":{"id":"10346943","label":"\u00c1gios Athan\u00e1sios","value":"10346943","lat":34.722070000000002210072125308215618133544921875,"lon":33.05528000000000332647687173448503017425537109375,"poi_name":"\u00c1gios Athan\u00e1sios","parent_id":"146383","long":33.05528000000000332647687173448503017425537109375},"89":{"id":"10347023","label":"\u00c1gios Dim\u00edtrios","value":"10347023","lat":34.92022999999999655074134352616965770721435546875,"lon":32.81150000000000233058017329312860965728759765625,"poi_name":"\u00c1gios Dim\u00edtrios","parent_id":"146383","long":32.81150000000000233058017329312860965728759765625},"90":{"id":"10346978","label":"\u00c1gios Konstant\u00ednos","value":"10346978","lat":34.873570000000000845830072648823261260986328125,"lon":33.074669999999997571649146266281604766845703125,"poi_name":"\u00c1gios Konstant\u00ednos","parent_id":"146383","long":33.074669999999997571649146266281604766845703125},"91":{"id":"10347008","label":"\u00c1gios M\u00e1mas","value":"10347008","lat":34.85260000000000246700437855906784534454345703125,"lon":32.94570999999999827423380338586866855621337890625,"poi_name":"\u00c1gios M\u00e1mas","parent_id":"146383","long":32.94570999999999827423380338586866855621337890625},"92":{"id":"10346977","label":"\u00c1gios P\u00e1vlos","value":"10346977","lat":34.87147999999999825604390935041010379791259765625,"lon":33.048990000000003419700078666210174560546875,"poi_name":"\u00c1gios P\u00e1vlos","parent_id":"146383","long":33.048990000000003419700078666210174560546875},"93":{"id":"10347000","label":"\u00c1gios Ther\u00e1pon","value":"10347000","lat":34.78235000000000098907548817805945873260498046875,"lon":32.8744099999999974670572555623948574066162109375,"poi_name":"\u00c1gios Ther\u00e1pon","parent_id":"146383","long":32.8744099999999974670572555623948574066162109375},"94":{"id":"10346992","label":"\u00c1gios Tom\u00e1s","value":"10346992","lat":34.711579999999997880877344869077205657958984375,"lon":32.73129000000000132786226458847522735595703125,"poi_name":"\u00c1gios Tom\u00e1s","parent_id":"146383","long":32.73129000000000132786226458847522735595703125},"95":{"id":"10346963","label":"\u00c1gios T\u00fdchon","value":"10346963","lat":34.72153999999999740566636319272220134735107421875,"lon":33.1339100000000001955413608811795711517333984375,"poi_name":"\u00c1gios T\u00fdchon","parent_id":"146383","long":33.1339100000000001955413608811795711517333984375},"96":{"id":"10346997","label":"\u00c1lassa","value":"10346997","lat":34.75876000000000232148522627539932727813720703125,"lon":32.92369000000000056616045185364782810211181640625,"poi_name":"\u00c1lassa","parent_id":"146383","long":32.92369000000000056616045185364782810211181640625},"97":{"id":"10347013","label":"\u00c1rsos","value":"10347013","lat":34.84055000000000035242919693700969219207763671875,"lon":32.76380000000000336513039655983448028564453125,"poi_name":"\u00c1rsos","parent_id":"146383","long":32.76380000000000336513039655983448028564453125},"98":{"id":"10347021","label":"\u00d3modos","value":"10347021","lat":34.85260000000000246700437855906784534454345703125,"lon":32.8067800000000033833202905952930450439453125,"poi_name":"\u00d3modos","parent_id":"146383","long":32.8067800000000033833202905952930450439453125},"99":{"id":"10346946","label":"\u00ddpsonas","value":"10346946","lat":34.704239999999998644852894358336925506591796875,"lon":32.9498999999999995225152815692126750946044921875,"poi_name":"\u00ddpsonas","parent_id":"146383","long":32.9498999999999995225152815692126750946044921875}}