{"success":true,"remaining_lookups":7742,"0":{"id":"8605100","label":"Buk-gu","value":"8605100","lat":35.5824300000000022237145458348095417022705078125,"lon":129.360489999999998644852894358336925506591796875,"poi_name":"Buk-gu","parent_id":"1833742","long":129.360489999999998644852894358336925506591796875},"1":{"id":"8605090","label":"Dong-gu","value":"8605090","lat":35.5046999999999997044142219237983226776123046875,"lon":129.418599999999997862687450833618640899658203125,"poi_name":"Dong-gu","parent_id":"1833742","long":129.418599999999997862687450833618640899658203125},"2":{"id":"8605097","label":"Jung-gu","value":"8605097","lat":35.5683999999999969077180139720439910888671875,"lon":129.332259999999990895958035252988338470458984375,"poi_name":"Jung-gu","parent_id":"1833742","long":129.332259999999990895958035252988338470458984375},"3":{"id":"8605089","label":"Nam-gu","value":"8605089","lat":35.5438199999999966394170769490301609039306640625,"lon":129.329170000000004847606760449707508087158203125,"poi_name":"Nam-gu","parent_id":"1833742","long":129.329170000000004847606760449707508087158203125},"4":{"id":"1833760","label":"Ulju-gun","value":"1833760","lat":35.562330000000002883098204620182514190673828125,"lon":129.126900000000006230038707144558429718017578125,"poi_name":"Ulju-gun","parent_id":"1833742","long":129.126900000000006230038707144558429718017578125}}