{"success":true,"remaining_lookups":7743,"0":{"id":"1834758","label":"Dobong-gu","value":"1834758","lat":37.6506600000000020145307644270360469818115234375,"lon":127.0301099999999934198058326728641986846923828125,"poi_name":"Dobong-gu","parent_id":"1835847","long":127.0301099999999934198058326728641986846923828125},"1":{"id":"1834328","label":"Dongdaemun-gu","value":"1834328","lat":37.5818900000000013505996321327984333038330078125,"lon":127.0540799999999990177457220852375030517578125,"poi_name":"Dongdaemun-gu","parent_id":"1835847","long":127.0540799999999990177457220852375030517578125},"2":{"id":"1834245","label":"Dongjak-gu","value":"1834245","lat":37.50056000000000011596057447604835033416748046875,"lon":126.951490000000006830305210314691066741943359375,"poi_name":"Dongjak-gu","parent_id":"1835847","long":126.951490000000006830305210314691066741943359375},"3":{"id":"1833594","label":"Eunpyeong-gu","value":"1833594","lat":37.618459999999998899511410854756832122802734375,"lon":126.9278000000000048430592869408428668975830078125,"poi_name":"Eunpyeong-gu","parent_id":"1835847","long":126.9278000000000048430592869408428668975830078125},"4":{"id":"1836339","label":"Gangbuk-gu","value":"1836339","lat":37.6349000000000017962520360015332698822021484375,"lon":127.02015000000000100044417195022106170654296875,"poi_name":"Gangbuk-gu","parent_id":"1835847","long":127.02015000000000100044417195022106170654296875},"5":{"id":"1836279","label":"Gangdong-gu","value":"1836279","lat":37.552740000000000009094947017729282379150390625,"lon":127.1454599999999999226929503493010997772216796875,"poi_name":"Gangdong-gu","parent_id":"1835847","long":127.1454599999999999226929503493010997772216796875},"6":{"id":"1843140","label":"Gangnam-gu","value":"1843140","lat":37.49510000000000076170181273482739925384521484375,"lon":127.062780000000003610693966038525104522705078125,"poi_name":"Gangnam-gu","parent_id":"1835847","long":127.062780000000003610693966038525104522705078125},"7":{"id":"1843128","label":"Gangseo-gu","value":"1843128","lat":37.5622699999999980491338646970689296722412109375,"lon":126.8162200000000012778400559909641742706298828125,"poi_name":"Gangseo-gu","parent_id":"1835847","long":126.8162200000000012778400559909641742706298828125},"8":{"id":"8349534","label":"Geumcheon-gu","value":"8349534","lat":37.47485999999999961573848850093781948089599609375,"lon":126.8910599999999959663909976370632648468017578125,"poi_name":"Geumcheon-gu","parent_id":"1835847","long":126.8910599999999959663909976370632648468017578125},"9":{"id":"1841986","label":"Guro-gu","value":"1841986","lat":37.49446999999999974306774674914777278900146484375,"lon":126.850200000000000954969436861574649810791015625,"poi_name":"Guro-gu","parent_id":"1835847","long":126.850200000000000954969436861574649810791015625},"10":{"id":"1841893","label":"Gwanak-gu","value":"1841893","lat":37.47876000000000118461684905923902988433837890625,"lon":126.952349999999995588950696401298046112060546875,"poi_name":"Gwanak-gu","parent_id":"1835847","long":126.952349999999995588950696401298046112060546875},"11":{"id":"8349529","label":"Gwangjin-gu","value":"8349529","lat":37.5391300000000001091393642127513885498046875,"lon":127.0836599999999947385731502436101436614990234375,"poi_name":"Gwangjin-gu","parent_id":"1835847","long":127.0836599999999947385731502436101436614990234375},"12":{"id":"1845581","label":"Jongno-gu","value":"1845581","lat":37.57289999999999707824827055446803569793701171875,"lon":126.9792800000000028148861019872128963470458984375,"poi_name":"Jongno-gu","parent_id":"1835847","long":126.9792800000000028148861019872128963470458984375},"13":{"id":"1845068","label":"Jung-gu","value":"1845068","lat":37.5598600000000004683897714130580425262451171875,"lon":126.993979999999993424353306181728839874267578125,"poi_name":"Jung-gu","parent_id":"1835847","long":126.993979999999993424353306181728839874267578125},"14":{"id":"8349530","label":"Jungnang-gu","value":"8349530","lat":37.6019900000000006912159733474254608154296875,"lon":127.1046099999999938745531835593283176422119140625,"poi_name":"Jungnang-gu","parent_id":"1835847","long":127.1046099999999938745531835593283176422119140625},"15":{"id":"1841277","label":"Mapo-gu","value":"1841277","lat":37.55438000000000187128534889779984951019287109375,"lon":126.9092600000000032878233469091355800628662109375,"poi_name":"Mapo-gu","parent_id":"1835847","long":126.9092600000000032878233469091355800628662109375},"16":{"id":"8349531","label":"Nowon-gu","value":"8349531","lat":37.660449999999997316990629769861698150634765625,"lon":127.0671799999999933561412035487592220306396484375,"poi_name":"Nowon-gu","parent_id":"1835847","long":127.0671799999999933561412035487592220306396484375},"17":{"id":"8349535","label":"Seocho-gu","value":"8349535","lat":37.49446999999999974306774674914777278900146484375,"lon":127.0108800000000002228262019343674182891845703125,"poi_name":"Seocho-gu","parent_id":"1835847","long":127.0108800000000002228262019343674182891845703125},"18":{"id":"1836701","label":"Seodaemun-gu","value":"1836701","lat":37.578090000000003101376933045685291290283203125,"lon":126.935059999999992896846379153430461883544921875,"poi_name":"Seodaemun-gu","parent_id":"1835847","long":126.935059999999992896846379153430461883544921875},"19":{"id":"8349532","label":"Seongbuk-gu","value":"8349532","lat":37.6026700000000033696778700686991214752197265625,"lon":127.0144800000000060435922932811081409454345703125,"poi_name":"Seongbuk-gu","parent_id":"1835847","long":127.0144800000000060435922932811081409454345703125},"20":{"id":"8349528","label":"Seongdong-gu","value":"8349528","lat":37.54784000000000077079675975255668163299560546875,"lon":127.02460999999999557985574938356876373291015625,"poi_name":"Seongdong-gu","parent_id":"1835847","long":127.02460999999999557985574938356876373291015625},"21":{"id":"8349536","label":"Songpa-gu","value":"8349536","lat":37.5020999999999986584953148849308490753173828125,"lon":127.111130000000002837623469531536102294921875,"poi_name":"Songpa-gu","parent_id":"1835847","long":127.111130000000002837623469531536102294921875},"22":{"id":"8349533","label":"Yangcheon-gu","value":"8349533","lat":37.5215699999999969804775901138782501220703125,"lon":126.85827000000000452928361482918262481689453125,"poi_name":"Yangcheon-gu","parent_id":"1835847","long":126.85827000000000452928361482918262481689453125},"23":{"id":"1832536","label":"Yeongdeungpo-gu","value":"1832536","lat":37.526060000000001082298695109784603118896484375,"lon":126.9030800000000027694113668985664844512939453125,"poi_name":"Yeongdeungpo-gu","parent_id":"1835847","long":126.9030800000000027694113668985664844512939453125},"24":{"id":"1832311","label":"Yongsan-gu","value":"1832311","lat":37.53390999999999877445588936097919940948486328125,"lon":126.9775000000000062527760746888816356658935546875,"poi_name":"Yongsan-gu","parent_id":"1835847","long":126.9775000000000062527760746888816356658935546875}}