{"success":true,"remaining_lookups":7757,"0":{"id":"1838730","label":"Boeun-gun","value":"1838730","lat":36.49488999999999805368133820593357086181640625,"lon":127.7286500000000017962520360015332698822021484375,"poi_name":"Boeun-gun","parent_id":"1845106","long":127.7286500000000017962520360015332698822021484375},"1":{"id":"1845599","label":"Cheongju-si","value":"1845599","lat":36.6353500000000025238477974198758602142333984375,"lon":127.4678100000000000591171556152403354644775390625,"poi_name":"Cheongju-si","parent_id":"1845106","long":127.4678100000000000591171556152403354644775390625},"2":{"id":"1845032","label":"Chungju-si","value":"1845032","lat":37.017910000000000536601874046027660369873046875,"lon":127.877129999999993970050127245485782623291015625,"poi_name":"Chungju-si","parent_id":"1845106","long":127.877129999999993970050127245485782623291015625},"3":{"id":"1834820","label":"Danyang-gun","value":"1834820","lat":36.98615000000000208046913030557334423065185546875,"lon":128.369450000000000500222085975110530853271484375,"poi_name":"Danyang-gun","parent_id":"1845106","long":128.369450000000000500222085975110530853271484375},"4":{"id":"1833704","label":"Eumseong-gun","value":"1833704","lat":36.92602000000000117552190204150974750518798828125,"lon":127.6807000000000016370904631912708282470703125,"poi_name":"Eumseong-gun","parent_id":"1845106","long":127.6807000000000016370904631912708282470703125},"5":{"id":"1842799","label":"Goesan-gun","value":"1842799","lat":36.77179000000000286263457383029162883758544921875,"lon":127.8142600000000044246917241252958774566650390625,"poi_name":"Goesan-gun","parent_id":"1845106","long":127.8142600000000044246917241252958774566650390625},"6":{"id":"8659220","label":"Heungdeok-gu","value":"8659220","lat":36.62899999999999778310666442848742008209228515625,"lon":127.4320000000000021600499167107045650482177734375,"poi_name":"Heungdeok-gu","parent_id":"1845106","long":127.4320000000000021600499167107045650482177734375},"7":{"id":"1846277","label":"Jecheon-si","value":"1846277","lat":37.062060000000002446540747769176959991455078125,"lon":128.14064999999999372448655776679515838623046875,"poi_name":"Jecheon-si","parent_id":"1845106","long":128.14064999999999372448655776679515838623046875},"8":{"id":"8419683","label":"Jeungpyeong-gun","value":"8419683","lat":36.78376999999999696910890634171664714813232421875,"lon":127.598579999999998335624695755541324615478515625,"poi_name":"Jeungpyeong-gun","parent_id":"1845106","long":127.598579999999998335624695755541324615478515625},"9":{"id":"1846093","label":"Jincheon-gun","value":"1846093","lat":36.88280999999999920646587270312011241912841796875,"lon":127.4276799999999951751306070946156978607177734375,"poi_name":"Jincheon-gun","parent_id":"1845106","long":127.4276799999999951751306070946156978607177734375},"10":{"id":"1839869","label":"Okcheon-gun","value":"1839869","lat":36.33570999999999884266799199394881725311279296875,"lon":127.6443799999999981764631229452788829803466796875,"poi_name":"Okcheon-gun","parent_id":"1845106","long":127.6443799999999981764631229452788829803466796875},"11":{"id":"8659221","label":"Sangdang-gu","value":"8659221","lat":36.64999999999999857891452847979962825775146484375,"lon":127.5049999999999954525264911353588104248046875,"poi_name":"Sangdang-gu","parent_id":"1845106","long":127.5049999999999954525264911353588104248046875},"12":{"id":"1832561","label":"Yeongdong-gun","value":"1832561","lat":36.16449999999999675992512493394315242767333984375,"lon":127.7901800000000065438143792562186717987060546875,"poi_name":"Yeongdong-gun","parent_id":"1845106","long":127.7901800000000065438143792562186717987060546875}}