{"success":true,"remaining_lookups":7897,"0":{"id":"2127365","label":"Abyysky District","value":"2127365","lat":68.3333300000000036789060686714947223663330078125,"lon":146,"poi_name":"Abyysky District","parent_id":"2013162","long":146},"1":{"id":"2027729","label":"Anabarskiy Rayon","value":"2027729","lat":72.5,"lon":116,"poi_name":"Anabarskiy Rayon","parent_id":"2013162","long":116},"2":{"id":"8617246","label":"Eveno-Bytantaysky National District","value":"8617246","lat":67.8242800000000016780177247710525989532470703125,"lon":130.44616999999999507053871639072895050048828125,"poi_name":"Eveno-Bytantaysky National District","parent_id":"2013162","long":130.44616999999999507053871639072895050048828125},"3":{"id":"2123220","label":"Momsky District","value":"2123220","lat":66,"lon":144,"poi_name":"Momsky District","parent_id":"2013162","long":144},"4":{"id":"2020847","label":"Nyurbinsky District","value":"2020847","lat":63.25,"lon":118.4166699999999963210939313285052776336669921875,"poi_name":"Nyurbinsky District","parent_id":"2013162","long":118.4166699999999963210939313285052776336669921875},"5":{"id":"2018564","label":"Olenyoksky District","value":"2018564","lat":68.32017999999999346982804127037525177001953125,"lon":112.593379999999996243786881677806377410888671875,"poi_name":"Olenyoksky District","parent_id":"2013162","long":112.593379999999996243786881677806377410888671875},"6":{"id":"2018569","label":"Olyokminsky District","value":"2018569","lat":59,"lon":121,"poi_name":"Olyokminsky District","parent_id":"2013162","long":121},"7":{"id":"2122308","label":"Oymyakonskiy District","value":"2122308","lat":63,"lon":144,"poi_name":"Oymyakonskiy District","parent_id":"2013162","long":144},"8":{"id":"2121024","label":"Srednekolymsky District","value":"2121024","lat":68,"lon":153,"poi_name":"Srednekolymsky District","parent_id":"2013162","long":153},"9":{"id":"2015912","label":"Suntarskiy District","value":"2015912","lat":63,"lon":115,"poi_name":"Suntarskiy District","parent_id":"2013162","long":115},"10":{"id":"2015174","label":"Tomponskiy District","value":"2015174","lat":62.75,"lon":135.41667000000001053194864653050899505615234375,"poi_name":"Tomponskiy District","parent_id":"2013162","long":135.41667000000001053194864653050899505615234375},"11":{"id":"2013999","label":"Ust-Aldansky District","value":"2013999","lat":63,"lon":132,"poi_name":"Ust-Aldansky District","parent_id":"2013162","long":132},"12":{"id":"2013847","label":"Ust\u2019-Yanskiy Rayon","value":"2013847","lat":69.3333300000000036789060686714947223663330078125,"lon":139.91667000000001053194864653050899505615234375,"poi_name":"Ust\u2019-Yanskiy Rayon","parent_id":"2013162","long":139.91667000000001053194864653050899505615234375},"13":{"id":"2119872","label":"Verkhnekolymsky District","value":"2119872","lat":65.75,"lon":150.83332999999998946805135346949100494384765625,"poi_name":"Verkhnekolymsky District","parent_id":"2013162","long":150.83332999999998946805135346949100494384765625},"14":{"id":"2013638","label":"Verkhnevilyuysky District","value":"2013638","lat":63,"lon":120.5,"poi_name":"Verkhnevilyuysky District","parent_id":"2013162","long":120.5},"15":{"id":"2013462","label":"Verkhoyansky District","value":"2013462","lat":68,"lon":136,"poi_name":"Verkhoyansky District","parent_id":"2013162","long":136},"16":{"id":"8617247","label":"Vilyuysky District","value":"8617247","lat":63.76397999999999655074134352616965770721435546875,"lon":121.65435999999999694409780204296112060546875,"poi_name":"Vilyuysky District","parent_id":"2013162","long":121.65435999999999694409780204296112060546875},"17":{"id":"8617188","label":"Yakutsk","value":"8617188","lat":61.9738200000000034606273402459919452667236328125,"lon":129.75403000000000020008883439004421234130859375,"poi_name":"Yakutsk","parent_id":"2013162","long":129.75403000000000020008883439004421234130859375},"18":{"id":"2012529","label":"Zhigansky District","value":"2012529","lat":66.75,"lon":123.25,"poi_name":"Zhigansky District","parent_id":"2013162","long":123.25}}