{"success":true,"remaining_lookups":7950,"0":{"id":"2027485","label":"Arkharinskiy Rayon","value":"2027485","lat":49.5,"lon":130.66667000000001053194864653050899505615234375,"poi_name":"Arkharinskiy Rayon","parent_id":"2027748","long":130.66667000000001053194864653050899505615234375},"1":{"id":"2026893","label":"Belogorskiy Rayon","value":"2026893","lat":50.75,"lon":128.5,"poi_name":"Belogorskiy Rayon","parent_id":"2027748","long":128.5},"2":{"id":"2026607","label":"Blagoveshchenskiy Rayon","value":"2026607","lat":50.75,"lon":127.5,"poi_name":"Blagoveshchenskiy Rayon","parent_id":"2027748","long":127.5},"3":{"id":"2025915","label":"Bureyskiy Rayon","value":"2025915","lat":50,"lon":130,"poi_name":"Bureyskiy Rayon","parent_id":"2027748","long":130},"4":{"id":"2050916","label":"Gorod Blagoveshchensk","value":"2050916","lat":50.39999999999999857891452847979962825775146484375,"lon":127.599999999999994315658113919198513031005859375,"poi_name":"Gorod Blagoveshchensk","parent_id":"2027748","long":127.599999999999994315658113919198513031005859375},"5":{"id":"2050917","label":"Gorod Raychikhinsk","value":"2050917","lat":49.75,"lon":129.41667000000001053194864653050899505615234375,"poi_name":"Gorod Raychikhinsk","parent_id":"2027748","long":129.41667000000001053194864653050899505615234375},"6":{"id":"2023386","label":"Ivanovskiy Rayon","value":"2023386","lat":50.45611000000000245790943154133856296539306640625,"lon":127.997780000000005884430720470845699310302734375,"poi_name":"Ivanovskiy Rayon","parent_id":"2027748","long":127.997780000000005884430720470845699310302734375},"7":{"id":"2021792","label":"Konstantinovskiy Rayon","value":"2021792","lat":49.75,"lon":128.16667000000001053194864653050899505615234375,"poi_name":"Konstantinovskiy Rayon","parent_id":"2027748","long":128.16667000000001053194864653050899505615234375},"8":{"id":"2020589","label":"Magdagachinskiy Rayon","value":"2020589","lat":53.33332999999999657347871107049286365509033203125,"lon":126,"poi_name":"Magdagachinskiy Rayon","parent_id":"2027748","long":126},"9":{"id":"2020117","label":"Mazanovskiy Rayon","value":"2020117","lat":52.16667000000000342652128892950713634490966796875,"lon":129.5,"poi_name":"Mazanovskiy Rayon","parent_id":"2027748","long":129.5},"10":{"id":"2019985","label":"Mikhaylovskiy Rayon","value":"2019985","lat":49.75,"lon":128.75,"poi_name":"Mikhaylovskiy Rayon","parent_id":"2027748","long":128.75},"11":{"id":"2018608","label":"Oktyabr\u2019skiy Rayon","value":"2018608","lat":50.33332999999999657347871107049286365509033203125,"lon":129,"poi_name":"Oktyabr\u2019skiy Rayon","parent_id":"2027748","long":129},"12":{"id":"2017411","label":"Romnenskiy Rayon","value":"2017411","lat":51,"lon":130,"poi_name":"Romnenskiy Rayon","parent_id":"2027748","long":130},"13":{"id":"2017066","label":"Selemdzhinskiy Rayon","value":"2017066","lat":52.5,"lon":132,"poi_name":"Selemdzhinskiy Rayon","parent_id":"2027748","long":132},"14":{"id":"2016941","label":"Seryshevskiy Rayon","value":"2016941","lat":51.16667000000000342652128892950713634490966796875,"lon":128.5,"poi_name":"Seryshevskiy Rayon","parent_id":"2027748","long":128.5},"15":{"id":"2016700","label":"Shimanovskiy Rayon","value":"2016700","lat":52.16667000000000342652128892950713634490966796875,"lon":127.5,"poi_name":"Shimanovskiy Rayon","parent_id":"2027748","long":127.5},"16":{"id":"2016442","label":"Skovorodinskiy Rayon","value":"2016442","lat":53.83332999999999657347871107049286365509033203125,"lon":123.5,"poi_name":"Skovorodinskiy Rayon","parent_id":"2027748","long":123.5},"17":{"id":"2015840","label":"Svobodnenskiy Rayon","value":"2015840","lat":51.5,"lon":127.8333300000000036789060686714947223663330078125,"poi_name":"Svobodnenskiy Rayon","parent_id":"2027748","long":127.8333300000000036789060686714947223663330078125},"18":{"id":"2015607","label":"Tambovskiy Rayon","value":"2015607","lat":50.08332999999999657347871107049286365509033203125,"lon":128,"poi_name":"Tambovskiy Rayon","parent_id":"2027748","long":128},"19":{"id":"2014714","label":"Tyndinskiy Rayon","value":"2014714","lat":55.33332999999999657347871107049286365509033203125,"lon":123.5,"poi_name":"Tyndinskiy Rayon","parent_id":"2027748","long":123.5},"20":{"id":"2012624","label":"Zavitinskiy Rayon","value":"2012624","lat":50.16667000000000342652128892950713634490966796875,"lon":129.5,"poi_name":"Zavitinskiy Rayon","parent_id":"2027748","long":129.5},"21":{"id":"2012589","label":"Zeyskiy Rayon","value":"2012589","lat":54.5,"lon":128.5,"poi_name":"Zeyskiy Rayon","parent_id":"2027748","long":128.5}}