{"success":true,"remaining_lookups":7903,"0":{"id":"2027104","label":"Barguzinskiy Rayon","value":"2027104","lat":54,"lon":109.75,"poi_name":"Barguzinskiy Rayon","parent_id":"2050915","long":109.75},"1":{"id":"2027013","label":"Bauntovskiy Rayon","value":"2027013","lat":54.66667000000000342652128892950713634490966796875,"lon":114.5,"poi_name":"Bauntovskiy Rayon","parent_id":"2050915","long":114.5},"2":{"id":"2026705","label":"Bichurskiy Rayon","value":"2026705","lat":50.58332999999999657347871107049286365509033203125,"lon":107.5833300000000036789060686714947223663330078125,"poi_name":"Bichurskiy Rayon","parent_id":"2050915","long":107.5833300000000036789060686714947223663330078125},"3":{"id":"2024574","label":"Dzhidinskiy Rayon","value":"2024574","lat":50.75,"lon":105.5,"poi_name":"Dzhidinskiy Rayon","parent_id":"2050915","long":105.5},"4":{"id":"2050912","label":"Ivolginskiy Rayon","value":"2050912","lat":51.83332999999999657347871107049286365509033203125,"lon":107.3333300000000036789060686714947223663330078125,"poi_name":"Ivolginskiy Rayon","parent_id":"2050915","long":107.3333300000000036789060686714947223663330078125},"5":{"id":"2023349","label":"Kabanskiy Rayon","value":"2023349","lat":51.66667000000000342652128892950713634490966796875,"lon":106,"poi_name":"Kabanskiy Rayon","parent_id":"2050915","long":106},"6":{"id":"2022301","label":"Khorinskiy Rayon","value":"2022301","lat":52.5,"lon":109.8333300000000036789060686714947223663330078125,"poi_name":"Khorinskiy Rayon","parent_id":"2050915","long":109.8333300000000036789060686714947223663330078125},"7":{"id":"2022001","label":"Kizhinginskiy Rayon","value":"2022001","lat":51.83332999999999657347871107049286365509033203125,"lon":110.5,"poi_name":"Kizhinginskiy Rayon","parent_id":"2050915","long":110.5},"8":{"id":"2021185","label":"Kurumkanskiy Rayon","value":"2021185","lat":54.2999999999999971578290569595992565155029296875,"lon":110.2999999999999971578290569595992565155029296875,"poi_name":"Kurumkanskiy Rayon","parent_id":"2050915","long":110.2999999999999971578290569595992565155029296875},"9":{"id":"2021063","label":"Kyakhtinskiy Rayon","value":"2021063","lat":50.5,"lon":106.5,"poi_name":"Kyakhtinskiy Rayon","parent_id":"2050915","long":106.5},"10":{"id":"2019707","label":"Mukhorshibirskiy Rayon","value":"2019707","lat":51.08332999999999657347871107049286365509033203125,"lon":107.75,"poi_name":"Mukhorshibirskiy Rayon","parent_id":"2050915","long":107.75},"11":{"id":"2050914","label":"Muyskiy Rayon","value":"2050914","lat":56.33332999999999657347871107049286365509033203125,"lon":115,"poi_name":"Muyskiy Rayon","parent_id":"2050915","long":115},"12":{"id":"2018629","label":"Okinskiy Rayon","value":"2018629","lat":52.5,"lon":100.5,"poi_name":"Okinskiy Rayon","parent_id":"2050915","long":100.5},"13":{"id":"2017644","label":"Pribaykal\u2019skiy Rayon","value":"2017644","lat":52.5,"lon":108,"poi_name":"Pribaykal\u2019skiy Rayon","parent_id":"2050915","long":108},"14":{"id":"2017058","label":"Selenginskiy Rayon","value":"2017058","lat":51.16667000000000342652128892950713634490966796875,"lon":106.3333300000000036789060686714947223663330078125,"poi_name":"Selenginskiy Rayon","parent_id":"2050915","long":106.3333300000000036789060686714947223663330078125},"15":{"id":"2016909","label":"Severo-Baykal\u2019skiy Rayon","value":"2016909","lat":56,"lon":111.5,"poi_name":"Severo-Baykal\u2019skiy Rayon","parent_id":"2050915","long":111.5},"16":{"id":"2050913","label":"Tarbagatayskiy Rayon","value":"2050913","lat":51.5,"lon":107.6666699999999963210939313285052776336669921875,"poi_name":"Tarbagatayskiy Rayon","parent_id":"2050915","long":107.6666699999999963210939313285052776336669921875},"17":{"id":"2014864","label":"Tunkinskiy Rayon","value":"2014864","lat":51.5,"lon":102.5,"poi_name":"Tunkinskiy Rayon","parent_id":"2050915","long":102.5},"18":{"id":"2012958","label":"Yeravninskiy Rayon","value":"2012958","lat":53,"lon":112.25,"poi_name":"Yeravninskiy Rayon","parent_id":"2050915","long":112.25},"19":{"id":"2012734","label":"Zaigrayevskiy Rayon","value":"2012734","lat":51.83332999999999657347871107049286365509033203125,"lon":108.5,"poi_name":"Zaigrayevskiy Rayon","parent_id":"2050915","long":108.5},"20":{"id":"2012726","label":"Zakamenskiy Rayon","value":"2012726","lat":50.58332999999999657347871107049286365509033203125,"lon":103.5,"poi_name":"Zakamenskiy Rayon","parent_id":"2050915","long":103.5}}