{"success":true,"remaining_lookups":7877,"0":{"id":"582788","label":"Alekseyevskiy Rayon","value":"582788","lat":50.25,"lon":42.41667000000000342652128892950713634490966796875,"poi_name":"Alekseyevskiy Rayon","parent_id":"472755","long":42.41667000000000342652128892950713634490966796875},"1":{"id":"570251","label":"Bykovskiy Rayon","value":"570251","lat":49.58332999999999657347871107049286365509033203125,"lon":45.75,"poi_name":"Bykovskiy Rayon","parent_id":"472755","long":45.75},"2":{"id":"568526","label":"Chernyshkovskiy Rayon","value":"568526","lat":48.25,"lon":42.33332999999999657347871107049286365509033203125,"poi_name":"Chernyshkovskiy Rayon","parent_id":"472755","long":42.33332999999999657347871107049286365509033203125},"3":{"id":"567119","label":"Danilovskiy Rayon","value":"567119","lat":50.41667000000000342652128892950713634490966796875,"lon":44.25,"poi_name":"Danilovskiy Rayon","parent_id":"472755","long":44.25},"4":{"id":"564599","label":"Dubovskiy Rayon","value":"564599","lat":49.25,"lon":44.75,"poi_name":"Dubovskiy Rayon","parent_id":"472755","long":44.75},"5":{"id":"562360","label":"Frolovskiy Rayon","value":"562360","lat":49.83332999999999657347871107049286365509033203125,"lon":43.91667000000000342652128892950713634490966796875,"poi_name":"Frolovskiy Rayon","parent_id":"472755","long":43.91667000000000342652128892950713634490966796875},"6":{"id":"559586","label":"Gorodishchenskiy Rayon","value":"559586","lat":48.7999999999999971578290569595992565155029296875,"lon":44.46667000000000058435034588910639286041259765625,"poi_name":"Gorodishchenskiy Rayon","parent_id":"472755","long":44.46667000000000058435034588910639286041259765625},"7":{"id":"556962","label":"Ilovlinskiy Rayon","value":"556962","lat":49.25,"lon":44.08332999999999657347871107049286365509033203125,"poi_name":"Ilovlinskiy Rayon","parent_id":"472755","long":44.08332999999999657347871107049286365509033203125},"8":{"id":"554403","label":"Kalachevskiy Rayon","value":"554403","lat":48.5,"lon":43.66667000000000342652128892950713634490966796875,"poi_name":"Kalachevskiy Rayon","parent_id":"472755","long":43.66667000000000342652128892950713634490966796875},"9":{"id":"553278","label":"Kamyshinskiy Rayon","value":"553278","lat":50.25,"lon":45.5,"poi_name":"Kamyshinskiy Rayon","parent_id":"472755","long":45.5},"10":{"id":"548738","label":"Kikvidzenskiy Rayon","value":"548738","lat":50.75,"lon":43.16667000000000342652128892950713634490966796875,"poi_name":"Kikvidzenskiy Rayon","parent_id":"472755","long":43.16667000000000342652128892950713634490966796875},"11":{"id":"547676","label":"Kletskiy Rayon","value":"547676","lat":49.16667000000000342652128892950713634490966796875,"lon":43.08332999999999657347871107049286365509033203125,"poi_name":"Kletskiy Rayon","parent_id":"472755","long":43.08332999999999657347871107049286365509033203125},"12":{"id":"543723","label":"Kotel\u2019nikovskiy Rayon","value":"543723","lat":47.75,"lon":43.25,"poi_name":"Kotel\u2019nikovskiy Rayon","parent_id":"472755","long":43.25},"13":{"id":"543599","label":"Kotovskiy Rayon","value":"543599","lat":50.33332999999999657347871107049286365509033203125,"lon":44.83332999999999657347871107049286365509033203125,"poi_name":"Kotovskiy Rayon","parent_id":"472755","long":44.83332999999999657347871107049286365509033203125},"14":{"id":"507965","label":"Kumylzhenskiy Rayon","value":"507965","lat":49.83332999999999657347871107049286365509033203125,"lon":42.66667000000000342652128892950713634490966796875,"poi_name":"Kumylzhenskiy Rayon","parent_id":"472755","long":42.66667000000000342652128892950713634490966796875},"15":{"id":"536043","label":"Leninskiy Rayon","value":"536043","lat":48.75,"lon":45.5,"poi_name":"Leninskiy Rayon","parent_id":"472755","long":45.5},"16":{"id":"526754","label":"Mikhaylovka Urban Okrug","value":"526754","lat":50,"lon":43.41667000000000342652128892950713634490966796875,"poi_name":"Mikhaylovka Urban Okrug","parent_id":"472755","long":43.41667000000000342652128892950713634490966796875},"17":{"id":"522901","label":"Nekhayevskiy Rayon","value":"522901","lat":50.41667000000000342652128892950713634490966796875,"lon":41.75,"poi_name":"Nekhayevskiy Rayon","parent_id":"472755","long":41.75},"18":{"id":"521848","label":"Nikolayevskiy Rayon","value":"521848","lat":50,"lon":45.83332999999999657347871107049286365509033203125,"poi_name":"Nikolayevskiy Rayon","parent_id":"472755","long":45.83332999999999657347871107049286365509033203125},"19":{"id":"519061","label":"Novoanninskiy Rayon","value":"519061","lat":50.5,"lon":42.66667000000000342652128892950713634490966796875,"poi_name":"Novoanninskiy Rayon","parent_id":"472755","long":42.66667000000000342652128892950713634490966796875},"20":{"id":"518482","label":"Novonikolayevskiy Rayon","value":"518482","lat":51,"lon":42.58332999999999657347871107049286365509033203125,"poi_name":"Novonikolayevskiy Rayon","parent_id":"472755","long":42.58332999999999657347871107049286365509033203125},"21":{"id":"515839","label":"Oktyabr\u2019skiy Rayon","value":"515839","lat":48,"lon":43.83332999999999657347871107049286365509033203125,"poi_name":"Oktyabr\u2019skiy Rayon","parent_id":"472755","long":43.83332999999999657347871107049286365509033203125},"22":{"id":"515423","label":"Ol\u2019khovskiy Rayon","value":"515423","lat":49.83332999999999657347871107049286365509033203125,"lon":44.5,"poi_name":"Ol\u2019khovskiy Rayon","parent_id":"472755","long":44.5},"23":{"id":"513041","label":"Pallasovskiy Rayon","value":"513041","lat":49.5,"lon":46.5,"poi_name":"Pallasovskiy Rayon","parent_id":"472755","long":46.5},"24":{"id":"500654","label":"Rudnyanskiy Rayon","value":"500654","lat":50.75,"lon":44.33332999999999657347871107049286365509033203125,"poi_name":"Rudnyanskiy Rayon","parent_id":"472755","long":44.33332999999999657347871107049286365509033203125},"25":{"id":"496956","label":"Serafimovichskiy Rayon","value":"496956","lat":49.41667000000000342652128892950713634490966796875,"lon":42.5,"poi_name":"Serafimovichskiy Rayon","parent_id":"472755","long":42.5},"26":{"id":"489635","label":"Sredneakhtubinskiy Rayon","value":"489635","lat":48.71667000000000058435034588910639286041259765625,"lon":44.8666699999999991632648743689060211181640625,"poi_name":"Sredneakhtubinskiy Rayon","parent_id":"472755","long":44.8666699999999991632648743689060211181640625},"27":{"id":"488694","label":"Staropoltavskiy Rayon","value":"488694","lat":50.41667000000000342652128892950713634490966796875,"lon":46.83332999999999657347871107049286365509033203125,"poi_name":"Staropoltavskiy Rayon","parent_id":"472755","long":46.83332999999999657347871107049286365509033203125},"28":{"id":"486070","label":"Surovikinskiy Rayon","value":"486070","lat":48.66667000000000342652128892950713634490966796875,"lon":43,"poi_name":"Surovikinskiy Rayon","parent_id":"472755","long":43},"29":{"id":"485691","label":"Svetloyarskiy Rayon","value":"485691","lat":48.41667000000000342652128892950713634490966796875,"lon":44.75,"poi_name":"Svetloyarskiy Rayon","parent_id":"472755","long":44.75},"30":{"id":"478544","label":"Uryupinsk","value":"478544","lat":50.804699999999996862243278883397579193115234375,"lon":42.01380000000000336513039655983448028564453125,"poi_name":"Uryupinsk","parent_id":"472755","long":42.01380000000000336513039655983448028564453125},"31":{"id":"478543","label":"Uryupinskiy Rayon","value":"478543","lat":50.83332999999999657347871107049286365509033203125,"lon":42.16667000000000342652128892950713634490966796875,"poi_name":"Uryupinskiy Rayon","parent_id":"472755","long":42.16667000000000342652128892950713634490966796875},"32":{"id":"472757","label":"Volgograd","value":"472757","lat":48.71938999999999708734321757219731807708740234375,"lon":44.5018299999999982219378580339252948760986328125,"poi_name":"Volgograd","parent_id":"472755","long":44.5018299999999982219378580339252948760986328125},"33":{"id":"468037","label":"Yelanskiy Rayon","value":"468037","lat":51,"lon":43.75,"poi_name":"Yelanskiy Rayon","parent_id":"472755","long":43.75},"34":{"id":"462981","label":"Zhirnovskiy Rayon","value":"462981","lat":51,"lon":45,"poi_name":"Zhirnovskiy Rayon","parent_id":"472755","long":45}}