{"success":true,"remaining_lookups":7892,"0":{"id":"576588","label":"Bezenchukskiy Rayon","value":"576588","lat":53,"lon":49.25,"poi_name":"Bezenchukskiy Rayon","parent_id":"499068","long":49.25},"1":{"id":"575758","label":"Bogatovskiy Rayon","value":"575758","lat":53,"lon":51.33332999999999657347871107049286365509033203125,"poi_name":"Bogatovskiy Rayon","parent_id":"499068","long":51.33332999999999657347871107049286365509033203125},"2":{"id":"574418","label":"Bol\u2019shechernigovskiy Rayon","value":"574418","lat":52.08332999999999657347871107049286365509033203125,"lon":50.83332999999999657347871107049286365509033203125,"poi_name":"Bol\u2019shechernigovskiy Rayon","parent_id":"499068","long":50.83332999999999657347871107049286365509033203125},"3":{"id":"574410","label":"Bol\u2019sheglushitskiy Rayon","value":"574410","lat":52.41667000000000342652128892950713634490966796875,"lon":50.75,"poi_name":"Bol\u2019sheglushitskiy Rayon","parent_id":"499068","long":50.75},"4":{"id":"571989","label":"Borskiy Rayon","value":"571989","lat":53,"lon":51.75,"poi_name":"Borskiy Rayon","parent_id":"499068","long":51.75},"5":{"id":"548614","label":"Kinel\u2019skiy Rayon","value":"548614","lat":53.16667000000000342652128892950713634490966796875,"lon":50.75,"poi_name":"Kinel\u2019skiy Rayon","parent_id":"499068","long":50.75},"6":{"id":"544174","label":"Koshkinskiy Rayon","value":"544174","lat":54.25,"lon":50.41667000000000342652128892950713634490966796875,"poi_name":"Koshkinskiy Rayon","parent_id":"499068","long":50.41667000000000342652128892950713634490966796875},"7":{"id":"542130","label":"Krasnoyarskiy Rayon","value":"542130","lat":53.5,"lon":50.5,"poi_name":"Krasnoyarskiy Rayon","parent_id":"499068","long":50.5},"8":{"id":"522943","label":"Neftegorskiy Rayon","value":"522943","lat":52.83332999999999657347871107049286365509033203125,"lon":50.83332999999999657347871107049286365509033203125,"poi_name":"Neftegorskiy Rayon","parent_id":"499068","long":50.83332999999999657347871107049286365509033203125}}