{"success":true,"remaining_lookups":7927,"0":{"id":"581454","label":"Antropovskiy Rayon","value":"581454","lat":58.16667000000000342652128892950713634490966796875,"lon":43,"poi_name":"Antropovskiy Rayon","parent_id":"543871","long":43},"1":{"id":"570472","label":"Buyskiy Rayon","value":"570472","lat":58.5,"lon":41.5,"poi_name":"Buyskiy Rayon","parent_id":"543871","long":41.5},"2":{"id":"567693","label":"Chukhlomskiy Rayon","value":"567693","lat":58.75,"lon":42.75,"poi_name":"Chukhlomskiy Rayon","parent_id":"543871","long":42.75},"3":{"id":"562156","label":"Galichskiy Rayon","value":"562156","lat":58.33332999999999657347871107049286365509033203125,"lon":42.25,"poi_name":"Galichskiy Rayon","parent_id":"543871","long":42.25},"4":{"id":"554500","label":"Kadyyskiy Rayon","value":"554500","lat":57.75,"lon":43.25,"poi_name":"Kadyyskiy Rayon","parent_id":"543871","long":43.25},"5":{"id":"546275","label":"Kologrivskiy Rayon","value":"546275","lat":58.91667000000000342652128892950713634490966796875,"lon":44.25,"poi_name":"Kologrivskiy Rayon","parent_id":"543871","long":44.25},"6":{"id":"543869","label":"Kostromskoy Rayon","value":"543869","lat":57.83332999999999657347871107049286365509033203125,"lon":41,"poi_name":"Kostromskoy Rayon","parent_id":"543871","long":41},"7":{"id":"542232","label":"Krasnosel\u2019skiy Rayon","value":"542232","lat":57.58332999999999657347871107049286365509033203125,"lon":41.33332999999999657347871107049286365509033203125,"poi_name":"Krasnosel\u2019skiy Rayon","parent_id":"543871","long":41.33332999999999657347871107049286365509033203125},"8":{"id":"532129","label":"Makar\u2019yevskiy Rayon","value":"532129","lat":57.75,"lon":44.16667000000000342652128892950713634490966796875,"poi_name":"Makar\u2019yevskiy Rayon","parent_id":"543871","long":44.16667000000000342652128892950713634490966796875},"9":{"id":"529502","label":"Manturovskiy Rayon","value":"529502","lat":58.25,"lon":44.75,"poi_name":"Manturovskiy Rayon","parent_id":"543871","long":44.75},"10":{"id":"527261","label":"Mezhevskoy Rayon","value":"527261","lat":58.83332999999999657347871107049286365509033203125,"lon":45,"poi_name":"Mezhevskoy Rayon","parent_id":"543871","long":45},"11":{"id":"522591","label":"Nerekhtskiy Rayon","value":"522591","lat":57.41667000000000342652128892950713634490966796875,"lon":40.75,"poi_name":"Nerekhtskiy Rayon","parent_id":"543871","long":40.75},"12":{"id":"522334","label":"Neyskiy Rayon","value":"522334","lat":58.2999999999999971578290569595992565155029296875,"lon":43.89999999999999857891452847979962825775146484375,"poi_name":"Neyskiy Rayon","parent_id":"543871","long":43.89999999999999857891452847979962825775146484375},"13":{"id":"515833","label":"Oktyabr\u2019skiy Rayon","value":"515833","lat":59,"lon":47.08332999999999657347871107049286365509033203125,"poi_name":"Oktyabr\u2019skiy Rayon","parent_id":"543871","long":47.08332999999999657347871107049286365509033203125},"14":{"id":"514056","label":"Ostrovskiy Rayon","value":"514056","lat":57.66667000000000342652128892950713634490966796875,"lon":42.25,"poi_name":"Ostrovskiy Rayon","parent_id":"543871","long":42.25},"15":{"id":"512574","label":"Parfen\u2019yevskiy Rayon","value":"512574","lat":58.66667000000000342652128892950713634490966796875,"lon":43.5,"poi_name":"Parfen\u2019yevskiy Rayon","parent_id":"543871","long":43.5},"16":{"id":"512246","label":"Pavinskiy Rayon","value":"512246","lat":59.08332999999999657347871107049286365509033203125,"lon":46,"poi_name":"Pavinskiy Rayon","parent_id":"543871","long":46},"17":{"id":"506693","label":"Ponazyrevskiy Rayon","value":"506693","lat":58.7000000000000028421709430404007434844970703125,"lon":46.3166700000000020054358174093067646026611328125,"poi_name":"Ponazyrevskiy Rayon","parent_id":"543871","long":46.3166700000000020054358174093067646026611328125},"18":{"id":"503399","label":"Pyshchugskiy Rayon","value":"503399","lat":58.83332999999999657347871107049286365509033203125,"lon":45.75,"poi_name":"Pyshchugskiy Rayon","parent_id":"543871","long":45.75},"19":{"id":"495704","label":"Shar\u2019inskiy Rayon","value":"495704","lat":58.5,"lon":45.58332999999999657347871107049286365509033203125,"poi_name":"Shar\u2019inskiy Rayon","parent_id":"543871","long":45.58332999999999657347871107049286365509033203125},"20":{"id":"491024","label":"Soligalichskiy Rayon","value":"491024","lat":59,"lon":42.25,"poi_name":"Soligalichskiy Rayon","parent_id":"543871","long":42.25},"21":{"id":"486846","label":"Sudislavskiy Rayon","value":"486846","lat":57.83332999999999657347871107049286365509033203125,"lon":41.66667000000000342652128892950713634490966796875,"poi_name":"Sudislavskiy Rayon","parent_id":"543871","long":41.66667000000000342652128892950713634490966796875},"22":{"id":"486013","label":"Susaninskiy Rayon","value":"486013","lat":58.25,"lon":41.5,"poi_name":"Susaninskiy Rayon","parent_id":"543871","long":41.5},"23":{"id":"472883","label":"Vokhomskiy Rayon","value":"472883","lat":58.91667000000000342652128892950713634490966796875,"lon":46.58332999999999657347871107049286365509033203125,"poi_name":"Vokhomskiy Rayon","parent_id":"543871","long":46.58332999999999657347871107049286365509033203125}}