{"success":true,"remaining_lookups":7929,"0":{"id":"584145","label":"Afanas\u2019yevskiy Rayon","value":"584145","lat":58.83332999999999657347871107049286365509033203125,"lon":53.25,"poi_name":"Afanas\u2019yevskiy Rayon","parent_id":"548389","long":53.25},"1":{"id":"581227","label":"Arbazhskiy Rayon","value":"581227","lat":57.75,"lon":48.33332999999999657347871107049286365509033203125,"poi_name":"Arbazhskiy Rayon","parent_id":"548389","long":48.33332999999999657347871107049286365509033203125},"2":{"id":"577939","label":"Belokholunitskiy Rayon","value":"577939","lat":58.91667000000000342652128892950713634490966796875,"lon":51.16667000000000342652128892950713634490966796875,"poi_name":"Belokholunitskiy Rayon","parent_id":"548389","long":51.16667000000000342652128892950713634490966796875},"3":{"id":"575548","label":"Bogorodskiy Rayon","value":"575548","lat":57.83332999999999657347871107049286365509033203125,"lon":50.83332999999999657347871107049286365509033203125,"poi_name":"Bogorodskiy Rayon","parent_id":"548389","long":50.83332999999999657347871107049286365509033203125},"4":{"id":"567048","label":"Darovskiy Rayon","value":"567048","lat":58.83332999999999657347871107049286365509033203125,"lon":47.75,"poi_name":"Darovskiy Rayon","parent_id":"548389","long":47.75},"5":{"id":"563343","label":"Fal\u00ebnskiy Rayon","value":"563343","lat":58.33332999999999657347871107049286365509033203125,"lon":51.58332999999999657347871107049286365509033203125,"poi_name":"Fal\u00ebnskiy Rayon","parent_id":"548389","long":51.58332999999999657347871107049286365509033203125},"6":{"id":"548746","label":"Kiknurskiy Rayon","value":"548746","lat":57.33332999999999657347871107049286365509033203125,"lon":47.16667000000000342652128892950713634490966796875,"poi_name":"Kiknurskiy Rayon","parent_id":"548389","long":47.16667000000000342652128892950713634490966796875},"7":{"id":"548691","label":"Kil\u2019mezskiy Rayon","value":"548691","lat":57,"lon":51,"poi_name":"Kil\u2019mezskiy Rayon","parent_id":"548389","long":51},"8":{"id":"548394","label":"Kirovo-Chepetskiy Rayon","value":"548394","lat":58.5,"lon":50,"poi_name":"Kirovo-Chepetskiy Rayon","parent_id":"548389","long":50},"9":{"id":"543733","label":"Kotel\u2019nichskiy Rayon","value":"543733","lat":58.33332999999999657347871107049286365509033203125,"lon":48.16667000000000342652128892950713634490966796875,"poi_name":"Kotel\u2019nichskiy Rayon","parent_id":"548389","long":48.16667000000000342652128892950713634490966796875},"10":{"id":"539285","label":"Kumenskiy Rayon","value":"539285","lat":58.16667000000000342652128892950713634490966796875,"lon":50.16667000000000342652128892950713634490966796875,"poi_name":"Kumenskiy Rayon","parent_id":"548389","long":50.16667000000000342652128892950713634490966796875},"11":{"id":"536486","label":"Lebyazhskiy Rayon","value":"536486","lat":57.33332999999999657347871107049286365509033203125,"lon":49.5,"poi_name":"Lebyazhskiy Rayon","parent_id":"548389","long":49.5},"12":{"id":"533042","label":"Luzskiy Rayon","value":"533042","lat":60.58332999999999657347871107049286365509033203125,"lon":47.25,"poi_name":"Luzskiy Rayon","parent_id":"548389","long":47.25},"13":{"id":"530971","label":"Malmyzhskiy Rayon","value":"530971","lat":56.58332999999999657347871107049286365509033203125,"lon":50.91667000000000342652128892950713634490966796875,"poi_name":"Malmyzhskiy Rayon","parent_id":"548389","long":50.91667000000000342652128892950713634490966796875},"14":{"id":"524412","label":"Murashinskiy Rayon","value":"524412","lat":59.33332999999999657347871107049286365509033203125,"lon":48.75,"poi_name":"Murashinskiy Rayon","parent_id":"548389","long":48.75},"15":{"id":"523582","label":"Nagorskiy Rayon","value":"523582","lat":59.5,"lon":50.83332999999999657347871107049286365509033203125,"poi_name":"Nagorskiy Rayon","parent_id":"548389","long":50.83332999999999657347871107049286365509033203125},"16":{"id":"522678","label":"Nemskiy Rayon","value":"522678","lat":57.5,"lon":50.66667000000000342652128892950713634490966796875,"poi_name":"Nemskiy Rayon","parent_id":"548389","long":50.66667000000000342652128892950713634490966796875},"17":{"id":"520040","label":"Nolinskiy Rayon","value":"520040","lat":57.58332999999999657347871107049286365509033203125,"lon":49.91667000000000342652128892950713634490966796875,"poi_name":"Nolinskiy Rayon","parent_id":"548389","long":49.91667000000000342652128892950713634490966796875},"18":{"id":"515266","label":"Omutninskiy Rayon","value":"515266","lat":58.83332999999999657347871107049286365509033203125,"lon":52.33332999999999657347871107049286365509033203125,"poi_name":"Omutninskiy Rayon","parent_id":"548389","long":52.33332999999999657347871107049286365509033203125},"19":{"id":"515173","label":"Oparinskiy Rayon","value":"515173","lat":59.66667000000000342652128892950713634490966796875,"lon":47.83332999999999657347871107049286365509033203125,"poi_name":"Oparinskiy Rayon","parent_id":"548389","long":47.83332999999999657347871107049286365509033203125},"20":{"id":"514967","label":"Orichevskiy Rayon","value":"514967","lat":58.25,"lon":48.75,"poi_name":"Orichevskiy Rayon","parent_id":"548389","long":48.75},"21":{"id":"550782","label":"Orlovskiy Rayon","value":"550782","lat":58.663060000000001537046045996248722076416015625,"lon":48.742220000000003210516297258436679840087890625,"poi_name":"Orlovskiy Rayon","parent_id":"548389","long":48.742220000000003210516297258436679840087890625},"22":{"id":"509182","label":"Pizhanskiy Rayon","value":"509182","lat":57.41667000000000342652128892950713634490966796875,"lon":48.5,"poi_name":"Pizhanskiy Rayon","parent_id":"548389","long":48.5},"23":{"id":"508064","label":"Podosinovskiy Rayon","value":"508064","lat":60.16667000000000342652128892950713634490966796875,"lon":47.33332999999999657347871107049286365509033203125,"poi_name":"Podosinovskiy Rayon","parent_id":"548389","long":47.33332999999999657347871107049286365509033203125},"24":{"id":"498876","label":"Sanchurskiy Rayon","value":"498876","lat":57,"lon":47.33332999999999657347871107049286365509033203125,"poi_name":"Sanchurskiy Rayon","parent_id":"548389","long":47.33332999999999657347871107049286365509033203125},"25":{"id":"496196","label":"Shabalinskiy Rayon","value":"496196","lat":58.33332999999999657347871107049286365509033203125,"lon":46.91667000000000342652128892950713634490966796875,"poi_name":"Shabalinskiy Rayon","parent_id":"548389","long":46.91667000000000342652128892950713634490966796875},"26":{"id":"491877","label":"Slobodskoy Rayon","value":"491877","lat":58.75,"lon":50.25,"poi_name":"Slobodskoy Rayon","parent_id":"548389","long":50.25},"27":{"id":"490023","label":"Sovetskiy Rayon","value":"490023","lat":57.58332999999999657347871107049286365509033203125,"lon":49,"poi_name":"Sovetskiy Rayon","parent_id":"548389","long":49},"28":{"id":"486207","label":"Sunskiy Rayon","value":"486207","lat":57.83332999999999657347871107049286365509033203125,"lon":50,"poi_name":"Sunskiy Rayon","parent_id":"548389","long":50},"29":{"id":"485794","label":"Svechinskiy Rayon","value":"485794","lat":58.25,"lon":47.66667000000000342652128892950713634490966796875,"poi_name":"Svechinskiy Rayon","parent_id":"548389","long":47.66667000000000342652128892950713634490966796875},"30":{"id":"480079","label":"Tuzhinskiy Rayon","value":"480079","lat":57.58332999999999657347871107049286365509033203125,"lon":47.83332999999999657347871107049286365509033203125,"poi_name":"Tuzhinskiy Rayon","parent_id":"548389","long":47.83332999999999657347871107049286365509033203125},"31":{"id":"478994","label":"Uninskiy Rayon","value":"478994","lat":57.66667000000000342652128892950713634490966796875,"lon":51.5,"poi_name":"Uninskiy Rayon","parent_id":"548389","long":51.5},"32":{"id":"478528","label":"Urzhumskiy Rayon","value":"478528","lat":57.16667000000000342652128892950713634490966796875,"lon":49.83332999999999657347871107049286365509033203125,"poi_name":"Urzhumskiy Rayon","parent_id":"548389","long":49.83332999999999657347871107049286365509033203125},"33":{"id":"475579","label":"Verkhnekamskiy Rayon","value":"475579","lat":59.33332999999999657347871107049286365509033203125,"lon":52.25,"poi_name":"Verkhnekamskiy Rayon","parent_id":"548389","long":52.25},"34":{"id":"474372","label":"Verkhoshizhemskiy Rayon","value":"474372","lat":58.01527999999999707370079704560339450836181640625,"lon":48.9633299999999991314325598068535327911376953125,"poi_name":"Verkhoshizhemskiy Rayon","parent_id":"548389","long":48.9633299999999991314325598068535327911376953125},"35":{"id":"470727","label":"Vyatsko-Polyanskiy Rayon","value":"470727","lat":56.33332999999999657347871107049286365509033203125,"lon":51.25,"poi_name":"Vyatsko-Polyanskiy Rayon","parent_id":"548389","long":51.25},"36":{"id":"469004","label":"Yaranskiy Rayon","value":"469004","lat":57.16667000000000342652128892950713634490966796875,"lon":48,"poi_name":"Yaranskiy Rayon","parent_id":"548389","long":48},"37":{"id":"466268","label":"Yur\u2019yanskiy Rayon","value":"466268","lat":59,"lon":49.25,"poi_name":"Yur\u2019yanskiy Rayon","parent_id":"548389","long":49.25},"38":{"id":"461940","label":"Zuyevskiy Rayon","value":"461940","lat":58.33332999999999657347871107049286365509033203125,"lon":51,"poi_name":"Zuyevskiy Rayon","parent_id":"548389","long":51}}