{"success":true,"remaining_lookups":7901,"0":{"id":"577920","label":"Belomorskiy Rayon","value":"577920","lat":64.1666699999999963210939313285052776336669921875,"lon":35,"poi_name":"Belomorskiy Rayon","parent_id":"552548","long":35},"1":{"id":"554317","label":"Kaleval\u2019skiy Rayon","value":"554317","lat":65,"lon":31,"poi_name":"Kaleval\u2019skiy Rayon","parent_id":"552548","long":31},"2":{"id":"551115","label":"Kemskiy Rayon","value":"551115","lat":65.1666699999999963210939313285052776336669921875,"lon":34,"poi_name":"Kemskiy Rayon","parent_id":"552548","long":34},"3":{"id":"545624","label":"Kondopozhskiy Rayon","value":"545624","lat":62.16667000000000342652128892950713634490966796875,"lon":34.33332999999999657347871107049286365509033203125,"poi_name":"Kondopozhskiy Rayon","parent_id":"552548","long":34.33332999999999657347871107049286365509033203125},"4":{"id":"537148","label":"Lakhdenpokhskiy Rayon","value":"537148","lat":61.51666999999999774217940284870564937591552734375,"lon":30.183330000000001547277861391194164752960205078125,"poi_name":"Lakhdenpokhskiy Rayon","parent_id":"552548","long":30.183330000000001547277861391194164752960205078125},"5":{"id":"533962","label":"Loukhskiy Rayon","value":"533962","lat":66,"lon":33.5,"poi_name":"Loukhskiy Rayon","parent_id":"552548","long":33.5},"6":{"id":"527887","label":"Medvezh\u2019yegorskiy Rayon","value":"527887","lat":63,"lon":35,"poi_name":"Medvezh\u2019yegorskiy Rayon","parent_id":"552548","long":35},"7":{"id":"524099","label":"Muyezerskiy Rayon","value":"524099","lat":64,"lon":31.666669999999999873807610129006206989288330078125,"poi_name":"Muyezerskiy Rayon","parent_id":"552548","long":31.666669999999999873807610129006206989288330078125},"8":{"id":"515401","label":"Olonetskiy Rayon","value":"515401","lat":61,"lon":33,"poi_name":"Olonetskiy Rayon","parent_id":"552548","long":33},"9":{"id":"509233","label":"Pitkyarantskiy Rayon","value":"509233","lat":61.58332999999999657347871107049286365509033203125,"lon":31.5,"poi_name":"Pitkyarantskiy Rayon","parent_id":"552548","long":31.5},"10":{"id":"505244","label":"Prionezhskiy Rayon","value":"505244","lat":61.5,"lon":34.33332999999999657347871107049286365509033203125,"poi_name":"Prionezhskiy Rayon","parent_id":"552548","long":34.33332999999999657347871107049286365509033203125},"11":{"id":"504407","label":"Pryazhinskiy Rayon","value":"504407","lat":61.5,"lon":33.66667000000000342652128892950713634490966796875,"poi_name":"Pryazhinskiy Rayon","parent_id":"552548","long":33.66667000000000342652128892950713634490966796875},"12":{"id":"504259","label":"Pudozhskiy Rayon","value":"504259","lat":62,"lon":37,"poi_name":"Pudozhskiy Rayon","parent_id":"552548","long":37},"13":{"id":"497924","label":"Segezhskiy Rayon","value":"497924","lat":63.58332999999999657347871107049286365509033203125,"lon":34.33332999999999657347871107049286365509033203125,"poi_name":"Segezhskiy Rayon","parent_id":"552548","long":34.33332999999999657347871107049286365509033203125},"14":{"id":"461703","label":"Sortaval\u2019skiy Rayon","value":"461703","lat":61.75,"lon":30.666669999999999873807610129006206989288330078125,"poi_name":"Sortaval\u2019skiy Rayon","parent_id":"552548","long":30.666669999999999873807610129006206989288330078125},"15":{"id":"486183","label":"Suoyarvskiy Rayon","value":"486183","lat":62.25,"lon":32.25,"poi_name":"Suoyarvskiy Rayon","parent_id":"552548","long":32.25}}