{"success":true,"remaining_lookups":7934,"0":{"id":"579834","label":"Babyninskiy Rayon","value":"579834","lat":54.41667000000000342652128892950713634490966796875,"lon":35.75,"poi_name":"Babyninskiy Rayon","parent_id":"553899","long":35.75},"1":{"id":"578944","label":"Baryatinskiy Rayon","value":"578944","lat":54.33332999999999657347871107049286365509033203125,"lon":34.58332999999999657347871107049286365509033203125,"poi_name":"Baryatinskiy Rayon","parent_id":"553899","long":34.58332999999999657347871107049286365509033203125},"2":{"id":"572058","label":"Borovskiy Rayon","value":"572058","lat":55.16667000000000342652128892950713634490966796875,"lon":36.5,"poi_name":"Borovskiy Rayon","parent_id":"553899","long":36.5},"3":{"id":"564189","label":"Duminichskiy Rayon","value":"564189","lat":53.91667000000000342652128892950713634490966796875,"lon":35,"poi_name":"Duminichskiy Rayon","parent_id":"553899","long":35},"4":{"id":"563697","label":"Dzerzhinskiy Rayon","value":"563697","lat":54.75,"lon":35.75,"poi_name":"Dzerzhinskiy Rayon","parent_id":"553899","long":35.75},"5":{"id":"562871","label":"Ferzikovskiy Rayon","value":"562871","lat":54.58332999999999657347871107049286365509033203125,"lon":36.58332999999999657347871107049286365509033203125,"poi_name":"Ferzikovskiy Rayon","parent_id":"553899","long":36.58332999999999657347871107049286365509033203125},"6":{"id":"11205600","label":"Iznoskovskiy rayon","value":"11205600","lat":54.99025999999999925194060779176652431488037109375,"lon":35.30960999999999927467797533608973026275634765625,"poi_name":"Iznoskovskiy rayon","parent_id":"553899","long":35.30960999999999927467797533608973026275634765625},"7":{"id":"548971","label":"Khvastovichskiy Rayon","value":"548971","lat":53.5,"lon":35.16667000000000342652128892950713634490966796875,"poi_name":"Khvastovichskiy Rayon","parent_id":"553899","long":35.16667000000000342652128892950713634490966796875},"8":{"id":"548363","label":"Kirovskiy Rayon","value":"548363","lat":54.08332999999999657347871107049286365509033203125,"lon":34.41667000000000342652128892950713634490966796875,"poi_name":"Kirovskiy Rayon","parent_id":"553899","long":34.41667000000000342652128892950713634490966796875},"9":{"id":"543347","label":"Kozel\u2019skiy Rayon","value":"543347","lat":54,"lon":35.83332999999999657347871107049286365509033203125,"poi_name":"Kozel\u2019skiy Rayon","parent_id":"553899","long":35.83332999999999657347871107049286365509033203125},"10":{"id":"538051","label":"Kuybyshevskiy Rayon","value":"538051","lat":54.08332999999999657347871107049286365509033203125,"lon":33.91667000000000342652128892950713634490966796875,"poi_name":"Kuybyshevskiy Rayon","parent_id":"553899","long":33.91667000000000342652128892950713634490966796875},"11":{"id":"532457","label":"Lyudinovskiy Rayon","value":"532457","lat":53.91667000000000342652128892950713634490966796875,"lon":34.5,"poi_name":"Lyudinovskiy Rayon","parent_id":"553899","long":34.5},"12":{"id":"530848","label":"Maloyaroslavetskiy Rayon","value":"530848","lat":54.91667000000000342652128892950713634490966796875,"lon":36.5,"poi_name":"Maloyaroslavetskiy Rayon","parent_id":"553899","long":36.5},"13":{"id":"527866","label":"Medynskiy Rayon","value":"527866","lat":55.08332999999999657347871107049286365509033203125,"lon":35.83332999999999657347871107049286365509033203125,"poi_name":"Medynskiy Rayon","parent_id":"553899","long":35.83332999999999657347871107049286365509033203125},"14":{"id":"527404","label":"Meshchovskiy Rayon","value":"527404","lat":54.33332999999999657347871107049286365509033203125,"lon":35.41667000000000342652128892950713634490966796875,"poi_name":"Meshchovskiy Rayon","parent_id":"553899","long":35.41667000000000342652128892950713634490966796875},"15":{"id":"525083","label":"Mosal\u2019skiy Rayon","value":"525083","lat":54.58332999999999657347871107049286365509033203125,"lon":34.83332999999999657347871107049286365509033203125,"poi_name":"Mosal\u2019skiy Rayon","parent_id":"553899","long":34.83332999999999657347871107049286365509033203125},"16":{"id":"511399","label":"Peremyshl\u2019skiy Rayon","value":"511399","lat":54.25,"lon":36.08332999999999657347871107049286365509033203125,"poi_name":"Peremyshl\u2019skiy Rayon","parent_id":"553899","long":36.08332999999999657347871107049286365509033203125},"17":{"id":"489867","label":"Spas-Demenskiy Rayon","value":"489867","lat":54.41667000000000342652128892950713634490966796875,"lon":34,"poi_name":"Spas-Demenskiy Rayon","parent_id":"553899","long":34},"18":{"id":"486662","label":"Sukhinichskiy Rayon","value":"486662","lat":54.08332999999999657347871107049286365509033203125,"lon":35.33332999999999657347871107049286365509033203125,"poi_name":"Sukhinichskiy Rayon","parent_id":"553899","long":35.33332999999999657347871107049286365509033203125},"19":{"id":"484282","label":"Tarusskiy Rayon","value":"484282","lat":54.66667000000000342652128892950713634490966796875,"lon":37,"poi_name":"Tarusskiy Rayon","parent_id":"553899","long":37},"20":{"id":"479106","label":"Ul\u2019yanovskiy Rayon","value":"479106","lat":53.66667000000000342652128892950713634490966796875,"lon":35.66667000000000342652128892950713634490966796875,"poi_name":"Ul\u2019yanovskiy Rayon","parent_id":"553899","long":35.66667000000000342652128892950713634490966796875},"21":{"id":"466653","label":"Yukhnovskiy Rayon","value":"466653","lat":54.75,"lon":35.25,"poi_name":"Yukhnovskiy Rayon","parent_id":"553899","long":35.25},"22":{"id":"462912","label":"Zhizdrinskiy Rayon","value":"462912","lat":53.66667000000000342652128892950713634490966796875,"lon":34.75,"poi_name":"Zhizdrinskiy Rayon","parent_id":"553899","long":34.75},"23":{"id":"462752","label":"Zhukovskiy Rayon","value":"462752","lat":55.08332999999999657347871107049286365509033203125,"lon":36.75,"poi_name":"Zhukovskiy Rayon","parent_id":"553899","long":36.75}}