{"success":true,"remaining_lookups":7936,"0":{"id":"579759","label":"Bagrationovskiy Rayon","value":"579759","lat":54.5,"lon":20.416669999999999873807610129006206989288330078125,"poi_name":"Bagrationovskiy Rayon","parent_id":"554230","long":20.416669999999999873807610129006206989288330078125},"1":{"id":"568594","label":"Chernyakhovskiy Rayon","value":"568594","lat":54.66667000000000342652128892950713634490966796875,"lon":21.75,"poi_name":"Chernyakhovskiy Rayon","parent_id":"554230","long":21.75},"2":{"id":"3233216","label":"Gorod Baltiysk","value":"3233216","lat":54.64999999999999857891452847979962825775146484375,"lon":19.916669999999999873807610129006206989288330078125,"poi_name":"Gorod Baltiysk","parent_id":"554230","long":19.916669999999999873807610129006206989288330078125},"3":{"id":"825118","label":"Gorod Kaliningrad","value":"825118","lat":54.71667000000000058435034588910639286041259765625,"lon":20.416669999999999873807610129006206989288330078125,"poi_name":"Gorod Kaliningrad","parent_id":"554230","long":20.416669999999999873807610129006206989288330078125},"4":{"id":"825114","label":"Gorod Neman","value":"825114","lat":55.03332999999999941564965411089360713958740234375,"lon":22.03332999999999941564965411089360713958740234375,"poi_name":"Gorod Neman","parent_id":"554230","long":22.03332999999999941564965411089360713958740234375},"5":{"id":"825116","label":"Gorod Pionerskiy","value":"825116","lat":54.9500000000000028421709430404007434844970703125,"lon":20.233329999999998705106918350793421268463134765625,"poi_name":"Gorod Pionerskiy","parent_id":"554230","long":20.233329999999998705106918350793421268463134765625},"6":{"id":"825113","label":"Gorod Sovetsk","value":"825113","lat":55.08332999999999657347871107049286365509033203125,"lon":21.8833300000000008367351256310939788818359375,"poi_name":"Gorod Sovetsk","parent_id":"554230","long":21.8833300000000008367351256310939788818359375},"7":{"id":"825115","label":"Gorod Svetlogorsk","value":"825115","lat":54.9500000000000028421709430404007434844970703125,"lon":20.166669999999999873807610129006206989288330078125,"poi_name":"Gorod Svetlogorsk","parent_id":"554230","long":20.166669999999999873807610129006206989288330078125},"8":{"id":"825117","label":"Gorod Svetlyy","value":"825117","lat":54.66667000000000342652128892950713634490966796875,"lon":20.1166699999999991632648743689060211181640625,"poi_name":"Gorod Svetlyy","parent_id":"554230","long":20.1166699999999991632648743689060211181640625},"9":{"id":"557904","label":"Gur\u2019yevskiy Rayon","value":"557904","lat":54.75,"lon":20.583330000000000126192389870993793010711669921875,"poi_name":"Gur\u2019yevskiy Rayon","parent_id":"554230","long":20.583330000000000126192389870993793010711669921875},"10":{"id":"557841","label":"Gusevskiy Rayon","value":"557841","lat":54.6166699999999991632648743689060211181640625,"lon":22.166669999999999873807610129006206989288330078125,"poi_name":"Gusevskiy Rayon","parent_id":"554230","long":22.166669999999999873807610129006206989288330078125},"11":{"id":"557707","label":"Gvardeyskiy Rayon","value":"557707","lat":54.66667000000000342652128892950713634490966796875,"lon":21,"poi_name":"Gvardeyskiy Rayon","parent_id":"554230","long":21},"12":{"id":"541941","label":"Krasnoznamenskiy Rayon","value":"541941","lat":54.91667000000000342652128892950713634490966796875,"lon":22.5,"poi_name":"Krasnoznamenskiy Rayon","parent_id":"554230","long":22.5},"13":{"id":"522740","label":"Nemanskiy Rayon","value":"522740","lat":54.91667000000000342652128892950713634490966796875,"lon":22,"poi_name":"Nemanskiy Rayon","parent_id":"554230","long":22},"14":{"id":"522467","label":"Nesterovskiy Rayon","value":"522467","lat":54.58332999999999657347871107049286365509033203125,"lon":22.583330000000000126192389870993793010711669921875,"poi_name":"Nesterovskiy Rayon","parent_id":"554230","long":22.583330000000000126192389870993793010711669921875},"15":{"id":"513394","label":"Ozerskiy Rayon","value":"513394","lat":54.41667000000000342652128892950713634490966796875,"lon":22,"poi_name":"Ozerskiy Rayon","parent_id":"554230","long":22},"16":{"id":"507290","label":"Polesskiy Rayon","value":"507290","lat":54.83332999999999657347871107049286365509033203125,"lon":21.25,"poi_name":"Polesskiy Rayon","parent_id":"554230","long":21.25},"17":{"id":"505596","label":"Pravdinskiy Rayon","value":"505596","lat":54.41667000000000342652128892950713634490966796875,"lon":21.25,"poi_name":"Pravdinskiy Rayon","parent_id":"554230","long":21.25},"18":{"id":"492111","label":"Slavskiy Rayon","value":"492111","lat":55,"lon":21.666669999999999873807610129006206989288330078125,"poi_name":"Slavskiy Rayon","parent_id":"554230","long":21.666669999999999873807610129006206989288330078125},"19":{"id":"463825","label":"Zelenogradskiy Rayon","value":"463825","lat":54.83332999999999657347871107049286365509033203125,"lon":20.25,"poi_name":"Zelenogradskiy Rayon","parent_id":"554230","long":20.25}}