{"success":true,"remaining_lookups":7937,"0":{"id":"579567","label":"Baksanskiy Rayon","value":"579567","lat":43.75,"lon":43.5,"poi_name":"Baksanskiy Rayon","parent_id":"554667","long":43.5},"1":{"id":"569634","label":"Chegemskiy Rayon","value":"569634","lat":43.41667000000000342652128892950713634490966796875,"lon":43.25,"poi_name":"Chegemskiy Rayon","parent_id":"554667","long":43.25},"2":{"id":"490029","label":"Cherekskiy Rayon","value":"490029","lat":43.25,"lon":43.5,"poi_name":"Cherekskiy Rayon","parent_id":"554667","long":43.5},"3":{"id":"825097","label":"El\u2019brusskiy Rayon","value":"825097","lat":43.41667000000000342652128892950713634490966796875,"lon":42.83332999999999657347871107049286365509033203125,"poi_name":"El\u2019brusskiy Rayon","parent_id":"554667","long":42.83332999999999657347871107049286365509033203125},"4":{"id":"11205483","label":"Leskenskiy rayon","value":"11205483","lat":43.355559999999996989572537131607532501220703125,"lon":43.9413899999999983947418513707816600799560546875,"poi_name":"Leskenskiy rayon","parent_id":"554667","long":43.9413899999999983947418513707816600799560546875},"5":{"id":"528218","label":"Mayskiy Rayon","value":"528218","lat":43.66667000000000342652128892950713634490966796875,"lon":44.08332999999999657347871107049286365509033203125,"poi_name":"Mayskiy Rayon","parent_id":"554667","long":44.08332999999999657347871107049286365509033203125},"6":{"id":"825098","label":"Nalchik Urban Okrug","value":"825098","lat":43.5,"lon":43.58332999999999657347871107049286365509033203125,"poi_name":"Nalchik Urban Okrug","parent_id":"554667","long":43.58332999999999657347871107049286365509033203125},"7":{"id":"504938","label":"Prokhladnenskiy Rayon","value":"504938","lat":43.83332999999999657347871107049286365509033203125,"lon":44,"poi_name":"Prokhladnenskiy Rayon","parent_id":"554667","long":44},"8":{"id":"483273","label":"Terskiy Rayon","value":"483273","lat":43.58332999999999657347871107049286365509033203125,"lon":44.25,"poi_name":"Terskiy Rayon","parent_id":"554667","long":44.25},"9":{"id":"478559","label":"Urvanskiy Rayon","value":"478559","lat":43.41667000000000342652128892950713634490966796875,"lon":43.91667000000000342652128892950713634490966796875,"poi_name":"Urvanskiy Rayon","parent_id":"554667","long":43.91667000000000342652128892950713634490966796875},"10":{"id":"462156","label":"Zol\u2019skiy Rayon","value":"462156","lat":43.75,"lon":42.91667000000000342652128892950713634490966796875,"poi_name":"Zol\u2019skiy Rayon","parent_id":"554667","long":42.91667000000000342652128892950713634490966796875}}