{"success":true,"remaining_lookups":7945,"0":{"id":"571745","label":"Brasovskiy Rayon","value":"571745","lat":52.66667000000000342652128892950713634490966796875,"lon":34.75,"poi_name":"Brasovskiy Rayon","parent_id":"571473","long":34.75},"1":{"id":"571467","label":"Bryanskiy Rayon","value":"571467","lat":53.25,"lon":34.41667000000000342652128892950713634490966796875,"poi_name":"Bryanskiy Rayon","parent_id":"571473","long":34.41667000000000342652128892950713634490966796875},"2":{"id":"564343","label":"Dubrovskiy Rayon","value":"564343","lat":53.66667000000000342652128892950713634490966796875,"lon":33.41667000000000342652128892950713634490966796875,"poi_name":"Dubrovskiy Rayon","parent_id":"571473","long":33.41667000000000342652128892950713634490966796875},"3":{"id":"563821","label":"Dyat\u2019kovskiy Rayon","value":"563821","lat":53.66667000000000342652128892950713634490966796875,"lon":34.25,"poi_name":"Dyat\u2019kovskiy Rayon","parent_id":"571473","long":34.25},"4":{"id":"824993","label":"Gordeyevskiy Rayon","value":"824993","lat":52.91667000000000342652128892950713634490966796875,"lon":31.916669999999999873807610129006206989288330078125,"poi_name":"Gordeyevskiy Rayon","parent_id":"571473","long":31.916669999999999873807610129006206989288330078125},"5":{"id":"824997","label":"Gorod Bryansk","value":"824997","lat":53.25,"lon":34.41667000000000342652128892950713634490966796875,"poi_name":"Gorod Bryansk","parent_id":"571473","long":34.41667000000000342652128892950713634490966796875},"6":{"id":"824998","label":"Gorod Dyat\u2019kovo","value":"824998","lat":53.60000000000000142108547152020037174224853515625,"lon":34.35000000000000142108547152020037174224853515625,"poi_name":"Gorod Dyat\u2019kovo","parent_id":"571473","long":34.35000000000000142108547152020037174224853515625},"7":{"id":"824996","label":"Gorod Novozybkov","value":"824996","lat":52.53332999999999941564965411089360713958740234375,"lon":31.933330000000001547277861391194164752960205078125,"poi_name":"Gorod Novozybkov","parent_id":"571473","long":31.933330000000001547277861391194164752960205078125},"8":{"id":"552912","label":"Karachevskiy Rayon","value":"552912","lat":53.08332999999999657347871107049286365509033203125,"lon":35,"poi_name":"Karachevskiy Rayon","parent_id":"571473","long":35},"9":{"id":"547680","label":"Kletnyanskiy Rayon","value":"547680","lat":53.33332999999999657347871107049286365509033203125,"lon":33.16667000000000342652128892950713634490966796875,"poi_name":"Kletnyanskiy Rayon","parent_id":"571473","long":33.16667000000000342652128892950713634490966796875},"10":{"id":"547551","label":"Klimovskiy Rayon","value":"547551","lat":52.25,"lon":32.16667000000000342652128892950713634490966796875,"poi_name":"Klimovskiy Rayon","parent_id":"571473","long":32.16667000000000342652128892950713634490966796875},"11":{"id":"547477","label":"Klintsovskiy Rayon","value":"547477","lat":52.75,"lon":32.16667000000000342652128892950713634490966796875,"poi_name":"Klintsovskiy Rayon","parent_id":"571473","long":32.16667000000000342652128892950713634490966796875},"12":{"id":"545945","label":"Komarichskiy Rayon","value":"545945","lat":52.41667000000000342652128892950713634490966796875,"lon":34.75,"poi_name":"Komarichskiy Rayon","parent_id":"571473","long":34.75},"13":{"id":"542364","label":"Krasnogorskiy Rayon","value":"542364","lat":53,"lon":31.5,"poi_name":"Krasnogorskiy Rayon","parent_id":"571473","long":31.5},"14":{"id":"527216","label":"Mglinskiy Rayon","value":"527216","lat":53.16667000000000342652128892950713634490966796875,"lon":32.83332999999999657347871107049286365509033203125,"poi_name":"Mglinskiy Rayon","parent_id":"571473","long":32.83332999999999657347871107049286365509033203125},"15":{"id":"523187","label":"Navlinskiy Rayon","value":"523187","lat":52.83332999999999657347871107049286365509033203125,"lon":34.41667000000000342652128892950713634490966796875,"poi_name":"Navlinskiy Rayon","parent_id":"571473","long":34.41667000000000342652128892950713634490966796875},"16":{"id":"517267","label":"Novozybkovskiy Rayon","value":"517267","lat":52.58332999999999657347871107049286365509033203125,"lon":31.833330000000000126192389870993793010711669921875,"poi_name":"Novozybkovskiy Rayon","parent_id":"571473","long":31.833330000000000126192389870993793010711669921875},"17":{"id":"508648","label":"Pochepskiy Rayon","value":"508648","lat":52.91667000000000342652128892950713634490966796875,"lon":33.5,"poi_name":"Pochepskiy Rayon","parent_id":"571473","long":33.5},"18":{"id":"507867","label":"Pogarskiy Rayon","value":"507867","lat":52.5,"lon":33.25,"poi_name":"Pogarskiy Rayon","parent_id":"571473","long":33.25},"19":{"id":"501624","label":"Rognedinskiy Rayon","value":"501624","lat":53.83332999999999657347871107049286365509033203125,"lon":33.66667000000000342652128892950713634490966796875,"poi_name":"Rognedinskiy Rayon","parent_id":"571473","long":33.66667000000000342652128892950713634490966796875},"20":{"id":"496244","label":"Sevskiy Rayon","value":"496244","lat":52.08332999999999657347871107049286365509033203125,"lon":34.41667000000000342652128892950713634490966796875,"poi_name":"Sevskiy Rayon","parent_id":"571473","long":34.41667000000000342652128892950713634490966796875},"21":{"id":"488848","label":"Starodubskiy Rayon","value":"488848","lat":52.5,"lon":32.75,"poi_name":"Starodubskiy Rayon","parent_id":"571473","long":32.75},"22":{"id":"486147","label":"Surazhskiy Rayon","value":"486147","lat":53.08332999999999657347871107049286365509033203125,"lon":32.41667000000000342652128892950713634490966796875,"poi_name":"Surazhskiy Rayon","parent_id":"571473","long":32.41667000000000342652128892950713634490966796875},"23":{"id":"485815","label":"Suzemskiy Rayon","value":"485815","lat":52.41667000000000342652128892950713634490966796875,"lon":34.16667000000000342652128892950713634490966796875,"poi_name":"Suzemskiy Rayon","parent_id":"571473","long":34.16667000000000342652128892950713634490966796875},"24":{"id":"481349","label":"Trubchevskiy Rayon","value":"481349","lat":52.58332999999999657347871107049286365509033203125,"lon":33.75,"poi_name":"Trubchevskiy Rayon","parent_id":"571473","long":33.75},"25":{"id":"479010","label":"Unechskiy Rayon","value":"479010","lat":52.83332999999999657347871107049286365509033203125,"lon":32.83332999999999657347871107049286365509033203125,"poi_name":"Unechskiy Rayon","parent_id":"571473","long":32.83332999999999657347871107049286365509033203125},"26":{"id":"470470","label":"Vygonichskiy Rayon","value":"470470","lat":53.08332999999999657347871107049286365509033203125,"lon":34,"poi_name":"Vygonichskiy Rayon","parent_id":"571473","long":34},"27":{"id":"824994","label":"Zhiryatinskiy Rayon","value":"824994","lat":53.25,"lon":33.58332999999999657347871107049286365509033203125,"poi_name":"Zhiryatinskiy Rayon","parent_id":"571473","long":33.58332999999999657347871107049286365509033203125},"28":{"id":"462753","label":"Zhukovskiy Rayon","value":"462753","lat":53.5,"lon":33.83332999999999657347871107049286365509033203125,"poi_name":"Zhukovskiy Rayon","parent_id":"571473","long":33.83332999999999657347871107049286365509033203125},"29":{"id":"824995","label":"Zlynkovskiy Rayon","value":"824995","lat":52.53916000000000252612153417430818080902099609375,"lon":33.6022999999999996134647517465054988861083984375,"poi_name":"Zlynkovskiy Rayon","parent_id":"571473","long":33.6022999999999996134647517465054988861083984375}}