{"success":true,"remaining_lookups":9441,"0":{"id":"6543946","label":"Favrskov Kommune","value":"6543946","lat":56.3166700000000020054358174093067646026611328125,"lon":9.9399999999999995026200849679298698902130126953125,"poi_name":"Favrskov Kommune","parent_id":"6418539","long":9.9399999999999995026200849679298698902130126953125},"1":{"id":"2620581","label":"Hedensted Kommune","value":"2620581","lat":55.79679999999999751025825389660894870758056640625,"lon":9.743999999999999772626324556767940521240234375,"poi_name":"Hedensted Kommune","parent_id":"6418539","long":9.743999999999999772626324556767940521240234375},"2":{"id":"2620423","label":"Herning Kommune","value":"2620423","lat":56.14997000000000326735971611924469470977783203125,"lon":8.8971199999999992513721736031584441661834716796875,"poi_name":"Herning Kommune","parent_id":"6418539","long":8.8971199999999992513721736031584441661834716796875},"3":{"id":"2620045","label":"Holstebro Kommune","value":"2620045","lat":56.359160000000002810338628478348255157470703125,"lon":8.5963100000000007838707460905425250530242919921875,"poi_name":"Holstebro Kommune","parent_id":"6418539","long":8.5963100000000007838707460905425250530242919921875},"4":{"id":"2619767","label":"Horsens Kommune","value":"2619767","lat":55.92739999999999866986399865709245204925537109375,"lon":9.7737700000000007349854058702476322650909423828125,"poi_name":"Horsens Kommune","parent_id":"6418539","long":9.7737700000000007349854058702476322650909423828125},"5":{"id":"6543944","label":"Ikast-Brande Kommune","value":"6543944","lat":55.98333000000000225782059715129435062408447265625,"lon":9.21667000000000058435034588910639286041259765625,"poi_name":"Ikast-Brande Kommune","parent_id":"6418539","long":9.21667000000000058435034588910639286041259765625},"6":{"id":"2617811","label":"Lemvig Kommune","value":"2617811","lat":56.4913600000000002410160959698259830474853515625,"lon":8.29926999999999992496668710373342037200927734375,"poi_name":"Lemvig Kommune","parent_id":"6418539","long":8.29926999999999992496668710373342037200927734375},"7":{"id":"6543933","label":"Norddjurs Kommune","value":"6543933","lat":56.44124000000000052068571676500141620635986328125,"lon":10.766600000000000392219590139575302600860595703125,"poi_name":"Norddjurs Kommune","parent_id":"6418539","long":10.766600000000000392219590139575302600860595703125},"8":{"id":"2615884","label":"Odder Kommune","value":"2615884","lat":55.9296700000000015506884665228426456451416015625,"lon":10.153040000000000731006366549991071224212646484375,"poi_name":"Odder Kommune","parent_id":"6418539","long":10.153040000000000731006366549991071224212646484375},"9":{"id":"2615003","label":"Randers Kommune","value":"2615003","lat":56.51561000000000234422259381972253322601318359375,"lon":10.0690100000000004598632585839368402957916259765625,"poi_name":"Randers Kommune","parent_id":"6418539","long":10.0690100000000004598632585839368402957916259765625},"10":{"id":"6543932","label":"Ringk\u00f8bing-Skjern Kommune","value":"6543932","lat":56.00999999999999801048033987171947956085205078125,"lon":8.396670000000000300133251585066318511962890625,"poi_name":"Ringk\u00f8bing-Skjern Kommune","parent_id":"6418539","long":8.396670000000000300133251585066318511962890625},"11":{"id":"2614281","label":"Sams\u00f8 Kommune","value":"2614281","lat":55.85244999999999748752088635228574275970458984375,"lon":10.6004500000000003723243935382924973964691162109375,"poi_name":"Sams\u00f8 Kommune","parent_id":"6418539","long":10.6004500000000003723243935382924973964691162109375},"12":{"id":"2614029","label":"Silkeborg Kommune","value":"2614029","lat":56.17495000000000260342858382500708103179931640625,"lon":9.546659999999999257624949677847325801849365234375,"poi_name":"Silkeborg Kommune","parent_id":"6418539","long":9.546659999999999257624949677847325801849365234375},"13":{"id":"2613886","label":"Skanderborg Kommune","value":"2613886","lat":56.0795600000000007412381819449365139007568359375,"lon":9.8986800000000005894662535865791141986846923828125,"poi_name":"Skanderborg Kommune","parent_id":"6418539","long":9.8986800000000005894662535865791141986846923828125},"14":{"id":"2613729","label":"Skive Kommune","value":"2613729","lat":56.644779999999997244231053628027439117431640625,"lon":8.9765999999999994685140336514450609683990478515625,"poi_name":"Skive Kommune","parent_id":"6418539","long":8.9765999999999994685140336514450609683990478515625},"15":{"id":"2612202","label":"Struer Kommune","value":"2612202","lat":56.46667000000000058435034588910639286041259765625,"lon":8.583330000000000126192389870993793010711669921875,"poi_name":"Struer Kommune","parent_id":"6418539","long":8.583330000000000126192389870993793010711669921875},"16":{"id":"6543947","label":"Syddjurs Kommune","value":"6543947","lat":56.3125,"lon":10.520830000000000126192389870993793010711669921875,"poi_name":"Syddjurs Kommune","parent_id":"6418539","long":10.520830000000000126192389870993793010711669921875},"17":{"id":"2610315","label":"Viborg Kommune","value":"2610315","lat":56.4500000000000028421709430404007434844970703125,"lon":9.3666699999999991632648743689060211181640625,"poi_name":"Viborg Kommune","parent_id":"6418539","long":9.3666699999999991632648743689060211181640625},"18":{"id":"2624647","label":"\u00c5rhus Kommune","value":"2624647","lat":56.16317000000000092541085905395448207855224609375,"lon":10.1689699999999998425437297555617988109588623046875,"poi_name":"\u00c5rhus Kommune","parent_id":"6418539","long":10.1689699999999998425437297555617988109588623046875}}