{"success":true,"remaining_lookups":8356,"0":{"id":"2141721","label":"Bouloupari","value":"2141721","lat":-21.86070000000000135287336888723075389862060546875,"lon":166.05131000000000085492501966655254364013671875,"poi_name":"Bouloupari","parent_id":"2140464","long":166.05131000000000085492501966655254364013671875},"1":{"id":"2141713","label":"Bourail","value":"2141713","lat":-21.566669999999998452722138608805835247039794921875,"lon":165.466669999999993478922988288104534149169921875,"poi_name":"Bourail","parent_id":"2140464","long":165.466669999999993478922988288104534149169921875},"2":{"id":"2141390","label":"Dumb\u00e9a","value":"2141390","lat":-22.149570000000000646878106635995209217071533203125,"lon":166.447329999999993788151186890900135040283203125,"poi_name":"Dumb\u00e9a","parent_id":"2140464","long":166.447329999999993788151186890900135040283203125},"3":{"id":"2141314","label":"Farino","value":"2141314","lat":-21.66508999999999929286786937154829502105712890625,"lon":165.775970000000000936779542826116085052490234375,"poi_name":"Farino","parent_id":"2140464","long":165.775970000000000936779542826116085052490234375},"4":{"id":"7521418","label":"La Foa","value":"7521418","lat":-21.707909999999998262865119613707065582275390625,"lon":165.825230000000004793037078343331813812255859375,"poi_name":"La Foa","parent_id":"2140464","long":165.825230000000004793037078343331813812255859375},"5":{"id":"2140065","label":"Le Mont-Dore","value":"2140065","lat":-22.27987999999999857436705497093498706817626953125,"lon":166.580540000000013378667063079774379730224609375,"poi_name":"Le Mont-Dore","parent_id":"2140464","long":166.580540000000013378667063079774379730224609375},"6":{"id":"2140960","label":"L\u2019\u00cele des Pins","value":"2140960","lat":-22.6166699999999991632648743689060211181640625,"lon":167.483329999999995152393239550292491912841796875,"poi_name":"L\u2019\u00cele des Pins","parent_id":"2140464","long":167.483329999999995152393239550292491912841796875},"7":{"id":"2140108","label":"Moindou","value":"2140108","lat":-21.69857999999999975671016727574169635772705078125,"lon":165.680350000000004229150363244116306304931640625,"poi_name":"Moindou","parent_id":"2140464","long":165.680350000000004229150363244116306304931640625},"8":{"id":"2139520","label":"Noum\u00e9a","value":"2139520","lat":-22.266670000000001294893081649206578731536865234375,"lon":166.466669999999993478922988288104534149169921875,"poi_name":"Noum\u00e9a","parent_id":"2140464","long":166.466669999999993478922988288104534149169921875},"9":{"id":"2138980","label":"Pa\u00efta","value":"2138980","lat":-22.129850000000001131184035330079495906829833984375,"lon":166.363910000000004174580681137740612030029296875,"poi_name":"Pa\u00efta","parent_id":"2140464","long":166.363910000000004174580681137740612030029296875},"10":{"id":"2138354","label":"Sarram\u00e9a","value":"2138354","lat":-21.642109999999998848352333880029618740081787109375,"lon":165.8451499999999896317603997886180877685546875,"poi_name":"Sarram\u00e9a","parent_id":"2140464","long":165.8451499999999896317603997886180877685546875},"11":{"id":"2138101","label":"Thio","value":"2138101","lat":-21.60573000000000121190169011242687702178955078125,"lon":166.2145600000000058571458794176578521728515625,"poi_name":"Thio","parent_id":"2140464","long":166.2145600000000058571458794176578521728515625},"12":{"id":"2137647","label":"Yat\u00e9","value":"2137647","lat":-22.083330000000000126192389870993793010711669921875,"lon":166.75,"poi_name":"Yat\u00e9","parent_id":"2140464","long":166.75}}