{"success":true,"remaining_lookups":9292,"0":{"id":"7667869","label":"Alaba Special Wereda","value":"7667869","lat":7.45347000000000026176394385402090847492218017578125,"lon":38.2118899999999968031261232681572437286376953125,"poi_name":"Alaba Special Wereda","parent_id":"444188","long":38.2118899999999968031261232681572437286376953125},"1":{"id":"9410266","label":"Amaro Special Woreda","value":"9410266","lat":5.833330000000000126192389870993793010711669921875,"lon":37.83332999999999657347871107049286365509033203125,"poi_name":"Amaro Special Woreda","parent_id":"444188","long":37.83332999999999657347871107049286365509033203125},"2":{"id":"9410112","label":"Basketo Special Woreda","value":"9410112","lat":6.25,"lon":36.58332999999999657347871107049286365509033203125,"poi_name":"Basketo Special Woreda","parent_id":"444188","long":36.58332999999999657347871107049286365509033203125},"3":{"id":"331677","label":"Bench Maji Zone","value":"331677","lat":6.459939999999999571400621789507567882537841796875,"lon":35.30548999999999892906998866237699985504150390625,"poi_name":"Bench Maji Zone","parent_id":"444188","long":35.30548999999999892906998866237699985504150390625},"4":{"id":"9410501","label":"Burji Special Woreda","value":"9410501","lat":5.5,"lon":37.83332999999999657347871107049286365509033203125,"poi_name":"Burji Special Woreda","parent_id":"444188","long":37.83332999999999657347871107049286365509033203125},"5":{"id":"11750822","label":"Dawro","value":"11750822","lat":6.95704000000000011283418643870390951633453369140625,"lon":37.10043999999999897454472375102341175079345703125,"poi_name":"Dawro","parent_id":"444188","long":37.10043999999999897454472375102341175079345703125},"6":{"id":"7670729","label":"Dawuro","value":"7670729","lat":6.96985000000000010089706847793422639369964599609375,"lon":37.108620000000001937223714776337146759033203125,"poi_name":"Dawuro","parent_id":"444188","long":37.108620000000001937223714776337146759033203125},"7":{"id":"9410393","label":"Dirashe Special Woreda","value":"9410393","lat":5.666669999999999873807610129006206989288330078125,"lon":37.33332999999999657347871107049286365509033203125,"poi_name":"Dirashe Special Woreda","parent_id":"444188","long":37.33332999999999657347871107049286365509033203125},"8":{"id":"9159975","label":"Gamo Gofa Zone","value":"9159975","lat":6.25,"lon":37,"poi_name":"Gamo Gofa Zone","parent_id":"444188","long":37},"9":{"id":"7670732","label":"Gedeo Zone","value":"7670732","lat":6.12727000000000021628920876537449657917022705078125,"lon":38.27716000000000207137418328784406185150146484375,"poi_name":"Gedeo Zone","parent_id":"444188","long":38.27716000000000207137418328784406185150146484375},"10":{"id":"11750825","label":"Gedio","value":"11750825","lat":6.1412800000000000721911419532261788845062255859375,"lon":38.2521100000000018326318240724503993988037109375,"poi_name":"Gedio","parent_id":"444188","long":38.2521100000000018326318240724503993988037109375},"11":{"id":"341021","label":"Guraghe Zone","value":"341021","lat":8.25,"lon":38,"poi_name":"Guraghe Zone","parent_id":"444188","long":38},"12":{"id":"333384","label":"Hadiya Zone","value":"333384","lat":7.5,"lon":37.75,"poi_name":"Hadiya Zone","parent_id":"444188","long":37.75},"13":{"id":"333465","label":"Kaffa Zone","value":"333465","lat":7.1796600000000001529087967355735599994659423828125,"lon":36.047899999999998499333742074668407440185546875,"poi_name":"Kaffa Zone","parent_id":"444188","long":36.047899999999998499333742074668407440185546875},"14":{"id":"8260659","label":"Keficho Shekicho Zone","value":"8260659","lat":7.25,"lon":36,"poi_name":"Keficho Shekicho Zone","parent_id":"444188","long":36},"15":{"id":"7667870","label":"Kembata Alaba Tembaro Zone","value":"7667870","lat":7.27038999999999990819787853979505598545074462890625,"lon":37.7788699999999977308107190765440464019775390625,"poi_name":"Kembata Alaba Tembaro Zone","parent_id":"444188","long":37.7788699999999977308107190765440464019775390625},"16":{"id":"9410442","label":"Konso Special Woreda","value":"9410442","lat":5.333330000000000126192389870993793010711669921875,"lon":37.33332999999999657347871107049286365509033203125,"poi_name":"Konso Special Woreda","parent_id":"444188","long":37.33332999999999657347871107049286365509033203125},"17":{"id":"11750821","label":"Konta","value":"11750821","lat":6.87065999999999998948396751075051724910736083984375,"lon":36.57260000000000133013600134290754795074462890625,"poi_name":"Konta","parent_id":"444188","long":36.57260000000000133013600134290754795074462890625},"18":{"id":"11750824","label":"Segen Peoples","value":"11750824","lat":5.54624999999999968025576890795491635799407958984375,"lon":37.55151000000000038880898500792682170867919921875,"poi_name":"Segen Peoples","parent_id":"444188","long":37.55151000000000038880898500792682170867919921875},"19":{"id":"11750826","label":"Selti","value":"11750826","lat":7.7919900000000001938360583153553307056427001953125,"lon":38.23290999999999684177964809350669384002685546875,"poi_name":"Selti","parent_id":"444188","long":38.23290999999999684177964809350669384002685546875},"20":{"id":"11750820","label":"Sheka","value":"11750820","lat":7.561659999999999826059138285927474498748779296875,"lon":35.40173999999999665533323423005640506744384765625,"poi_name":"Sheka","parent_id":"444188","long":35.40173999999999665533323423005640506744384765625},"21":{"id":"8299784","label":"Sidama Zone","value":"8299784","lat":6.717999999999999971578290569595992565155029296875,"lon":38.44800000000000039790393202565610408782958984375,"poi_name":"Sidama Zone","parent_id":"444188","long":38.44800000000000039790393202565610408782958984375},"22":{"id":"7670728","label":"Siltie Zone","value":"7670728","lat":7.83218999999999976324716044473461806774139404296875,"lon":38.268720000000001846274244599044322967529296875,"poi_name":"Siltie Zone","parent_id":"444188","long":38.268720000000001846274244599044322967529296875},"23":{"id":"7729829","label":"South Omo","value":"7729829","lat":5.4620800000000002683009370230138301849365234375,"lon":36.40147999999999939291228656657040119171142578125,"poi_name":"South Omo","parent_id":"444188","long":36.40147999999999939291228656657040119171142578125},"24":{"id":"10377041","label":"South Omo Zone","value":"10377041","lat":5.5,"lon":36.5,"poi_name":"South Omo Zone","parent_id":"444188","long":36.5},"25":{"id":"326423","label":"Wolayita Zone","value":"326423","lat":6.84311999999999986954435371444560587406158447265625,"lon":37.70051000000000129830368678085505962371826171875,"poi_name":"Wolayita Zone","parent_id":"444188","long":37.70051000000000129830368678085505962371826171875},"26":{"id":"7670680","label":"Yem","value":"7670680","lat":7.833330000000000126192389870993793010711669921875,"lon":37.5,"poi_name":"Yem","parent_id":"444188","long":37.5}}