{"success":true,"remaining_lookups":9291,"0":{"id":"7869875","label":"Central Tigray Zone","value":"7869875","lat":13.7850699999999992684251992614008486270904541015625,"lon":38.820549999999997226041159592568874359130859375,"poi_name":"Central Tigray Zone","parent_id":"444187","long":38.820549999999997226041159592568874359130859375},"1":{"id":"7869879","label":"Eastern Tigray Zone","value":"7869879","lat":14.1153999999999992809307514107786118984222412109375,"lon":39.5869900000000001227817847393453121185302734375,"poi_name":"Eastern Tigray Zone","parent_id":"444187","long":39.5869900000000001227817847393453121185302734375},"2":{"id":"8643579","label":"Mekelle","value":"8643579","lat":13.4978099999999994196286934311501681804656982421875,"lon":39.5439099999999967849362292326986789703369140625,"poi_name":"Mekelle","parent_id":"444187","long":39.5439099999999967849362292326986789703369140625},"3":{"id":"8643826","label":"Mi'irabawi Zone","value":"8643826","lat":13.75,"lon":37,"poi_name":"Mi'irabawi Zone","parent_id":"444187","long":37},"4":{"id":"7869945","label":"North Western Tigray","value":"7869945","lat":14.020379999999999398596628452651202678680419921875,"lon":38.1638999999999981582732289098203182220458984375,"poi_name":"North Western Tigray","parent_id":"444187","long":38.1638999999999981582732289098203182220458984375},"5":{"id":"11153778","label":"Southeastern Tigray Zone","value":"11153778","lat":13.2479700000000004678213372244499623775482177734375,"lon":39.5315599999999989222487783990800380706787109375,"poi_name":"Southeastern Tigray Zone","parent_id":"444187","long":39.5315599999999989222487783990800380706787109375},"6":{"id":"7667868","label":"Southern Tigray Zone","value":"7667868","lat":12.9603300000000007941025614854879677295684814453125,"lon":39.52830999999999761485014460049569606781005859375,"poi_name":"Southern Tigray Zone","parent_id":"444187","long":39.52830999999999761485014460049569606781005859375},"7":{"id":"11750806","label":"Western","value":"11750806","lat":13.856809999999999405417838715948164463043212890625,"lon":37.10707000000000022055246517993509769439697265625,"poi_name":"Western","parent_id":"444187","long":37.10707000000000022055246517993509769439697265625}}