{"success":true,"remaining_lookups":8760,"0":{"id":"788730","label":"Komuna e Leposaviqit","value":"788730","lat":43.1166699999999991632648743689060211181640625,"lon":20.78332999999999941564965411089360713958740234375,"poi_name":"Komuna e Leposaviqit","parent_id":"10097358","long":20.78332999999999941564965411089360713958740234375},"1":{"id":"785059","label":"Komuna e Mitrovic\u00ebs","value":"785059","lat":42.91667000000000342652128892950713634490966796875,"lon":20.8833300000000008367351256310939788818359375,"poi_name":"Komuna e Mitrovic\u00ebs","parent_id":"10097358","long":20.8833300000000008367351256310939788818359375},"2":{"id":"785641","label":"Komuna e Skenderajt","value":"785641","lat":42.73333000000000225782059715129435062408447265625,"lon":20.78332999999999941564965411089360713958740234375,"poi_name":"Komuna e Skenderajt","parent_id":"10097358","long":20.78332999999999941564965411089360713958740234375},"3":{"id":"831105","label":"Komuna e Zubin Potokut","value":"831105","lat":42.91667000000000342652128892950713634490966796875,"lon":20.6333300000000008367351256310939788818359375,"poi_name":"Komuna e Zubin Potokut","parent_id":"10097358","long":20.6333300000000008367351256310939788818359375},"4":{"id":"10098790","label":"Mitrovica Veriore","value":"10098790","lat":42.89497999999999677811501896940171718597412109375,"lon":20.86489999999999866986399865709245204925537109375,"poi_name":"Mitrovica Veriore","parent_id":"10097358","long":20.86489999999999866986399865709245204925537109375},"5":{"id":"831106","label":"Op\u0161tina Zve\u010dan","value":"831106","lat":42.982709999999997307895682752132415771484375,"lon":20.77523000000000052978066378273069858551025390625,"poi_name":"Op\u0161tina Zve\u010dan","parent_id":"10097358","long":20.77523000000000052978066378273069858551025390625},"6":{"id":"784096","label":"Vushtrri","value":"784096","lat":42.7999999999999971578290569595992565155029296875,"lon":20.983329999999998705106918350793421268463134765625,"poi_name":"Vushtrri","parent_id":"10097358","long":20.983329999999998705106918350793421268463134765625}}