{"success":true,"remaining_lookups":7623,"0":{"id":"164946","label":"Al-Salamiyah District","value":"164946","lat":35.14397999999999910869519226253032684326171875,"lon":37.59235000000000326281224261038005352020263671875,"poi_name":"Al-Salamiyah District","parent_id":"170015","long":37.59235000000000326281224261038005352020263671875},"1":{"id":"173885","label":"Al-Suqaylabiyah District","value":"173885","lat":35.48102000000000089130480773746967315673828125,"lon":36.32441000000000030922819860279560089111328125,"poi_name":"Al-Suqaylabiyah District","parent_id":"170015","long":36.32441000000000030922819860279560089111328125},"2":{"id":"170016","label":"Hama District","value":"170016","lat":35.2857699999999994133759173564612865447998046875,"lon":37.1262600000000020372681319713592529296875,"poi_name":"Hama District","parent_id":"170015","long":37.1262600000000020372681319713592529296875},"3":{"id":"167044","label":"Masyaf District","value":"167044","lat":35.10334999999999894271240918897092342376708984375,"lon":36.33919999999999816964191268198192119598388671875,"poi_name":"Masyaf District","parent_id":"170015","long":36.33919999999999816964191268198192119598388671875},"4":{"id":"8276860","label":"Mhardeh District","value":"8276860","lat":35.30022999999999910869519226253032684326171875,"lon":36.548439999999999372448655776679515838623046875,"poi_name":"Mhardeh District","parent_id":"170015","long":36.548439999999999372448655776679515838623046875}}