{"success":true,"remaining_lookups":9030,"0":{"id":"8986057","label":"Angul District","value":"8986057","lat":20.849029999999999063220457173883914947509765625,"lon":85.06078999999999723513610661029815673828125,"poi_name":"Angul District","parent_id":"1261029","long":85.06078999999999723513610661029815673828125},"1":{"id":"1277644","label":"Bal\u0101ng\u012br","value":"1277644","lat":20.75,"lon":83.25,"poi_name":"Bal\u0101ng\u012br","parent_id":"1261029","long":83.25},"2":{"id":"8740091","label":"Baragarh","value":"8740091","lat":21.333330000000000126192389870993793010711669921875,"lon":83.6166699999999991632648743689060211181640625,"poi_name":"Baragarh","parent_id":"1261029","long":83.6166699999999991632648743689060211181640625},"3":{"id":"8996923","label":"Baudh","value":"8996923","lat":20.832999999999998408384271897375583648681640625,"lon":84.332999999999998408384271897375583648681640625,"poi_name":"Baudh","parent_id":"1261029","long":84.332999999999998408384271897375583648681640625},"4":{"id":"7644924","label":"Bhadrak","value":"7644924","lat":21,"lon":86.599999999999994315658113919198513031005859375,"poi_name":"Bhadrak","parent_id":"1261029","long":86.599999999999994315658113919198513031005859375},"5":{"id":"1277600","label":"B\u0101leshwar","value":"1277600","lat":21.5,"lon":86.75,"poi_name":"B\u0101leshwar","parent_id":"1261029","long":86.75},"6":{"id":"1273781","label":"Cuttack","value":"1273781","lat":20.5,"lon":86.25,"poi_name":"Cuttack","parent_id":"1261029","long":86.25},"7":{"id":"9747968","label":"Debagarh","value":"9747968","lat":21.465939999999999798774297232739627361297607421875,"lon":84.803709999999995261532603763043880462646484375,"poi_name":"Debagarh","parent_id":"1261029","long":84.803709999999995261532603763043880462646484375},"8":{"id":"1272781","label":"Dhenk\u0101n\u0101l","value":"1272781","lat":20.75,"lon":85.5,"poi_name":"Dhenk\u0101n\u0101l","parent_id":"1261029","long":85.5},"9":{"id":"8533699","label":"Gajapati","value":"8533699","lat":18.910000000000000142108547152020037174224853515625,"lon":84.2000000000000028421709430404007434844970703125,"poi_name":"Gajapati","parent_id":"1261029","long":84.2000000000000028421709430404007434844970703125},"10":{"id":"1271622","label":"Ganj\u0101m","value":"1271622","lat":19.5,"lon":84.5,"poi_name":"Ganj\u0101m","parent_id":"1261029","long":84.5},"11":{"id":"7644925","label":"Jagatsinghpur","value":"7644925","lat":20.199999999999999289457264239899814128875732421875,"lon":86.2999999999999971578290569595992565155029296875,"poi_name":"Jagatsinghpur","parent_id":"1261029","long":86.2999999999999971578290569595992565155029296875},"12":{"id":"9645384","label":"Jajpur","value":"9645384","lat":20.84149000000000029331204132176935672760009765625,"lon":86.3123700000000013687895261682569980621337890625,"poi_name":"Jajpur","parent_id":"1261029","long":86.3123700000000013687895261682569980621337890625},"13":{"id":"7627179","label":"Jharsuguda","value":"7627179","lat":21.85000000000000142108547152020037174224853515625,"lon":84,"poi_name":"Jharsuguda","parent_id":"1261029","long":84},"14":{"id":"7627181","label":"Kandhamal","value":"7627181","lat":20.300000000000000710542735760100185871124267578125,"lon":84,"poi_name":"Kandhamal","parent_id":"1261029","long":84},"15":{"id":"7644926","label":"Kendrapara","value":"7644926","lat":20.5,"lon":86.5,"poi_name":"Kendrapara","parent_id":"1261029","long":86.5},"16":{"id":"1267268","label":"Kendujhar","value":"1267268","lat":21.5,"lon":85.5,"poi_name":"Kendujhar","parent_id":"1261029","long":85.5},"17":{"id":"7644927","label":"Khordha","value":"7644927","lat":20.199999999999999289457264239899814128875732421875,"lon":85.599999999999994315658113919198513031005859375,"poi_name":"Khordha","parent_id":"1261029","long":85.599999999999994315658113919198513031005859375},"18":{"id":"1266129","label":"Koraput","value":"1266129","lat":19,"lon":83,"poi_name":"Koraput","parent_id":"1261029","long":83},"19":{"id":"1268508","label":"K\u0101l\u0101handi","value":"1268508","lat":19.75,"lon":83,"poi_name":"K\u0101l\u0101handi","parent_id":"1261029","long":83},"20":{"id":"7627182","label":"Malkangiri","value":"7627182","lat":18.25,"lon":81.9500000000000028421709430404007434844970703125,"poi_name":"Malkangiri","parent_id":"1261029","long":81.9500000000000028421709430404007434844970703125},"21":{"id":"1263245","label":"May\u016brbhanj","value":"1263245","lat":21.75,"lon":86.5,"poi_name":"May\u016brbhanj","parent_id":"1261029","long":86.5},"22":{"id":"8908677","label":"Nabarangpur","value":"8908677","lat":19.2332999999999998408384271897375583648681640625,"lon":82.5499999999999971578290569595992565155029296875,"poi_name":"Nabarangpur","parent_id":"1261029","long":82.5499999999999971578290569595992565155029296875},"23":{"id":"8986741","label":"Nayagarh District","value":"8986741","lat":20.129999999999999005240169935859739780426025390625,"lon":85.099999999999994315658113919198513031005859375,"poi_name":"Nayagarh District","parent_id":"1261029","long":85.099999999999994315658113919198513031005859375},"24":{"id":"8533697","label":"Nuapada","value":"8533697","lat":20.60000000000000142108547152020037174224853515625,"lon":82.5,"poi_name":"Nuapada","parent_id":"1261029","long":82.5},"25":{"id":"7644928","label":"Puri","value":"7644928","lat":19.89999999999999857891452847979962825775146484375,"lon":85.599999999999994315658113919198513031005859375,"poi_name":"Puri","parent_id":"1261029","long":85.599999999999994315658113919198513031005859375},"26":{"id":"7627183","label":"Rayagada","value":"7627183","lat":19.39999999999999857891452847979962825775146484375,"lon":83.5,"poi_name":"Rayagada","parent_id":"1261029","long":83.5},"27":{"id":"1257544","label":"Sambalpur","value":"1257544","lat":21.39999999999999857891452847979962825775146484375,"lon":83.8833300000000008367351256310939788818359375,"poi_name":"Sambalpur","parent_id":"1261029","long":83.8833300000000008367351256310939788818359375},"28":{"id":"9748032","label":"Subarnapur","value":"9748032","lat":20.9315399999999982583176461048424243927001953125,"lon":83.82486000000000103682396002113819122314453125,"poi_name":"Subarnapur","parent_id":"1261029","long":83.82486000000000103682396002113819122314453125},"29":{"id":"1255438","label":"Sundargarh","value":"1255438","lat":22.25,"lon":84.5,"poi_name":"Sundargarh","parent_id":"1261029","long":84.5}}