{"success":true,"remaining_lookups":9047,"0":{"id":"1271512","label":"East G\u0101ro Hills","value":"1271512","lat":25.791910000000001446096575818955898284912109375,"lon":90.575140000000004647517926059663295745849609375,"poi_name":"East G\u0101ro Hills","parent_id":"1263207","long":90.575140000000004647517926059663295745849609375},"1":{"id":"1266857","label":"East Kh\u0101si Hills","value":"1266857","lat":25.380500000000001392663762089796364307403564453125,"lon":91.789050000000003137756721116602420806884765625,"poi_name":"East Kh\u0101si Hills","parent_id":"1263207","long":91.789050000000003137756721116602420806884765625},"2":{"id":"1269523","label":"Jaintia Hills","value":"1269523","lat":25.5,"lon":92.25,"poi_name":"Jaintia Hills","parent_id":"1263207","long":92.25},"3":{"id":"7701507","label":"Ri-Bhoi","value":"7701507","lat":25.889970000000001704165697447024285793304443359375,"lon":91.8270700000000061891114455647766590118408203125,"poi_name":"Ri-Bhoi","parent_id":"1263207","long":91.8270700000000061891114455647766590118408203125},"4":{"id":"9748015","label":"South Garo Hills","value":"9748015","lat":25.3016199999999997771737980656325817108154296875,"lon":90.5853000000000037061909097246825695037841796875,"poi_name":"South Garo Hills","parent_id":"1263207","long":90.5853000000000037061909097246825695037841796875},"5":{"id":"8986228","label":"West Garo Hills","value":"8986228","lat":25.56794000000000011141310096718370914459228515625,"lon":90.2244699999999966166797094047069549560546875,"poi_name":"West Garo Hills","parent_id":"1263207","long":90.2244699999999966166797094047069549560546875},"6":{"id":"7701511","label":"West Khasi Hills","value":"7701511","lat":25.547760000000000246700437855906784534454345703125,"lon":91.2695700000000016416379367001354694366455078125,"poi_name":"West Khasi Hills","parent_id":"1263207","long":91.2695700000000016416379367001354694366455078125}}