{"success":true,"remaining_lookups":9034,"0":{"id":"8224037","label":"Bagalkot","value":"8224037","lat":16.17999999999999971578290569595992565155029296875,"lon":75.68999999999999772626324556767940521240234375,"poi_name":"Bagalkot","parent_id":"1267701","long":75.68999999999999772626324556767940521240234375},"1":{"id":"1277332","label":"Bangalore Rural","value":"1277332","lat":13.2256699999999991490540196537040174007415771484375,"lon":77.5750100000000060163074522279202938079833984375,"poi_name":"Bangalore Rural","parent_id":"1267701","long":77.5750100000000060163074522279202938079833984375},"2":{"id":"1277331","label":"Bangalore Urban","value":"1277331","lat":13,"lon":77.5833300000000036789060686714947223663330078125,"poi_name":"Bangalore Urban","parent_id":"1267701","long":77.5833300000000036789060686714947223663330078125},"3":{"id":"1276534","label":"Belgaum","value":"1276534","lat":16.333330000000000126192389870993793010711669921875,"lon":74.75,"poi_name":"Belgaum","parent_id":"1267701","long":74.75},"4":{"id":"1276510","label":"Bellary","value":"1276510","lat":15.1500000000000003552713678800500929355621337890625,"lon":76.5499999999999971578290569595992565155029296875,"poi_name":"Bellary","parent_id":"1267701","long":76.5499999999999971578290569595992565155029296875},"5":{"id":"1275702","label":"Bij\u0101pur","value":"1275702","lat":16.666669999999999873807610129006206989288330078125,"lon":75.9166699999999963210939313285052776336669921875,"poi_name":"Bij\u0101pur","parent_id":"1267701","long":75.9166699999999963210939313285052776336669921875},"6":{"id":"1275739","label":"B\u012bdar","value":"1275739","lat":18.083330000000000126192389870993793010711669921875,"lon":77.3333300000000036789060686714947223663330078125,"poi_name":"B\u012bdar","parent_id":"1267701","long":77.3333300000000036789060686714947223663330078125},"7":{"id":"8224050","label":"Chamrajnagar","value":"8224050","lat":11.96000000000000085265128291212022304534912109375,"lon":77.090000000000003410605131648480892181396484375,"poi_name":"Chamrajnagar","parent_id":"1267701","long":77.090000000000003410605131648480892181396484375},"8":{"id":"8224036","label":"Chikkaballapur","value":"8224036","lat":13.550000000000000710542735760100185871124267578125,"lon":77.8700000000000045474735088646411895751953125,"poi_name":"Chikkaballapur","parent_id":"1267701","long":77.8700000000000045474735088646411895751953125},"9":{"id":"1274221","label":"Chikmagalur","value":"1274221","lat":13.4900000000000002131628207280300557613372802734375,"lon":75.7300000000000039790393202565610408782958984375,"poi_name":"Chikmagalur","parent_id":"1267701","long":75.7300000000000039790393202565610408782958984375},"10":{"id":"1274057","label":"Chitradurga","value":"1274057","lat":14.199999999999999289457264239899814128875732421875,"lon":76.5,"poi_name":"Chitradurga","parent_id":"1267701","long":76.5},"11":{"id":"1273664","label":"Dakshina Kannada","value":"1273664","lat":12.839999999999999857891452847979962825775146484375,"lon":75.2900000000000062527760746888816356658935546875,"poi_name":"Dakshina Kannada","parent_id":"1267701","long":75.2900000000000062527760746888816356658935546875},"12":{"id":"7646984","label":"Davanagere","value":"7646984","lat":14.42999999999999971578290569595992565155029296875,"lon":75.900000000000005684341886080801486968994140625,"poi_name":"Davanagere","parent_id":"1267701","long":75.900000000000005684341886080801486968994140625},"13":{"id":"1272797","label":"Dharwad","value":"1272797","lat":15.3699999999999992184029906638897955417633056640625,"lon":75.1400000000000005684341886080801486968994140625,"poi_name":"Dharwad","parent_id":"1267701","long":75.1400000000000005684341886080801486968994140625},"14":{"id":"7909847","label":"Gadag","value":"7909847","lat":15.4983500000000002927436071331612765789031982421875,"lon":75.651870000000002391971065662801265716552734375,"poi_name":"Gadag","parent_id":"1267701","long":75.651870000000002391971065662801265716552734375},"15":{"id":"1270753","label":"Gulbarga","value":"1270753","lat":17.166669999999999873807610129006206989288330078125,"lon":77.0833300000000036789060686714947223663330078125,"poi_name":"Gulbarga","parent_id":"1267701","long":77.0833300000000036789060686714947223663330078125},"16":{"id":"1270240","label":"Hassan","value":"1270240","lat":12.949999999999999289457264239899814128875732421875,"lon":76.0833300000000036789060686714947223663330078125,"poi_name":"Hassan","parent_id":"1267701","long":76.0833300000000036789060686714947223663330078125},"17":{"id":"7909842","label":"Haveri","value":"7909842","lat":14.737320000000000419504431192763149738311767578125,"lon":75.4106199999999944338924251496791839599609375,"poi_name":"Haveri","parent_id":"1267701","long":75.4106199999999944338924251496791839599609375},"18":{"id":"1266426","label":"Kodagu","value":"1266426","lat":12.416669999999999873807610129006206989288330078125,"lon":75.75,"poi_name":"Kodagu","parent_id":"1267701","long":75.75},"19":{"id":"1266306","label":"Kolar","value":"1266306","lat":13.1300000000000007815970093361102044582366943359375,"lon":78.2300000000000039790393202565610408782958984375,"poi_name":"Kolar","parent_id":"1267701","long":78.2300000000000039790393202565610408782958984375},"20":{"id":"7627234","label":"Koppal","value":"7627234","lat":15.5,"lon":76.2000000000000028421709430404007434844970703125,"poi_name":"Koppal","parent_id":"1267701","long":76.2000000000000028421709430404007434844970703125},"21":{"id":"1263815","label":"Mandya","value":"1263815","lat":12.583330000000000126192389870993793010711669921875,"lon":76.6666699999999963210939313285052776336669921875,"poi_name":"Mandya","parent_id":"1267701","long":76.6666699999999963210939313285052776336669921875},"22":{"id":"1262322","label":"Mysore","value":"1262322","lat":12.230000000000000426325641456060111522674560546875,"lon":76.4200000000000017053025658242404460906982421875,"poi_name":"Mysore","parent_id":"1267701","long":76.4200000000000017053025658242404460906982421875},"23":{"id":"1259013","label":"Raichur","value":"1259013","lat":16.160000000000000142108547152020037174224853515625,"lon":76.909999999999996589394868351519107818603515625,"poi_name":"Raichur","parent_id":"1267701","long":76.909999999999996589394868351519107818603515625},"24":{"id":"8224306","label":"Ramanagara","value":"8224306","lat":12.6500000000000003552713678800500929355621337890625,"lon":77.349999999999994315658113919198513031005859375,"poi_name":"Ramanagara","parent_id":"1267701","long":77.349999999999994315658113919198513031005859375},"25":{"id":"1256516","label":"Shimoga","value":"1256516","lat":14.050000000000000710542735760100185871124267578125,"lon":75.159999999999996589394868351519107818603515625,"poi_name":"Shimoga","parent_id":"1267701","long":75.159999999999996589394868351519107818603515625},"26":{"id":"1254090","label":"Tumkur","value":"1254090","lat":13.5,"lon":77,"poi_name":"Tumkur","parent_id":"1267701","long":77},"27":{"id":"8224051","label":"Udupi","value":"8224051","lat":13.5,"lon":74.8700000000000045474735088646411895751953125,"poi_name":"Udupi","parent_id":"1267701","long":74.8700000000000045474735088646411895751953125},"28":{"id":"1253630","label":"Uttar Kannada","value":"1253630","lat":14.8833300000000008367351256310939788818359375,"lon":74.5833300000000036789060686714947223663330078125,"poi_name":"Uttar Kannada","parent_id":"1267701","long":74.5833300000000036789060686714947223663330078125},"29":{"id":"8224605","label":"Yadgir","value":"8224605","lat":16.730000000000000426325641456060111522674560546875,"lon":76.93999999999999772626324556767940521240234375,"poi_name":"Yadgir","parent_id":"1267701","long":76.93999999999999772626324556767940521240234375}}