{"success":true,"remaining_lookups":9037,"0":{"id":"1275638","label":"Bil\u0101spur","value":"1275638","lat":31.333330000000000126192389870993793010711669921875,"lon":76.75,"poi_name":"Bil\u0101spur","parent_id":"1270101","long":76.75},"1":{"id":"1274849","label":"Chamba","value":"1274849","lat":32.57146999999999792407834320329129695892333984375,"lon":76.1022899999999964393282425589859485626220703125,"poi_name":"Chamba","parent_id":"1270101","long":76.1022899999999964393282425589859485626220703125},"2":{"id":"1270456","label":"Ham\u012brpur","value":"1270456","lat":31.75,"lon":76.5,"poi_name":"Ham\u012brpur","parent_id":"1270101","long":76.5},"3":{"id":"1266519","label":"Kinnaur","value":"1266519","lat":31.583330000000000126192389870993793010711669921875,"lon":78.4166699999999963210939313285052776336669921875,"poi_name":"Kinnaur","parent_id":"1270101","long":78.4166699999999963210939313285052776336669921875},"4":{"id":"1265710","label":"Kulu","value":"1265710","lat":32,"lon":77.25,"poi_name":"Kulu","parent_id":"1270101","long":77.25},"5":{"id":"1268085","label":"K\u0101ngra","value":"1268085","lat":32.16667000000000342652128892950713634490966796875,"lon":76.25,"poi_name":"K\u0101ngra","parent_id":"1270101","long":76.25},"6":{"id":"1265292","label":"L\u0101hul and Spiti","value":"1265292","lat":32.5,"lon":77.8333300000000036789060686714947223663330078125,"poi_name":"L\u0101hul and Spiti","parent_id":"1270101","long":77.8333300000000036789060686714947223663330078125},"7":{"id":"1263863","label":"Mandi","value":"1263863","lat":31.75,"lon":77,"poi_name":"Mandi","parent_id":"1270101","long":77},"8":{"id":"1256238","label":"Shimla","value":"1256238","lat":31.166669999999999873807610129006206989288330078125,"lon":77.5833300000000036789060686714947223663330078125,"poi_name":"Shimla","parent_id":"1270101","long":77.5833300000000036789060686714947223663330078125},"9":{"id":"1256073","label":"Sirmaur","value":"1256073","lat":30.75,"lon":77.5,"poi_name":"Sirmaur","parent_id":"1270101","long":77.5},"10":{"id":"1255851","label":"Solan","value":"1255851","lat":31.083330000000000126192389870993793010711669921875,"lon":76.8333300000000036789060686714947223663330078125,"poi_name":"Solan","parent_id":"1270101","long":76.8333300000000036789060686714947223663330078125},"11":{"id":"7701379","label":"Una","value":"7701379","lat":31.583690000000000708268999005667865276336669921875,"lon":76.1928300000000007230482879094779491424560546875,"poi_name":"Una","parent_id":"1270101","long":76.1928300000000007230482879094779491424560546875}}