{"success":true,"remaining_lookups":9041,"0":{"id":"7626569","label":"Araria","value":"7626569","lat":26.199999999999999289457264239899814128875732421875,"lon":87.400000000000005684341886080801486968994140625,"poi_name":"Araria","parent_id":"1275715","long":87.400000000000005684341886080801486968994140625},"1":{"id":"9748038","label":"Arwal","value":"9748038","lat":25.1615800000000007230482879094779491424560546875,"lon":84.6903999999999967940311762504279613494873046875,"poi_name":"Arwal","parent_id":"1275715","long":84.6903999999999967940311762504279613494873046875},"2":{"id":"1278150","label":"Aurang\u0101b\u0101d","value":"1278150","lat":24.75,"lon":84.5,"poi_name":"Aurang\u0101b\u0101d","parent_id":"1275715","long":84.5},"3":{"id":"8858072","label":"Banka","value":"8858072","lat":24.892140000000001265334503841586410999298095703125,"lon":86.984250000000002955857780762016773223876953125,"poi_name":"Banka","parent_id":"1275715","long":86.984250000000002955857780762016773223876953125},"4":{"id":"1276610","label":"Begusar\u0101i","value":"1276610","lat":25.5,"lon":86.25,"poi_name":"Begusar\u0101i","parent_id":"1275715","long":86.25},"5":{"id":"1275871","label":"Bhojpur","value":"1275871","lat":25.308859999999999246256265905685722827911376953125,"lon":84.44504000000000587533577345311641693115234375,"poi_name":"Bhojpur","parent_id":"1275715","long":84.44504000000000587533577345311641693115234375},"6":{"id":"1276301","label":"Bh\u0101galpur","value":"1276301","lat":25.29023000000000109821485239081084728240966796875,"lon":87.0666499999999956571627990342676639556884765625,"poi_name":"Bh\u0101galpur","parent_id":"1275715","long":87.0666499999999956571627990342676639556884765625},"7":{"id":"7627223","label":"Buxar","value":"7627223","lat":25.5,"lon":84.099999999999994315658113919198513031005859375,"poi_name":"Buxar","parent_id":"1275715","long":84.099999999999994315658113919198513031005859375},"8":{"id":"1273492","label":"Darbhanga","value":"1273492","lat":26,"lon":86,"poi_name":"Darbhanga","parent_id":"1275715","long":86},"9":{"id":"1271440","label":"Gay\u0101","value":"1271440","lat":24.75,"lon":85,"poi_name":"Gay\u0101","parent_id":"1275715","long":85},"10":{"id":"1270967","label":"Gop\u0101lganj","value":"1270967","lat":26.5,"lon":84.3333300000000036789060686714947223663330078125,"poi_name":"Gop\u0101lganj","parent_id":"1275715","long":84.3333300000000036789060686714947223663330078125},"11":{"id":"8858071","label":"Jamui","value":"8858071","lat":24.92081999999999908368408796377480030059814453125,"lon":86.1753800000000040881786844693124294281005859375,"poi_name":"Jamui","parent_id":"1275715","long":86.1753800000000040881786844693124294281005859375},"12":{"id":"7627222","label":"Jehanabad","value":"7627222","lat":25.207010000000000360387275577522814273834228515625,"lon":84.9957299999999946749085211195051670074462890625,"poi_name":"Jehanabad","parent_id":"1275715","long":84.9957299999999946749085211195051670074462890625},"13":{"id":"8740934","label":"Kaimur District","value":"8740934","lat":25.05076999999999998181010596454143524169921875,"lon":83.5826100000000025147528504021465778350830078125,"poi_name":"Kaimur District","parent_id":"1275715","long":83.5826100000000025147528504021465778350830078125},"14":{"id":"7627229","label":"Katihar","value":"7627229","lat":25.5,"lon":87.599999999999994315658113919198513031005859375,"poi_name":"Katihar","parent_id":"1275715","long":87.599999999999994315658113919198513031005859375},"15":{"id":"7627231","label":"Khagaria","value":"7627231","lat":25.5,"lon":86.599999999999994315658113919198513031005859375,"poi_name":"Khagaria","parent_id":"1275715","long":86.599999999999994315658113919198513031005859375},"16":{"id":"7627233","label":"Kishanganj","value":"7627233","lat":26.300000000000000710542735760100185871124267578125,"lon":88,"poi_name":"Kishanganj","parent_id":"1275715","long":88},"17":{"id":"7627235","label":"Lakhisarai","value":"7627235","lat":25.199999999999999289457264239899814128875732421875,"lon":86.2000000000000028421709430404007434844970703125,"poi_name":"Lakhisarai","parent_id":"1275715","long":86.2000000000000028421709430404007434844970703125},"18":{"id":"7626568","label":"Madhepura","value":"7626568","lat":25.800000000000000710542735760100185871124267578125,"lon":87,"poi_name":"Madhepura","parent_id":"1275715","long":87},"19":{"id":"1264556","label":"Madhubani","value":"1264556","lat":26.333330000000000126192389870993793010711669921875,"lon":86.0833300000000036789060686714947223663330078125,"poi_name":"Madhubani","parent_id":"1275715","long":86.0833300000000036789060686714947223663330078125},"20":{"id":"1262483","label":"Munger","value":"1262483","lat":25.3609900000000010322764865122735500335693359375,"lon":86.46514999999999417923390865325927734375,"poi_name":"Munger","parent_id":"1275715","long":86.46514999999999417923390865325927734375},"21":{"id":"1262331","label":"Muzaffarpur","value":"1262331","lat":26.166669999999999873807610129006206989288330078125,"lon":85.4166699999999963210939313285052776336669921875,"poi_name":"Muzaffarpur","parent_id":"1275715","long":85.4166699999999963210939313285052776336669921875},"22":{"id":"1261632","label":"Naw\u0101da","value":"1261632","lat":24.75,"lon":85.5,"poi_name":"Naw\u0101da","parent_id":"1275715","long":85.5},"23":{"id":"1262081","label":"N\u0101landa","value":"1262081","lat":25.25,"lon":85.5833300000000036789060686714947223663330078125,"poi_name":"N\u0101landa","parent_id":"1275715","long":85.5833300000000036789060686714947223663330078125},"24":{"id":"1260208","label":"Pashchim Champ\u0101ran","value":"1260208","lat":27,"lon":84.5,"poi_name":"Pashchim Champ\u0101ran","parent_id":"1275715","long":84.5},"25":{"id":"1260091","label":"Patna","value":"1260091","lat":25.416669999999999873807610129006206989288330078125,"lon":85.1666699999999963210939313285052776336669921875,"poi_name":"Patna","parent_id":"1275715","long":85.1666699999999963210939313285052776336669921875},"26":{"id":"1259168","label":"Purnia","value":"1259168","lat":25.816140000000000753743734094314277172088623046875,"lon":87.4070799999999934470906737260520458221435546875,"poi_name":"Purnia","parent_id":"1275715","long":87.4070799999999934470906737260520458221435546875},"27":{"id":"1259186","label":"P\u016brba Champ\u0101ran","value":"1259186","lat":26.583330000000000126192389870993793010711669921875,"lon":84.8333300000000036789060686714947223663330078125,"poi_name":"P\u016brba Champ\u0101ran","parent_id":"1275715","long":84.8333300000000036789060686714947223663330078125},"28":{"id":"1258074","label":"Roht\u0101s","value":"1258074","lat":24.979410000000001446096575818955898284912109375,"lon":84.02773999999999432475306093692779541015625,"poi_name":"Roht\u0101s","parent_id":"1275715","long":84.02773999999999432475306093692779541015625},"29":{"id":"1257805","label":"Saharsa","value":"1257805","lat":25.816590000000001481339495512656867504119873046875,"lon":86.589799999999996771293808706104755401611328125,"poi_name":"Saharsa","parent_id":"1275715","long":86.589799999999996771293808706104755401611328125},"30":{"id":"1257552","label":"Samast\u012bpur","value":"1257552","lat":25.75,"lon":85.9166699999999963210939313285052776336669921875,"poi_name":"Samast\u012bpur","parent_id":"1275715","long":85.9166699999999963210939313285052776336669921875},"31":{"id":"7701609","label":"Sheikhpura","value":"7701609","lat":25.130729999999999790816218592226505279541015625,"lon":85.7817600000000055615601013414561748504638671875,"poi_name":"Sheikhpura","parent_id":"1275715","long":85.7817600000000055615601013414561748504638671875},"32":{"id":"7627239","label":"Sheohar","value":"7627239","lat":26.5,"lon":85.2999999999999971578290569595992565155029296875,"poi_name":"Sheohar","parent_id":"1275715","long":85.2999999999999971578290569595992565155029296875},"33":{"id":"1255930","label":"Siw\u0101n","value":"1255930","lat":26.166669999999999873807610129006206989288330078125,"lon":84.5,"poi_name":"Siw\u0101n","parent_id":"1275715","long":84.5},"34":{"id":"7626567","label":"Supaul","value":"7626567","lat":26.25,"lon":86.7999999999999971578290569595992565155029296875,"poi_name":"Supaul","parent_id":"1275715","long":86.7999999999999971578290569595992565155029296875},"35":{"id":"1257248","label":"S\u0101ran","value":"1257248","lat":25.916669999999999873807610129006206989288330078125,"lon":84.75,"poi_name":"S\u0101ran","parent_id":"1275715","long":84.75},"36":{"id":"1255984","label":"S\u012bt\u0101marhi","value":"1255984","lat":26.666669999999999873807610129006206989288330078125,"lon":85.5,"poi_name":"S\u012bt\u0101marhi","parent_id":"1275715","long":85.5},"37":{"id":"1253533","label":"Vaish\u0101li","value":"1253533","lat":25.75,"lon":85.4166699999999963210939313285052776336669921875,"poi_name":"Vaish\u0101li","parent_id":"1275715","long":85.4166699999999963210939313285052776336669921875}}