{"success":true,"remaining_lookups":9051,"0":{"id":"8985782","label":"Baksa","value":"8985782","lat":26.69803999999999888359525357373058795928955078125,"lon":91.151420000000001664375304244458675384521484375,"poi_name":"Baksa","parent_id":"1278253","long":91.151420000000001664375304244458675384521484375},"1":{"id":"7627074","label":"Barpeta","value":"7627074","lat":26.471039999999998570956449839286506175994873046875,"lon":91.03079999999999927240423858165740966796875,"poi_name":"Barpeta","parent_id":"1278253","long":91.03079999999999927240423858165740966796875},"2":{"id":"7627076","label":"Bongaigaon","value":"7627076","lat":26.460300000000000153477230924181640148162841796875,"lon":90.646399999999999863575794734060764312744140625,"poi_name":"Bongaigaon","parent_id":"1278253","long":90.646399999999999863575794734060764312744140625},"3":{"id":"8805933","label":"Chirang","value":"8805933","lat":26.52526999999999901547198533080518245697021484375,"lon":90.4906600000000054251358960755169391632080078125,"poi_name":"Chirang","parent_id":"1278253","long":90.4906600000000054251358960755169391632080078125},"4":{"id":"1275009","label":"C\u0101ch\u0101r","value":"1275009","lat":24.782129999999998659632183262147009372711181640625,"lon":92.857709999999997307895682752132415771484375,"poi_name":"C\u0101ch\u0101r","parent_id":"1278253","long":92.857709999999997307895682752132415771484375},"5":{"id":"1273451","label":"Darrang","value":"1273451","lat":26.5119499999999987949195201508700847625732421875,"lon":92.16843000000000074578565545380115509033203125,"poi_name":"Darrang","parent_id":"1278253","long":92.16843000000000074578565545380115509033203125},"6":{"id":"7627077","label":"Dhemaji","value":"7627077","lat":27.609100000000001529087967355735599994659423828125,"lon":94.7942000000000035697667044587433338165283203125,"poi_name":"Dhemaji","parent_id":"1278253","long":94.7942000000000035697667044587433338165283203125},"7":{"id":"7627078","label":"Dhubri","value":"7627078","lat":26.06748999999999938381733954884111881256103515625,"lon":90.0223799999999982901499606668949127197265625,"poi_name":"Dhubri","parent_id":"1278253","long":90.0223799999999982901499606668949127197265625},"8":{"id":"1272649","label":"Dibrugarh","value":"1272649","lat":27.5,"lon":95,"poi_name":"Dibrugarh","parent_id":"1278253","long":95},"9":{"id":"1261192","label":"Dima Hasao District","value":"1261192","lat":25.5,"lon":93,"poi_name":"Dima Hasao District","parent_id":"1278253","long":93},"10":{"id":"7627079","label":"Golaghat","value":"7627079","lat":26.40919999999999845385900698602199554443359375,"lon":93.9119299999999981309883878566324710845947265625,"poi_name":"Golaghat","parent_id":"1278253","long":93.9119299999999981309883878566324710845947265625},"11":{"id":"1271152","label":"Go\u0101lp\u0101ra","value":"1271152","lat":26.1279099999999999681676854379475116729736328125,"lon":90.6097400000000021691448637284338474273681640625,"poi_name":"Go\u0101lp\u0101ra","parent_id":"1278253","long":90.6097400000000021691448637284338474273681640625},"12":{"id":"7627080","label":"Hailakandi","value":"7627080","lat":24.501699999999999590727384202182292938232421875,"lon":92.6006900000000001682565198279917240142822265625,"poi_name":"Hailakandi","parent_id":"1278253","long":92.6006900000000001682565198279917240142822265625},"13":{"id":"7627081","label":"Jorhat","value":"7627081","lat":26.800000000000000710542735760100185871124267578125,"lon":94.2600000000000051159076974727213382720947265625,"poi_name":"Jorhat","parent_id":"1278253","long":94.2600000000000051159076974727213382720947265625},"14":{"id":"9747984","label":"Kamrup Metropolitan","value":"9747984","lat":26.05375000000000085265128291212022304534912109375,"lon":92.00763000000000602085492573678493499755859375,"poi_name":"Kamrup Metropolitan","parent_id":"1278253","long":92.00763000000000602085492573678493499755859375},"15":{"id":"7627082","label":"Karimganj","value":"7627082","lat":24.60000000000000142108547152020037174224853515625,"lon":92.400000000000005684341886080801486968994140625,"poi_name":"Karimganj","parent_id":"1278253","long":92.400000000000005684341886080801486968994140625},"16":{"id":"7627083","label":"Kokrajhar","value":"7627083","lat":26.60000000000000142108547152020037174224853515625,"lon":90.2000000000000028421709430404007434844970703125,"poi_name":"Kokrajhar","parent_id":"1278253","long":90.2000000000000028421709430404007434844970703125},"17":{"id":"1268209","label":"K\u0101mr\u016bp","value":"1268209","lat":26.223220000000001306261765421368181705474853515625,"lon":91.6534400000000033514879760332405567169189453125,"poi_name":"K\u0101mr\u016bp","parent_id":"1278253","long":91.6534400000000033514879760332405567169189453125},"18":{"id":"1267812","label":"K\u0101rbi \u0100nglong","value":"1267812","lat":26,"lon":93.5,"poi_name":"K\u0101rbi \u0100nglong","parent_id":"1278253","long":93.5},"19":{"id":"1265243","label":"Lakhimpur","value":"1265243","lat":27.35000000000000142108547152020037174224853515625,"lon":94.25,"poi_name":"Lakhimpur","parent_id":"1278253","long":94.25},"20":{"id":"8805932","label":"Morigaon","value":"8805932","lat":26.25213000000000107547748484648764133453369140625,"lon":92.3423800000000056797944125719368457794189453125,"poi_name":"Morigaon","parent_id":"1278253","long":92.3423800000000056797944125719368457794189453125},"21":{"id":"8849144","label":"Nagaon","value":"8849144","lat":26.350370000000001624584911041893064975738525390625,"lon":92.69225000000000136424205265939235687255859375,"poi_name":"Nagaon","parent_id":"1278253","long":92.69225000000000136424205265939235687255859375},"22":{"id":"7627084","label":"Nalbari","value":"7627084","lat":26.5,"lon":91.400000000000005684341886080801486968994140625,"poi_name":"Nalbari","parent_id":"1278253","long":91.400000000000005684341886080801486968994140625},"23":{"id":"1256389","label":"Sibs\u0101gar","value":"1256389","lat":26.916360000000000951558831729926168918609619140625,"lon":94.65546000000000503860064782202243804931640625,"poi_name":"Sibs\u0101gar","parent_id":"1278253","long":94.65546000000000503860064782202243804931640625},"24":{"id":"8739997","label":"Sonitpur","value":"8739997","lat":26.76747999999999905185177340172231197357177734375,"lon":92.9642500000000069348971010185778141021728515625,"poi_name":"Sonitpur","parent_id":"1278253","long":92.9642500000000069348971010185778141021728515625},"25":{"id":"7627085","label":"Tinsukia","value":"7627085","lat":27.60000000000000142108547152020037174224853515625,"lon":95.599999999999994315658113919198513031005859375,"poi_name":"Tinsukia","parent_id":"1278253","long":95.599999999999994315658113919198513031005859375},"26":{"id":"8805934","label":"Udalguri","value":"8805934","lat":26.73358999999999952024154481478035449981689453125,"lon":92.0921000000000020691004465334117412567138671875,"poi_name":"Udalguri","parent_id":"1278253","long":92.0921000000000020691004465334117412567138671875}}