{"success":true,"remaining_lookups":9026,"0":{"id":"1278975","label":"Almora","value":"1278975","lat":29.692229999999998568682713084854185581207275390625,"lon":79.4978899999999981673681759275496006011962890625,"poi_name":"Almora","parent_id":"1444366","long":79.4978899999999981673681759275496006011962890625},"1":{"id":"7701513","label":"Bageshwar","value":"7701513","lat":29.973150000000000403588273911736905574798583984375,"lon":79.8322399999999987585397320799529552459716796875,"poi_name":"Bageshwar","parent_id":"1444366","long":79.8322399999999987585397320799529552459716796875},"2":{"id":"1274839","label":"Chamoli","value":"1274839","lat":30.5,"lon":79.5,"poi_name":"Chamoli","parent_id":"1444366","long":79.5},"3":{"id":"7701515","label":"Champawat","value":"7701515","lat":29.2875599999999991496224538423120975494384765625,"lon":80.0373699999999956844476400874555110931396484375,"poi_name":"Champawat","parent_id":"1444366","long":80.0373699999999956844476400874555110931396484375},"4":{"id":"9072830","label":"Dehradun","value":"9072830","lat":30.3299999999999982946974341757595539093017578125,"lon":78.06000000000000227373675443232059478759765625,"poi_name":"Dehradun","parent_id":"1444366","long":78.06000000000000227373675443232059478759765625},"5":{"id":"1271535","label":"Garhw\u0101l","value":"1271535","lat":29.963660000000000849240677780471742153167724609375,"lon":78.928529999999994970494299195706844329833984375,"poi_name":"Garhw\u0101l","parent_id":"1444366","long":78.928529999999994970494299195706844329833984375},"6":{"id":"8740057","label":"Haridwar","value":"8740057","lat":29.96967000000000069803718361072242259979248046875,"lon":78.07459000000000060026650317013263702392578125,"poi_name":"Haridwar","parent_id":"1444366","long":78.07459000000000060026650317013263702392578125},"7":{"id":"1262118","label":"Naini T\u0101l","value":"1262118","lat":29.199999999999999289457264239899814128875732421875,"lon":79.4166699999999963210939313285052776336669921875,"poi_name":"Naini T\u0101l","parent_id":"1444366","long":79.4166699999999963210939313285052776336669921875},"8":{"id":"1259504","label":"Pithor\u0101garh","value":"1259504","lat":30,"lon":80.25,"poi_name":"Pithor\u0101garh","parent_id":"1444366","long":80.25},"9":{"id":"8739870","label":"Rudraprayag","value":"8739870","lat":30.608720000000001704165697447024285793304443359375,"lon":79.065169999999994843165040947496891021728515625,"poi_name":"Rudraprayag","parent_id":"1444366","long":79.065169999999994843165040947496891021728515625},"10":{"id":"1254807","label":"Tehri-Garhw\u0101l","value":"1254807","lat":30.5,"lon":78.6666699999999963210939313285052776336669921875,"poi_name":"Tehri-Garhw\u0101l","parent_id":"1444366","long":78.6666699999999963210939313285052776336669921875},"11":{"id":"7701516","label":"Udham Singh Nagar","value":"7701516","lat":29.027460000000001372200131299905478954315185546875,"lon":79.523470000000003210516297258436679840087890625,"poi_name":"Udham Singh Nagar","parent_id":"1444366","long":79.523470000000003210516297258436679840087890625},"12":{"id":"1253629","label":"Uttark\u0101shi","value":"1253629","lat":31,"lon":78.5,"poi_name":"Uttark\u0101shi","parent_id":"1444366","long":78.5}}