{"success":true,"remaining_lookups":9364,"0":{"id":"361660","label":"Markaz Akhm\u012bm","value":"361660","lat":26.572109999999998564135239575989544391632080078125,"lon":31.78508000000000066620486904866993427276611328125,"poi_name":"Markaz Akhm\u012bm","parent_id":"347794","long":31.78508000000000066620486904866993427276611328125},"1":{"id":"359588","label":"Markaz Awl\u0101d \u0162awq Sharq","value":"359588","lat":26.28332999999999941564965411089360713958740234375,"lon":32.0499999999999971578290569595992565155029296875,"poi_name":"Markaz Awl\u0101d \u0162awq Sharq","parent_id":"347794","long":32.0499999999999971578290569595992565155029296875},"2":{"id":"10371120","label":"Markaz D\u0101r as Sal\u0101m","value":"10371120","lat":26.31275000000000119371179607696831226348876953125,"lon":31.9786399999999986221155268140137195587158203125,"poi_name":"Markaz D\u0101r as Sal\u0101m","parent_id":"347794","long":31.9786399999999986221155268140137195587158203125},"3":{"id":"355025","label":"Markaz Jirj\u0101","value":"355025","lat":26.306830000000001490434442530386149883270263671875,"lon":31.84573999999999927013050182722508907318115234375,"poi_name":"Markaz Jirj\u0101","parent_id":"347794","long":31.84573999999999927013050182722508907318115234375},"4":{"id":"10371119","label":"Markaz Juhaynah al Gharb\u012byah","value":"10371119","lat":26.67817000000000149384504766203463077545166015625,"lon":31.470710000000000405862010666169226169586181640625,"poi_name":"Markaz Juhaynah al Gharb\u012byah","parent_id":"347794","long":31.470710000000000405862010666169226169586181640625},"5":{"id":"347795","label":"Markaz S\u016bh\u0101j","value":"347795","lat":26.539480000000001069793142960406839847564697265625,"lon":31.675239999999998730118022649548947811126708984375,"poi_name":"Markaz S\u016bh\u0101j","parent_id":"347794","long":31.675239999999998730118022649548947811126708984375},"6":{"id":"361436","label":"Markaz al Balyan\u0101","value":"361436","lat":26.228600000000000136424205265939235687255859375,"lon":31.956199999999999050714905024506151676177978515625,"poi_name":"Markaz al Balyan\u0101","parent_id":"347794","long":31.956199999999999050714905024506151676177978515625},"7":{"id":"360749","label":"Markaz al Mar\u0101ghah","value":"360749","lat":26.65478999999999842884790268726646900177001953125,"lon":31.578440000000000509317032992839813232421875,"poi_name":"Markaz al Mar\u0101ghah","parent_id":"347794","long":31.578440000000000509317032992839813232421875},"8":{"id":"360699","label":"Markaz al Munsha\u2019ah","value":"360699","lat":26.42723000000000155296220327727496623992919921875,"lon":31.770559999999999689634933019988238811492919921875,"poi_name":"Markaz al Munsha\u2019ah","parent_id":"347794","long":31.770559999999999689634933019988238811492919921875}}