{"success":true,"remaining_lookups":9368,"0":{"id":"359172","label":"Markaz Ban\u012b Suwayf","value":"359172","lat":29.09121999999999985675458447076380252838134765625,"lon":31.07097999999999871079126023687422275543212890625,"poi_name":"Markaz Ban\u012b Suwayf","parent_id":"359171","long":31.07097999999999871079126023687422275543212890625},"1":{"id":"358869","label":"Markaz Bib\u0101","value":"358869","lat":28.94863000000000141653799801133573055267333984375,"lon":30.97240000000000037516656448133289813995361328125,"poi_name":"Markaz Bib\u0101","parent_id":"359171","long":30.97240000000000037516656448133289813995361328125},"2":{"id":"358599","label":"Markaz B\u016bsh","value":"358599","lat":29.14999999999999857891452847979962825775146484375,"lon":31.1166699999999991632648743689060211181640625,"poi_name":"Markaz B\u016bsh","parent_id":"359171","long":31.1166699999999991632648743689060211181640625},"3":{"id":"355594","label":"Markaz Ihn\u0101siy\u0101 al Mad\u012bnah","value":"355594","lat":29.090689999999998605062501155771315097808837890625,"lon":30.940909999999998802877598791383206844329833984375,"poi_name":"Markaz Ihn\u0101siy\u0101 al Mad\u012bnah","parent_id":"359171","long":30.940909999999998802877598791383206844329833984375},"4":{"id":"10371146","label":"Markaz N\u0101\u015fir","value":"10371146","lat":29.171980000000001354010237264446914196014404296875,"lon":31.10058000000000077989170677028596401214599609375,"poi_name":"Markaz N\u0101\u015fir","parent_id":"359171","long":31.10058000000000077989170677028596401214599609375},"5":{"id":"347750","label":"Markaz Sumus\u0163\u0101 al Waqf","value":"347750","lat":28.954519999999998702833181596361100673675537109375,"lon":30.84821000000000168483893503434956073760986328125,"poi_name":"Markaz Sumus\u0163\u0101 al Waqf","parent_id":"359171","long":30.84821000000000168483893503434956073760986328125},"6":{"id":"361330","label":"Markaz al Fashn","value":"361330","lat":28.797370000000000800355337560176849365234375,"lon":30.850680000000000546833689440973103046417236328125,"poi_name":"Markaz al Fashn","parent_id":"359171","long":30.850680000000000546833689440973103046417236328125},"7":{"id":"360466","label":"Markaz al W\u0101si\u0163\u00e1","value":"360466","lat":29.309619999999998896100805723108351230621337890625,"lon":31.174549999999999982946974341757595539093017578125,"poi_name":"Markaz al W\u0101si\u0163\u00e1","parent_id":"359171","long":31.174549999999999982946974341757595539093017578125}}