{"success":true,"remaining_lookups":9353,"0":{"id":"7910679","label":"Bahr El Bakar","value":"7910679","lat":30.922370000000000800355337560176849365234375,"lon":32.13486999999999937926986603997647762298583984375,"poi_name":"Bahr El Bakar","parent_id":"360016","long":32.13486999999999937926986603997647762298583984375},"1":{"id":"362484","label":"Markaz Ab\u016b Kab\u012br","value":"362484","lat":30.7298100000000005138645065017044544219970703125,"lon":31.697739999999999582769305561669170856475830078125,"poi_name":"Markaz Ab\u016b Kab\u012br","parent_id":"360016","long":31.697739999999999582769305561669170856475830078125},"2":{"id":"362612","label":"Markaz Ab\u016b \u1e28amm\u0101d","value":"362612","lat":30.52649999999999863575794734060764312744140625,"lon":31.685590000000001253965820069424808025360107421875,"poi_name":"Markaz Ab\u016b \u1e28amm\u0101d","parent_id":"360016","long":31.685590000000001253965820069424808025360107421875},"3":{"id":"358838","label":"Markaz Bilbays","value":"358838","lat":30.4152500000000003410605131648480892181396484375,"lon":31.537859999999998450448401854373514652252197265625,"poi_name":"Markaz Bilbays","parent_id":"360016","long":31.537859999999998450448401854373514652252197265625},"4":{"id":"358094","label":"Markaz Diyarb Najm","value":"358094","lat":30.757889999999999730562194599770009517669677734375,"lon":31.46036000000000143472789204679429531097412109375,"poi_name":"Markaz Diyarb Najm","parent_id":"360016","long":31.46036000000000143472789204679429531097412109375},"5":{"id":"355938","label":"Markaz Hihy\u0101","value":"355938","lat":30.657990000000001629132384550757706165313720703125,"lon":31.600210000000000576392267248593270778656005859375,"poi_name":"Markaz Hihy\u0101","parent_id":"360016","long":31.600210000000000576392267248593270778656005859375},"6":{"id":"352351","label":"Markaz Miny\u0101 al Qam\u1e29","value":"352351","lat":30.5081500000000005456968210637569427490234375,"lon":31.369930000000000092086338554508984088897705078125,"poi_name":"Markaz Miny\u0101 al Qam\u1e29","parent_id":"360016","long":31.369930000000000092086338554508984088897705078125},"7":{"id":"361127","label":"Markaz al \u1e28usayn\u012byah","value":"361127","lat":30.843900000000001426769813406281173229217529296875,"lon":32.02425000000000210320649784989655017852783203125,"poi_name":"Markaz al \u1e28usayn\u012byah","parent_id":"360016","long":32.02425000000000210320649784989655017852783203125},"8":{"id":"10371147","label":"Markaz at Tall al Kab\u012br","value":"10371147","lat":30.543639999999999901092451182194054126739501953125,"lon":31.90314000000000049794834922067821025848388671875,"poi_name":"Markaz at Tall al Kab\u012br","parent_id":"360016","long":31.90314000000000049794834922067821025848388671875},"9":{"id":"359494","label":"Markaz az Zaq\u0101z\u012bq","value":"359494","lat":30.5855999999999994543031789362430572509765625,"lon":31.49895000000000067075234255753457546234130859375,"poi_name":"Markaz az Zaq\u0101z\u012bq","parent_id":"360016","long":31.49895000000000067075234255753457546234130859375}}