{"success":true,"remaining_lookups":9359,"0":{"id":"8146219","label":"Markaz Aws\u012bm","value":"8146219","lat":30.127230000000000842419467517174780368804931640625,"lon":31.143029999999999546389517490752041339874267578125,"poi_name":"Markaz Aws\u012bm","parent_id":"360997","long":31.143029999999999546389517490752041339874267578125},"1":{"id":"355547","label":"Markaz Imb\u0101bah","value":"355547","lat":30.18014000000000152112988871522247791290283203125,"lon":31.025569999999998316297933342866599559783935546875,"poi_name":"Markaz Imb\u0101bah","parent_id":"360997","long":31.025569999999998316297933342866599559783935546875},"2":{"id":"361474","label":"Markaz al Badrashayn","value":"361474","lat":29.821400000000000574118530494160950183868408203125,"lon":31.257889999999999730562194599770009517669677734375,"poi_name":"Markaz al Badrashayn","parent_id":"360997","long":31.257889999999999730562194599770009517669677734375},"3":{"id":"360996","label":"Markaz al J\u012bzah","value":"360996","lat":29.939119999999999066631062305532395839691162109375,"lon":31.2114100000000007639755494892597198486328125,"poi_name":"Markaz al J\u012bzah","parent_id":"360997","long":31.2114100000000007639755494892597198486328125},"4":{"id":"360479","label":"Markaz al W\u0101\u1e29\u0101t al Ba\u1e29r\u012byah","value":"360479","lat":28.40617999999999909732650849036872386932373046875,"lon":28.807030000000001024318407871760427951812744140625,"poi_name":"Markaz al W\u0101\u1e29\u0101t al Ba\u1e29r\u012byah","parent_id":"360997","long":28.807030000000001024318407871760427951812744140625},"5":{"id":"361497","label":"Markaz al \u2018Ayy\u0101\u0163","value":"361497","lat":29.557310000000001082298695109784603118896484375,"lon":31.2436900000000008503775461576879024505615234375,"poi_name":"Markaz al \u2018Ayy\u0101\u0163","parent_id":"360997","long":31.2436900000000008503775461576879024505615234375},"6":{"id":"9179486","label":"Walikale","value":"9179486","lat":-1.4166700000000000958522150540375150740146636962890625,"lon":28.03332999999999941564965411089360713958740234375,"poi_name":"Walikale","parent_id":"360997","long":28.03332999999999941564965411089360713958740234375}}