{"success":true,"remaining_lookups":9363,"0":{"id":"7910872","label":"Bahr El Bakr","value":"7910872","lat":31.039970000000000283080225926823914051055908203125,"lon":31.397279999999998523207977996207773685455322265625,"poi_name":"Bahr El Bakr","parent_id":"361849","long":31.397279999999998523207977996207773685455322265625},"1":{"id":"361701","label":"Markaz Aj\u0101","value":"361701","lat":30.89977999999999980218490236438810825347900390625,"lon":31.319289999999998741486706421710550785064697265625,"poi_name":"Markaz Aj\u0101","parent_id":"361849","long":31.319289999999998741486706421710550785064697265625},"2":{"id":"358824","label":"Markaz Bilq\u0101s","value":"358824","lat":31.340689999999998605062501155771315097808837890625,"lon":31.386489999999998445900928345508873462677001953125,"poi_name":"Markaz Bilq\u0101s","parent_id":"361849","long":31.386489999999998445900928345508873462677001953125},"3":{"id":"358171","label":"Markaz Dikirnis","value":"358171","lat":31.084070000000000533191268914379179477691650390625,"lon":31.68742999999999909732650849036872386932373046875,"poi_name":"Markaz Dikirnis","parent_id":"361849","long":31.68742999999999909732650849036872386932373046875},"4":{"id":"8559274","label":"Markaz Minyat An Na\u015fr","value":"8559274","lat":31.170809999999999462261257576756179332733154296875,"lon":31.72552999999999912006387603469192981719970703125,"poi_name":"Markaz Minyat An Na\u015fr","parent_id":"361849","long":31.72552999999999912006387603469192981719970703125},"5":{"id":"352180","label":"Markaz M\u012bt Ghamr","value":"352180","lat":30.712469999999999714646037318743765354156494140625,"lon":31.323340000000001737134880386292934417724609375,"poi_name":"Markaz M\u012bt Ghamr","parent_id":"361849","long":31.323340000000001737134880386292934417724609375},"6":{"id":"360756","label":"Markaz al Manzilah","value":"360756","lat":31.168769999999998532302925013937056064605712890625,"lon":31.943220000000000169393388205207884311676025390625,"poi_name":"Markaz al Manzilah","parent_id":"361849","long":31.943220000000000169393388205207884311676025390625},"7":{"id":"360763","label":"Markaz al Man\u015f\u016brah","value":"360763","lat":31.041669999999999873807610129006206989288330078125,"lon":31.4785600000000016507328837178647518157958984375,"poi_name":"Markaz al Man\u015f\u016brah","parent_id":"361849","long":31.4785600000000016507328837178647518157958984375},"8":{"id":"7910974","label":"Mit Yazid","value":"7910974","lat":30.920100000000001472244548494927585124969482421875,"lon":31.309740000000001458602127968333661556243896484375,"poi_name":"Mit Yazid","parent_id":"361849","long":31.309740000000001458602127968333661556243896484375}}