{"success":true,"remaining_lookups":9523,"0":{"id":"3625024","label":"Abangares","value":"3625024","lat":10.21667000000000058435034588910639286041259765625,"lon":-85,"poi_name":"Abangares","parent_id":"3623582","long":-85},"1":{"id":"3624821","label":"Bagaces","value":"3624821","lat":10.5,"lon":-85.25,"poi_name":"Bagaces","parent_id":"3623582","long":-85.25},"2":{"id":"3624381","label":"Carrillo","value":"3624381","lat":10.416669999999999873807610129006206989288330078125,"lon":-85.5833300000000036789060686714947223663330078125,"poi_name":"Carrillo","parent_id":"3623582","long":-85.5833300000000036789060686714947223663330078125},"3":{"id":"3624467","label":"Ca\u00f1as","value":"3624467","lat":10.4800500000000003097966327914036810398101806640625,"lon":-85.1134899999999987585397320799529552459716796875,"poi_name":"Ca\u00f1as","parent_id":"3623582","long":-85.1134899999999987585397320799529552459716796875},"4":{"id":"3623453","label":"Hojancha","value":"3623453","lat":9.96667000000000058435034588910639286041259765625,"lon":-85.4166699999999963210939313285052776336669921875,"poi_name":"Hojancha","parent_id":"3623582","long":-85.4166699999999963210939313285052776336669921875},"5":{"id":"3623257","label":"La Cruz","value":"3623257","lat":11,"lon":-85.5833300000000036789060686714947223663330078125,"poi_name":"La Cruz","parent_id":"3623582","long":-85.5833300000000036789060686714947223663330078125},"6":{"id":"3623075","label":"Liberia","value":"3623075","lat":10.75,"lon":-85.5,"poi_name":"Liberia","parent_id":"3623582","long":-85.5},"7":{"id":"3622764","label":"Nandayure","value":"3622764","lat":9.916669999999999873807610129006206989288330078125,"lon":-85.283330000000006521077011711895465850830078125,"poi_name":"Nandayure","parent_id":"3623582","long":-85.283330000000006521077011711895465850830078125},"8":{"id":"3622715","label":"Nicoya","value":"3622715","lat":10.083330000000000126192389870993793010711669921875,"lon":-85.5,"poi_name":"Nicoya","parent_id":"3623582","long":-85.5},"9":{"id":"3621604","label":"Santa Cruz","value":"3621604","lat":10.25,"lon":-85.6666699999999963210939313285052776336669921875,"poi_name":"Santa Cruz","parent_id":"3623582","long":-85.6666699999999963210939313285052776336669921875},"10":{"id":"3621277","label":"Tilar\u00e1n","value":"3621277","lat":10.458780000000000853788151289336383342742919921875,"lon":-84.9751299999999929468685877509415149688720703125,"poi_name":"Tilar\u00e1n","parent_id":"3623582","long":-84.9751299999999929468685877509415149688720703125}}