{"success":true,"remaining_lookups":9525,"0":{"id":"3624954","label":"Alajuela","value":"3624954","lat":10.03332999999999941564965411089360713958740234375,"lon":-84.1833299999999979945641825906932353973388671875,"poi_name":"Alajuela","parent_id":"3624953","long":-84.1833299999999979945641825906932353973388671875},"1":{"id":"3624841","label":"Atenas","value":"3624841","lat":9.9833300000000004814637577510438859462738037109375,"lon":-84.3833300000000008367351256310939788818359375,"poi_name":"Atenas","parent_id":"3624953","long":-84.3833300000000008367351256310939788818359375},"2":{"id":"3623619","label":"Grecia","value":"3623619","lat":10.0689200000000003143441063002683222293853759765625,"lon":-84.314580000000006521077011711895465850830078125,"poi_name":"Grecia","parent_id":"3624953","long":-84.314580000000006521077011711895465850830078125},"3":{"id":"3623553","label":"Guatuso","value":"3623553","lat":10.666669999999999873807610129006206989288330078125,"lon":-84.8333300000000036789060686714947223663330078125,"poi_name":"Guatuso","parent_id":"3624953","long":-84.8333300000000036789060686714947223663330078125},"4":{"id":"3623007","label":"Los Chiles","value":"3623007","lat":10.8666699999999991632648743689060211181640625,"lon":-84.6666699999999963210939313285052776336669921875,"poi_name":"Los Chiles","parent_id":"3624953","long":-84.6666699999999963210939313285052776336669921875},"5":{"id":"3622749","label":"Naranjo","value":"3622749","lat":10.1166699999999991632648743689060211181640625,"lon":-84.400000000000005684341886080801486968994140625,"poi_name":"Naranjo","parent_id":"3624953","long":-84.400000000000005684341886080801486968994140625},"6":{"id":"3622659","label":"Orotina","value":"3622659","lat":9.9000000000000003552713678800500929355621337890625,"lon":-84.5666700000000020054358174093067646026611328125,"poi_name":"Orotina","parent_id":"3624953","long":-84.5666700000000020054358174093067646026611328125},"7":{"id":"3622608","label":"Palmares","value":"3622608","lat":10.03332999999999941564965411089360713958740234375,"lon":-84.4333299999999979945641825906932353973388671875,"poi_name":"Palmares","parent_id":"3624953","long":-84.4333299999999979945641825906932353973388671875},"8":{"id":"3622341","label":"Po\u00e1s","value":"3622341","lat":10.083330000000000126192389870993793010711669921875,"lon":-84.233329999999995152393239550292491912841796875,"poi_name":"Po\u00e1s","parent_id":"3624953","long":-84.233329999999995152393239550292491912841796875},"9":{"id":"3621940","label":"San Carlos","value":"3621940","lat":10.583330000000000126192389870993793010711669921875,"lon":-84.4166699999999963210939313285052776336669921875,"poi_name":"San Carlos","parent_id":"3624953","long":-84.4166699999999963210939313285052776336669921875},"10":{"id":"3621757","label":"San Mateo","value":"3621757","lat":9.949999999999999289457264239899814128875732421875,"lon":-84.516670000000004847606760449707508087158203125,"poi_name":"San Mateo","parent_id":"3624953","long":-84.516670000000004847606760449707508087158203125},"11":{"id":"6946040","label":"San Ram\u00f3n","value":"6946040","lat":10.087180000000000035242919693700969219207763671875,"lon":-84.47043999999999641659087501466274261474609375,"poi_name":"San Ram\u00f3n","parent_id":"3624953","long":-84.47043999999999641659087501466274261474609375},"12":{"id":"3621152","label":"Upala","value":"3621152","lat":10.8499999999999996447286321199499070644378662109375,"lon":-85.1666699999999963210939313285052776336669921875,"poi_name":"Upala","parent_id":"3624953","long":-85.1666699999999963210939313285052776336669921875},"13":{"id":"3621127","label":"Valverde Vega","value":"3621127","lat":10.18721000000000032059688237495720386505126953125,"lon":-84.302899999999993951860233210027217864990234375,"poi_name":"Valverde Vega","parent_id":"3624953","long":-84.302899999999993951860233210027217864990234375},"14":{"id":"3624942","label":"Zarcero","value":"3624942","lat":10.199999999999999289457264239899814128875732421875,"lon":-84.400000000000005684341886080801486968994140625,"poi_name":"Zarcero","parent_id":"3624953","long":-84.400000000000005684341886080801486968994140625}}