{"success":true,"remaining_lookups":8766,"0":{"id":"7521589","label":"Caroline","value":"7521589","lat":-9.958709999999999951114659779705107212066650390625,"lon":-150.207480000000003883542376570403575897216796875,"poi_name":"Caroline","parent_id":"4030940","long":-150.207480000000003883542376570403575897216796875},"1":{"id":"7521591","label":"Flint","value":"7521591","lat":-11.431490000000000151203494169749319553375244140625,"lon":-151.818520000000006575646693818271160125732421875,"poi_name":"Flint","parent_id":"4030940","long":-151.818520000000006575646693818271160125732421875},"2":{"id":"7521593","label":"Kiritimati","value":"7521593","lat":1.939999999999999946709294817992486059665679931640625,"lon":-157.474999999999994315658113919198513031005859375,"poi_name":"Kiritimati","parent_id":"4030940","long":-157.474999999999994315658113919198513031005859375},"3":{"id":"7521597","label":"Malden","value":"7521597","lat":-4.0187299999999996913402355858124792575836181640625,"lon":-154.929540000000002919477992691099643707275390625,"poi_name":"Malden","parent_id":"4030940","long":-154.929540000000002919477992691099643707275390625},"4":{"id":"7521607","label":"Starbuck","value":"7521607","lat":-5.63632000000000044082071326556615531444549560546875,"lon":-155.8953099999999949432094581425189971923828125,"poi_name":"Starbuck","parent_id":"4030940","long":-155.8953099999999949432094581425189971923828125},"5":{"id":"7521609","label":"Tabuaeran","value":"7521609","lat":3.86667000000000005144329406903125345706939697265625,"lon":-159.33332999999998946805135346949100494384765625,"poi_name":"Tabuaeran","parent_id":"4030940","long":-159.33332999999998946805135346949100494384765625},"6":{"id":"7521612","label":"Teraina","value":"7521612","lat":4.6876400000000000289901436190120875835418701171875,"lon":-160.388029999999986330294632352888584136962890625,"poi_name":"Teraina","parent_id":"4030940","long":-160.388029999999986330294632352888584136962890625},"7":{"id":"7521613","label":"Vostok","value":"7521613","lat":-10.063179999999999125748217920772731304168701171875,"lon":-152.31067999999999074134393595159053802490234375,"poi_name":"Vostok","parent_id":"4030940","long":-152.31067999999999074134393595159053802490234375}}