{"success":true,"remaining_lookups":8006,"0":{"id":"7870297","label":"Boundji","value":"7870297","lat":-0.78100000000000002753353101070388220250606536865234375,"lon":15.2980000000000000426325641456060111522674560546875,"poi_name":"Boundji","parent_id":"2260487","long":15.2980000000000000426325641456060111522674560546875},"1":{"id":"7731906","label":"Loukela","value":"7731906","lat":-0.41544999999999998596678096873802132904529571533203125,"lon":17.10152000000000072077455115504562854766845703125,"poi_name":"Loukela","parent_id":"2260487","long":17.10152000000000072077455115504562854766845703125},"2":{"id":"7870298","label":"Loukolela","value":"7870298","lat":-1.097490000000000076596506914938800036907196044921875,"lon":16.96527999999999991587174008600413799285888671875,"poi_name":"Loukolela","parent_id":"2260487","long":16.96527999999999991587174008600413799285888671875},"3":{"id":"7870306","label":"Makoua","value":"7870306","lat":-0.004490000000000000067446048745978259830735623836517333984375,"lon":15.6119299999999991968024914967827498912811279296875,"poi_name":"Makoua","parent_id":"2260487","long":15.6119299999999991968024914967827498912811279296875},"4":{"id":"7731907","label":"Mossaka","value":"7731907","lat":-0.7275700000000000500222085975110530853271484375,"lon":16.584710000000001173248165287077426910400390625,"poi_name":"Mossaka","parent_id":"2260487","long":16.584710000000001173248165287077426910400390625},"5":{"id":"8051157","label":"Okoyo","value":"8051157","lat":-1.4090000000000000301980662698042578995227813720703125,"lon":14.7650000000000005684341886080801486968994140625,"poi_name":"Okoyo","parent_id":"2260487","long":14.7650000000000005684341886080801486968994140625},"6":{"id":"7870312","label":"Owando","value":"7870312","lat":-0.66500000000000003552713678800500929355621337890625,"lon":15.974000000000000198951966012828052043914794921875,"poi_name":"Owando","parent_id":"2260487","long":15.974000000000000198951966012828052043914794921875}}