{"success":true,"remaining_lookups":9057,"0":{"id":"2633280","label":"Akrahreppur","value":"2633280","lat":65.3550500000000056388671509921550750732421875,"lon":-18.795719999999999316742105293087661266326904296875,"poi_name":"Akrahreppur","parent_id":"3337403","long":-18.795719999999999316742105293087661266326904296875},"1":{"id":"3426187","label":"Bl\u00f6ndu\u00f3sb\u00e6r","value":"3426187","lat":65.646109999999993078745319508016109466552734375,"lon":-20.091930000000001399484972353093326091766357421875,"poi_name":"Bl\u00f6ndu\u00f3sb\u00e6r","parent_id":"3337403","long":-20.091930000000001399484972353093326091766357421875},"2":{"id":"9192865","label":"H\u00fanavatnshreppur","value":"9192865","lat":65.23102000000000089130480773746967315673828125,"lon":-19.80883000000000038198777474462985992431640625,"poi_name":"H\u00fanavatnshreppur","parent_id":"3337403","long":-19.80883000000000038198777474462985992431640625},"3":{"id":"3426210","label":"H\u00fana\u00feing Vestra","value":"3426210","lat":65.25,"lon":-20.916669999999999873807610129006206989288330078125,"poi_name":"H\u00fana\u00feing Vestra","parent_id":"3337403","long":-20.916669999999999873807610129006206989288330078125},"4":{"id":"3413488","label":"Skagabygg\u00f0","value":"3413488","lat":65.9500000000000028421709430404007434844970703125,"lon":-20.25,"poi_name":"Skagabygg\u00f0","parent_id":"3337403","long":-20.25},"5":{"id":"3345263","label":"Sveitarf\u00e9lagi\u00f0 Skagafj\u00f6r\u00f0ur","value":"3345263","lat":65.5001800000000002910383045673370361328125,"lon":-19.445660000000000167119651450775563716888427734375,"poi_name":"Sveitarf\u00e9lagi\u00f0 Skagafj\u00f6r\u00f0ur","parent_id":"3337403","long":-19.445660000000000167119651450775563716888427734375},"6":{"id":"9192469","label":"Sveitarf\u00e9lagi\u00f0 Skagastr\u00f6nd","value":"9192469","lat":65.8581099999999963756636134348809719085693359375,"lon":-20.16329999999999955662133288569748401641845703125,"poi_name":"Sveitarf\u00e9lagi\u00f0 Skagastr\u00f6nd","parent_id":"3337403","long":-20.16329999999999955662133288569748401641845703125}}