{"success":true,"remaining_lookups":8525,"0":{"id":"8299591","label":"Bandiagara Cercle","value":"8299591","lat":14.4839999999999999857891452847979962825775146484375,"lon":-3.580999999999999960920149533194489777088165283203125,"poi_name":"Bandiagara Cercle","parent_id":"2453347","long":-3.580999999999999960920149533194489777088165283203125},"1":{"id":"7701493","label":"Bankass Cercle","value":"7701493","lat":13.6596600000000005792344381916336715221405029296875,"lon":-3.603470000000000172946101884008385241031646728515625,"poi_name":"Bankass Cercle","parent_id":"2453347","long":-3.603470000000000172946101884008385241031646728515625},"2":{"id":"8299590","label":"Djenne Cercle","value":"8299590","lat":13.916000000000000369482222595252096652984619140625,"lon":-4.59499999999999975131004248396493494510650634765625,"poi_name":"Djenne Cercle","parent_id":"2453347","long":-4.59499999999999975131004248396493494510650634765625},"3":{"id":"7670549","label":"Douentza Cercle","value":"7670549","lat":15.0694700000000008088818503892980515956878662109375,"lon":-2.408749999999999946709294817992486059665679931640625,"poi_name":"Douentza Cercle","parent_id":"2453347","long":-2.408749999999999946709294817992486059665679931640625},"4":{"id":"7701494","label":"Koro Cercle","value":"7701494","lat":14.3840000000000003410605131648480892181396484375,"lon":-2.853000000000000202504679691628552973270416259765625,"poi_name":"Koro Cercle","parent_id":"2453347","long":-2.853000000000000202504679691628552973270416259765625},"5":{"id":"7701484","label":"Mopti Cercle","value":"7701484","lat":14.7799499999999994770405464805662631988525390625,"lon":-4.09297000000000021913137970841489732265472412109375,"poi_name":"Mopti Cercle","parent_id":"2453347","long":-4.09297000000000021913137970841489732265472412109375},"6":{"id":"8299588","label":"Niafunke Cercle","value":"8299588","lat":15.888999999999999346300683100707828998565673828125,"lon":-3.821000000000000174082970261224545538425445556640625,"poi_name":"Niafunke Cercle","parent_id":"2453347","long":-3.821000000000000174082970261224545538425445556640625},"7":{"id":"8299589","label":"Tenenkou Cercle","value":"8299589","lat":14.6590000000000006963318810448981821537017822265625,"lon":-4.90800000000000036237679523765109479427337646484375,"poi_name":"Tenenkou Cercle","parent_id":"2453347","long":-4.90800000000000036237679523765109479427337646484375},"8":{"id":"8299587","label":"Youwarou Cercle","value":"8299587","lat":15.3729999999999993320898283855058252811431884765625,"lon":-4.48800000000000043343106881366111338138580322265625,"poi_name":"Youwarou Cercle","parent_id":"2453347","long":-4.48800000000000043343106881366111338138580322265625}}