{"success":true,"remaining_lookups":8528,"0":{"id":"8334585","label":"Bafoulabe Cercle","value":"8334585","lat":13.666669999999999873807610129006206989288330078125,"lon":-10.666669999999999873807610129006206989288330078125,"poi_name":"Bafoulabe Cercle","parent_id":"2455517","long":-10.666669999999999873807610129006206989288330078125},"1":{"id":"8631403","label":"Cercle de Y\u00e9liman\u00e9","value":"8631403","lat":15.10773999999999972487785271368920803070068359375,"lon":-10.5449099999999997834265741403214633464813232421875,"poi_name":"Cercle de Y\u00e9liman\u00e9","parent_id":"2455517","long":-10.5449099999999997834265741403214633464813232421875},"2":{"id":"8261489","label":"Diema Cercle","value":"8261489","lat":14.5830000000000001847411112976260483264923095703125,"lon":-9.25,"poi_name":"Diema Cercle","parent_id":"2455517","long":-9.25},"3":{"id":"7701481","label":"Kayes Cercle","value":"7701481","lat":14.533490000000000463842297904193401336669921875,"lon":-11.545899999999999607780409860424697399139404296875,"poi_name":"Kayes Cercle","parent_id":"2455517","long":-11.545899999999999607780409860424697399139404296875},"4":{"id":"8299787","label":"Kenieba Cercle","value":"8299787","lat":12.666669999999999873807610129006206989288330078125,"lon":-11,"poi_name":"Kenieba Cercle","parent_id":"2455517","long":-11},"5":{"id":"7701501","label":"Kita Cercle","value":"7701501","lat":13.2820499999999999118927007657475769519805908203125,"lon":-9.397130000000000649151843390427529811859130859375,"poi_name":"Kita Cercle","parent_id":"2455517","long":-9.397130000000000649151843390427529811859130859375},"6":{"id":"8261494","label":"Nioro Cercle","value":"8261494","lat":14.699999999999999289457264239899814128875732421875,"lon":-10.300000000000000710542735760100185871124267578125,"poi_name":"Nioro Cercle","parent_id":"2455517","long":-10.300000000000000710542735760100185871124267578125}}