{"success":true,"remaining_lookups":8529,"0":{"id":"8631538","label":"Ansongo Cercle","value":"8631538","lat":15.7369000000000003325340003357268869876861572265625,"lon":0.78007999999999999563016217507538385689258575439453125,"poi_name":"Ansongo Cercle","parent_id":"2457161","long":0.78007999999999999563016217507538385689258575439453125},"1":{"id":"8631537","label":"Cercle de Bourem","value":"8631537","lat":17.71191999999999922010829322971403598785400390625,"lon":-0.342839999999999978097520170194911770522594451904296875,"poi_name":"Cercle de Bourem","parent_id":"2457161","long":-0.342839999999999978097520170194911770522594451904296875},"2":{"id":"8631539","label":"Cercle de M\u00e9naka","value":"8631539","lat":16.661660000000001247144609806127846240997314453125,"lon":2.70225999999999988432364261825568974018096923828125,"poi_name":"Cercle de M\u00e9naka","parent_id":"2457161","long":2.70225999999999988432364261825568974018096923828125},"3":{"id":"7701473","label":"Dire","value":"7701473","lat":16.280169999999998253770172595977783203125,"lon":-3.3130199999999998539124135277234017848968505859375,"poi_name":"Dire","parent_id":"2457161","long":-3.3130199999999998539124135277234017848968505859375},"4":{"id":"7670553","label":"Gao Cercle","value":"7670553","lat":16.722370000000001510898073320277035236358642578125,"lon":0.4398400000000000087396756498492322862148284912109375,"poi_name":"Gao Cercle","parent_id":"2457161","long":0.4398400000000000087396756498492322862148284912109375},"5":{"id":"7670552","label":"Gourma-Rharous Cercle","value":"7670552","lat":16.079789999999999139390638447366654872894287109375,"lon":-1.769810000000000105302433439646847546100616455078125,"poi_name":"Gourma-Rharous Cercle","parent_id":"2457161","long":-1.769810000000000105302433439646847546100616455078125},"6":{"id":"7701465","label":"Kidal","value":"7701465","lat":18.443889999999999673718775738961994647979736328125,"lon":1.33539999999999992041921359486877918243408203125,"poi_name":"Kidal","parent_id":"2457161","long":1.33539999999999992041921359486877918243408203125},"7":{"id":"7701470","label":"Tombouctou","value":"7701470","lat":21.04684999999999917008608463220298290252685546875,"lon":-3.2318400000000000460431692772544920444488525390625,"poi_name":"Tombouctou","parent_id":"2457161","long":-3.2318400000000000460431692772544920444488525390625}}