{"success":true,"remaining_lookups":8080,"0":{"id":"7268197","label":"Ancones Barrio","value":"7268197","lat":17.994460000000000121644916362129151821136474609375,"lon":-66.043440000000003919922164641320705413818359375,"poi_name":"Ancones Barrio","parent_id":"4562682","long":-66.043440000000003919922164641320705413818359375},"1":{"id":"7268213","label":"Arroyo Barrio-Pueblo","value":"7268213","lat":17.963229999999999364490577136166393756866455078125,"lon":-66.062600000000003319655661471188068389892578125,"poi_name":"Arroyo Barrio-Pueblo","parent_id":"4562682","long":-66.062600000000003319655661471188068389892578125},"2":{"id":"7268430","label":"Gu\u00e1simas Barrio","value":"7268430","lat":17.976389999999998536850398522801697254180908203125,"lon":-66.0666499999999956571627990342676639556884765625,"poi_name":"Gu\u00e1simas Barrio","parent_id":"4562682","long":-66.0666499999999956571627990342676639556884765625},"3":{"id":"7268722","label":"Palmas Barrio","value":"7268722","lat":17.97109999999999985220711096189916133880615234375,"lon":-66.04153999999999768988345749676227569580078125,"poi_name":"Palmas Barrio","parent_id":"4562682","long":-66.04153999999999768988345749676227569580078125},"4":{"id":"7268762","label":"Pitahaya Barrio","value":"7268762","lat":18.00056000000000011596057447604835033416748046875,"lon":-66.065799999999995861799106933176517486572265625,"poi_name":"Pitahaya Barrio","parent_id":"4562682","long":-66.065799999999995861799106933176517486572265625},"5":{"id":"7269088","label":"Yaurel Barrio","value":"7269088","lat":18.024319999999999453166310559026896953582763671875,"lon":-66.0647100000000051522874855436384677886962890625,"poi_name":"Yaurel Barrio","parent_id":"4562682","long":-66.0647100000000051522874855436384677886962890625}}