{"success":true,"remaining_lookups":8079,"0":{"id":"7268194","label":"A\u00f1asco Abajo Barrio","value":"7268194","lat":18.2750300000000009958966984413564205169677734375,"lon":-67.1741099999999988767740433104336261749267578125,"poi_name":"A\u00f1asco Abajo Barrio","parent_id":"4562605","long":-67.1741099999999988767740433104336261749267578125},"1":{"id":"7268195","label":"A\u00f1asco Arriba Barrio","value":"7268195","lat":18.275970000000000936779542826116085052490234375,"lon":-67.14704000000000405634636990725994110107421875,"poi_name":"A\u00f1asco Arriba Barrio","parent_id":"4562605","long":-67.14704000000000405634636990725994110107421875},"2":{"id":"7268196","label":"A\u00f1asco Barrio-Pueblo","value":"7268196","lat":18.2829100000000011050360626541078090667724609375,"lon":-67.14136999999999488863977603614330291748046875,"poi_name":"A\u00f1asco Barrio-Pueblo","parent_id":"4562605","long":-67.14136999999999488863977603614330291748046875},"3":{"id":"7268285","label":"Caguabo Barrio","value":"7268285","lat":18.297560000000000712816472514532506465911865234375,"lon":-67.2104700000000008230927051045000553131103515625,"poi_name":"Caguabo Barrio","parent_id":"4562605","long":-67.2104700000000008230927051045000553131103515625},"4":{"id":"7268341","label":"Caracol Barrio","value":"7268341","lat":18.300580000000000069348971010185778141021728515625,"lon":-67.159369999999995570760802365839481353759765625,"poi_name":"Caracol Barrio","parent_id":"4562605","long":-67.159369999999995570760802365839481353759765625},"5":{"id":"7268348","label":"Carreras Barrio","value":"7268348","lat":18.28681999999999874262357479892671108245849609375,"lon":-67.124269999999995661710272543132305145263671875,"poi_name":"Carreras Barrio","parent_id":"4562605","long":-67.124269999999995661710272543132305145263671875},"6":{"id":"7268353","label":"Casey Abajo Barrio","value":"7268353","lat":18.268180000000000973159330897033214569091796875,"lon":-67.103129999999993060555425472557544708251953125,"poi_name":"Casey Abajo Barrio","parent_id":"4562605","long":-67.103129999999993060555425472557544708251953125},"7":{"id":"7268354","label":"Casey Arriba Barrio","value":"7268354","lat":18.260940000000001504076863056980073451995849609375,"lon":-67.0861100000000050158632802776992321014404296875,"poi_name":"Casey Arriba Barrio","parent_id":"4562605","long":-67.0861100000000050158632802776992321014404296875},"8":{"id":"7268064","label":"Cerro Gordo Barrio","value":"7268064","lat":18.302710000000001144826455856673419475555419921875,"lon":-67.08102999999999838109943084418773651123046875,"poi_name":"Cerro Gordo Barrio","parent_id":"4562605","long":-67.08102999999999838109943084418773651123046875},"9":{"id":"7268079","label":"Cidra Barrio","value":"7268079","lat":18.28220999999999918372850515879690647125244140625,"lon":-67.1026800000000065438143792562186717987060546875,"poi_name":"Cidra Barrio","parent_id":"4562605","long":-67.1026800000000065438143792562186717987060546875},"10":{"id":"7268107","label":"Corcovada Barrio","value":"7268107","lat":18.2941000000000002501110429875552654266357421875,"lon":-67.05666999999999688952811993658542633056640625,"poi_name":"Corcovada Barrio","parent_id":"4562605","long":-67.05666999999999688952811993658542633056640625},"11":{"id":"7268143","label":"Dag\u00fcey Barrio","value":"7268143","lat":18.305409999999998404973666765727102756500244140625,"lon":-67.1278300000000029967850423417985439300537109375,"poi_name":"Dag\u00fcey Barrio","parent_id":"4562605","long":-67.1278300000000029967850423417985439300537109375},"12":{"id":"7268378","label":"Espino Barrio","value":"7268378","lat":18.280190000000001049329512170515954494476318359375,"lon":-67.115350000000006502887117676436901092529296875,"poi_name":"Espino Barrio","parent_id":"4562605","long":-67.115350000000006502887117676436901092529296875},"13":{"id":"7268451","label":"Hatillo Barrio","value":"7268451","lat":18.299299999999998789235178264789283275604248046875,"lon":-67.1883299999999934470906737260520458221435546875,"poi_name":"Hatillo Barrio","parent_id":"4562605","long":-67.1883299999999934470906737260520458221435546875},"14":{"id":"7268487","label":"Humatas Barrio","value":"7268487","lat":18.309360000000001633679858059622347354888916015625,"lon":-67.1066799999999972214936860837042331695556640625,"poi_name":"Humatas Barrio","parent_id":"4562605","long":-67.1066799999999972214936860837042331695556640625},"15":{"id":"7268621","label":"Mar\u00edas Barrio","value":"7268621","lat":18.299969999999998293560565798543393611907958984375,"lon":-67.140029999999995879989000968635082244873046875,"poi_name":"Mar\u00edas Barrio","parent_id":"4562605","long":-67.140029999999995879989000968635082244873046875},"16":{"id":"7268659","label":"Miraflores Barrio","value":"7268659","lat":18.278819999999999623696567141450941562652587890625,"lon":-67.08021999999999707142706029117107391357421875,"poi_name":"Miraflores Barrio","parent_id":"4562605","long":-67.08021999999999707142706029117107391357421875},"17":{"id":"7268712","label":"Ovejas Barrio","value":"7268712","lat":18.261540000000000105728759081102907657623291015625,"lon":-67.113709999999997535269358195364475250244140625,"poi_name":"Ovejas Barrio","parent_id":"4562605","long":-67.113709999999997535269358195364475250244140625},"18":{"id":"7268759","label":"Pi\u00f1ales Barrio","value":"7268759","lat":18.300329999999998875637174933217465877532958984375,"lon":-67.1726699999999965484676067717373371124267578125,"poi_name":"Pi\u00f1ales Barrio","parent_id":"4562605","long":-67.1726699999999965484676067717373371124267578125},"19":{"id":"7268768","label":"Playa Barrio","value":"7268768","lat":18.283390000000000696900315233506262302398681640625,"lon":-67.1905000000000001136868377216160297393798828125,"poi_name":"Playa Barrio","parent_id":"4562605","long":-67.1905000000000001136868377216160297393798828125},"20":{"id":"7268859","label":"Quebrada Larga Barrio","value":"7268859","lat":18.306940000000000878799255588091909885406494140625,"lon":-67.1492099999999965120878187008202075958251953125,"poi_name":"Quebrada Larga Barrio","parent_id":"4562605","long":-67.1492099999999965120878187008202075958251953125},"21":{"id":"7268889","label":"R\u00edo Arriba Barrio","value":"7268889","lat":18.277080000000001547277861391194164752960205078125,"lon":-67.0504799999999931969796307384967803955078125,"poi_name":"R\u00edo Arriba Barrio","parent_id":"4562605","long":-67.0504799999999931969796307384967803955078125},"22":{"id":"7268902","label":"R\u00edo Ca\u00f1as Barrio","value":"7268902","lat":18.25319999999999964757080306299030780792236328125,"lon":-67.1258399999999966212271829135715961456298828125,"poi_name":"R\u00edo Ca\u00f1as Barrio","parent_id":"4562605","long":-67.1258399999999966212271829135715961456298828125}}