{"success":true,"remaining_lookups":8084,"0":{"id":"7268168","label":"Aguacate Barrio","value":"7268168","lat":18.498039999999999594137989333830773830413818359375,"lon":-67.1099799999999930832927930168807506561279296875,"poi_name":"Aguacate Barrio","parent_id":"4562512","long":-67.1099799999999930832927930168807506561279296875},"1":{"id":"7268171","label":"Aguadilla Barrio-Pueblo","value":"7268171","lat":18.42448999999999870169631321914494037628173828125,"lon":-67.1547900000000055342752602882683277130126953125,"poi_name":"Aguadilla Barrio-Pueblo","parent_id":"4562512","long":-67.1547900000000055342752602882683277130126953125},"2":{"id":"7268210","label":"Arenales Barrio","value":"7268210","lat":18.47109999999999985220711096189916133880615234375,"lon":-67.1066699999999940473571768961846828460693359375,"poi_name":"Arenales Barrio","parent_id":"4562512","long":-67.1066699999999940473571768961846828460693359375},"3":{"id":"7268262","label":"Borinquen Barrio","value":"7268262","lat":18.473189999999998889279595459811389446258544921875,"lon":-67.1593400000000002592059900052845478057861328125,"poi_name":"Borinquen Barrio","parent_id":"4562512","long":-67.1593400000000002592059900052845478057861328125},"4":{"id":"7268289","label":"Caimital Alto Barrio","value":"7268289","lat":18.43654000000000081627149484120309352874755859375,"lon":-67.1134200000000049612935981713235378265380859375,"poi_name":"Caimital Alto Barrio","parent_id":"4562512","long":-67.1134200000000049612935981713235378265380859375},"5":{"id":"7268290","label":"Caimital Bajo Barrio","value":"7268290","lat":18.42808000000000134832589537836611270904541015625,"lon":-67.137010000000003628883860073983669281005859375,"poi_name":"Caimital Bajo Barrio","parent_id":"4562512","long":-67.137010000000003628883860073983669281005859375},"6":{"id":"7268304","label":"Camaceyes Barrio","value":"7268304","lat":18.4667299999999983128873282112181186676025390625,"lon":-67.138589999999993551682564429938793182373046875,"poi_name":"Camaceyes Barrio","parent_id":"4562512","long":-67.138589999999993551682564429938793182373046875},"7":{"id":"7268366","label":"Ceiba Alta Barrio","value":"7268366","lat":18.4794499999999999317878973670303821563720703125,"lon":-67.0897700000000014597389963455498218536376953125,"poi_name":"Ceiba Alta Barrio","parent_id":"4562512","long":-67.0897700000000014597389963455498218536376953125},"8":{"id":"7268050","label":"Ceiba Baja Barrio","value":"7268050","lat":18.458490000000001174385033664293587207794189453125,"lon":-67.078890000000001236912794411182403564453125,"poi_name":"Ceiba Baja Barrio","parent_id":"4562512","long":-67.078890000000001236912794411182403564453125},"9":{"id":"7268111","label":"Corrales Barrio","value":"7268111","lat":18.451319999999999055262378533370792865753173828125,"lon":-67.1257599999999996498445398174226284027099609375,"poi_name":"Corrales Barrio","parent_id":"4562512","long":-67.1257599999999996498445398174226284027099609375},"10":{"id":"7268443","label":"Guerrero Barrio","value":"7268443","lat":18.477419999999998623252395191229879856109619140625,"lon":-67.0737299999999976307663018815219402313232421875,"poi_name":"Guerrero Barrio","parent_id":"4562512","long":-67.0737299999999976307663018815219402313232421875},"11":{"id":"7268596","label":"Maleza Alta Barrio","value":"7268596","lat":18.499939999999998718749338877387344837188720703125,"lon":-67.12160000000000081854523159563541412353515625,"poi_name":"Maleza Alta Barrio","parent_id":"4562512","long":-67.12160000000000081854523159563541412353515625},"12":{"id":"7268597","label":"Maleza Baja Barrio","value":"7268597","lat":18.49640000000000128466126625426113605499267578125,"lon":-67.137889999999998735802364535629749298095703125,"poi_name":"Maleza Baja Barrio","parent_id":"4562512","long":-67.137889999999998735802364535629749298095703125},"13":{"id":"7268669","label":"Monta\u00f1a Barrio","value":"7268669","lat":18.49750999999999834244590601883828639984130859375,"lon":-67.0970400000000068985173129476606845855712890625,"poi_name":"Monta\u00f1a Barrio","parent_id":"4562512","long":-67.0970400000000068985173129476606845855712890625},"14":{"id":"7268716","label":"Palmar Barrio","value":"7268716","lat":18.399709999999998899511410854756832122802734375,"lon":-67.1372099999999960573404678143560886383056640625,"poi_name":"Palmar Barrio","parent_id":"4562512","long":-67.1372099999999960573404678143560886383056640625},"15":{"id":"7269076","label":"Victoria Barrio","value":"7269076","lat":18.41138000000000118916432256810367107391357421875,"lon":-67.1508400000000023055690689943730831146240234375,"poi_name":"Victoria Barrio","parent_id":"4562512","long":-67.1508400000000023055690689943730831146240234375}}