{"success":true,"remaining_lookups":8071,"0":{"id":"7268236","label":"Barrazas Barrio","value":"7268236","lat":18.312139999999999417923390865325927734375,"lon":-65.9360599999999976716935634613037109375,"poi_name":"Barrazas Barrio","parent_id":"4563244","long":-65.9360599999999976716935634613037109375},"1":{"id":"7268484","label":"Buena Vista Barrio (Inactive)","value":"7268484","lat":18.408049999999999357669366872869431972503662109375,"lon":-65.9463200000000000500222085975110530853271484375,"poi_name":"Buena Vista Barrio (Inactive)","parent_id":"4563244","long":-65.9463200000000000500222085975110530853271484375},"2":{"id":"7268282","label":"Cacao Barrio","value":"7268282","lat":18.3463899999999995316102285869419574737548828125,"lon":-65.9630499999999955207385937683284282684326171875,"poi_name":"Cacao Barrio","parent_id":"4563244","long":-65.9630499999999955207385937683284282684326171875},"3":{"id":"7268323","label":"Cangrejo Arriba Barrio","value":"7268323","lat":18.43945000000000078443918027915060520172119140625,"lon":-66.010030000000000427462509833276271820068359375,"poi_name":"Cangrejo Arriba Barrio","parent_id":"4563244","long":-66.010030000000000427462509833276271820068359375},"4":{"id":"7268329","label":"Canovanillas Barrio","value":"7268329","lat":18.35473999999999961119101499207317829132080078125,"lon":-65.9231999999999942474460112862288951873779296875,"poi_name":"Canovanillas Barrio","parent_id":"4563244","long":-65.9231999999999942474460112862288951873779296875},"5":{"id":"7268346","label":"Carolina Barrio-Pueblo","value":"7268346","lat":18.38177999999999912006387603469192981719970703125,"lon":-65.9569099999999934880179353058338165283203125,"poi_name":"Carolina Barrio-Pueblo","parent_id":"4563244","long":-65.9569099999999934880179353058338165283203125},"6":{"id":"7268352","label":"Carruzos Barrio","value":"7268352","lat":18.313430000000000319460013997741043567657470703125,"lon":-65.9163400000000052614268497563898563385009765625,"poi_name":"Carruzos Barrio","parent_id":"4563244","long":-65.9163400000000052614268497563898563385009765625},"7":{"id":"7268363","label":"Cedro Barrio","value":"7268363","lat":18.287769999999998304929249570704996585845947265625,"lon":-65.9171000000000049112713895738124847412109375,"poi_name":"Cedro Barrio","parent_id":"4563244","long":-65.9171000000000049112713895738124847412109375},"8":{"id":"7268631","label":"Mart\u00edn Gonz\u00e1lez Barrio","value":"7268631","lat":18.375800000000001688249540165998041629791259765625,"lon":-65.9726699999999937062966637313365936279296875,"poi_name":"Mart\u00edn Gonz\u00e1lez Barrio","parent_id":"4563244","long":-65.9726699999999937062966637313365936279296875},"9":{"id":"7268934","label":"Sabana Abajo Barrio","value":"7268934","lat":18.416280000000000427462509833276271820068359375,"lon":-65.9832799999999934925654088146984577178955078125,"poi_name":"Sabana Abajo Barrio","parent_id":"4563244","long":-65.9832799999999934925654088146984577178955078125},"10":{"id":"7268961","label":"San Ant\u00f3n Barrio","value":"7268961","lat":18.388580000000001035687091643922030925750732421875,"lon":-65.9903699999999986403054208494722843170166015625,"poi_name":"San Ant\u00f3n Barrio","parent_id":"4563244","long":-65.9903699999999986403054208494722843170166015625},"11":{"id":"7268987","label":"Santa Cruz Barrio","value":"7268987","lat":18.34906000000000148020262713544070720672607421875,"lon":-65.9397900000000021236701286397874355316162109375,"poi_name":"Santa Cruz Barrio","parent_id":"4563244","long":-65.9397900000000021236701286397874355316162109375},"12":{"id":"7269053","label":"Trujillo Bajo Barrio","value":"7269053","lat":18.36377999999999843794284970499575138092041015625,"lon":-65.9477600000000023783286451362073421478271484375,"poi_name":"Trujillo Bajo Barrio","parent_id":"4563244","long":-65.9477600000000023783286451362073421478271484375}}