{"success":true,"remaining_lookups":8067,"0":{"id":"7268073","label":"Ciales Barrio-Pueblo","value":"7268073","lat":18.336169999999999191686583799310028553009033203125,"lon":-66.4688699999999954570739646442234516143798828125,"poi_name":"Ciales Barrio-Pueblo","parent_id":"4563774","long":-66.4688699999999954570739646442234516143798828125},"1":{"id":"7268074","label":"Cialitos Barrio","value":"7268074","lat":18.25835000000000007958078640513122081756591796875,"lon":-66.535539999999997462509782053530216217041015625,"poi_name":"Cialitos Barrio","parent_id":"4563774","long":-66.535539999999997462509782053530216217041015625},"2":{"id":"7268109","label":"Cordillera Barrio","value":"7268109","lat":18.3223899999999986221155268140137195587158203125,"lon":-66.50081000000000130967237055301666259765625,"poi_name":"Cordillera Barrio","parent_id":"4563774","long":-66.50081000000000130967237055301666259765625},"3":{"id":"7268401","label":"Front\u00f3n Barrio","value":"7268401","lat":18.308279999999999887450030655600130558013916015625,"lon":-66.5584900000000061481841839849948883056640625,"poi_name":"Front\u00f3n Barrio","parent_id":"4563774","long":-66.5584900000000061481841839849948883056640625},"4":{"id":"7268468","label":"Hato Viejo Barrio","value":"7268468","lat":18.341640000000001720081854728050529956817626953125,"lon":-66.5143000000000057525539887137711048126220703125,"poi_name":"Hato Viejo Barrio","parent_id":"4563774","long":-66.5143000000000057525539887137711048126220703125},"5":{"id":"7268508","label":"Jaguas Barrio","value":"7268508","lat":18.321059999999999234887582133524119853973388671875,"lon":-66.466759999999993624442140571773052215576171875,"poi_name":"Jaguas Barrio","parent_id":"4563774","long":-66.466759999999993624442140571773052215576171875},"6":{"id":"7268751","label":"Pesas Barrio","value":"7268751","lat":18.301939999999998320845406851731240749359130859375,"lon":-66.4933400000000034424374462105333805084228515625,"poi_name":"Pesas Barrio","parent_id":"4563774","long":-66.4933400000000034424374462105333805084228515625},"7":{"id":"7268781","label":"Pozas Barrio","value":"7268781","lat":18.271390000000000242152964347042143344879150390625,"lon":-66.4777600000000035151970223523676395416259765625,"poi_name":"Pozas Barrio","parent_id":"4563774","long":-66.4777600000000035151970223523676395416259765625},"8":{"id":"7269044","label":"Toro Negro Barrio","value":"7269044","lat":18.22037999999999868805389269255101680755615234375,"lon":-66.5198500000000052523319027386605739593505859375,"poi_name":"Toro Negro Barrio","parent_id":"4563774","long":-66.5198500000000052523319027386605739593505859375}}