{"success":true,"remaining_lookups":8064,"0":{"id":"7268360","label":"Cedrito Barrio","value":"7268360","lat":18.2542499999999989768184605054557323455810546875,"lon":-66.19634999999999536157702095806598663330078125,"poi_name":"Cedrito Barrio","parent_id":"4563921","long":-66.19634999999999536157702095806598663330078125},"1":{"id":"7268057","label":"Cejas Barrio","value":"7268057","lat":18.20879000000000047521098167635500431060791015625,"lon":-66.189490000000006375557859428226947784423828125,"poi_name":"Cejas Barrio","parent_id":"4563921","long":-66.189490000000006375557859428226947784423828125},"2":{"id":"7268100","label":"Comer\u00edo Barrio-Pueblo","value":"7268100","lat":18.220269999999999299689079634845256805419921875,"lon":-66.2244199999999949568518786691129207611083984375,"poi_name":"Comer\u00edo Barrio-Pueblo","parent_id":"4563921","long":-66.2244199999999949568518786691129207611083984375},"3":{"id":"7268153","label":"Do\u00f1a Elena Barrio","value":"7268153","lat":18.252510000000000900399754755198955535888671875,"lon":-66.2228900000000066938810050487518310546875,"poi_name":"Do\u00f1a Elena Barrio","parent_id":"4563921","long":-66.2228900000000066938810050487518310546875},"4":{"id":"7268696","label":"Naranjo Barrio","value":"7268696","lat":18.228840000000001708713170955888926982879638671875,"lon":-66.19207000000000107320374809205532073974609375,"poi_name":"Naranjo Barrio","parent_id":"4563921","long":-66.19207000000000107320374809205532073974609375},"5":{"id":"7268729","label":"Palomas Barrio","value":"7268729","lat":18.233070000000001442685970687307417392730712890625,"lon":-66.2429300000000012005330063402652740478515625,"poi_name":"Palomas Barrio","parent_id":"4563921","long":-66.2429300000000012005330063402652740478515625},"6":{"id":"7268760","label":"Pi\u00f1as Barrio","value":"7268760","lat":18.19509000000000042973624658770859241485595703125,"lon":-66.2262699999999995270627550780773162841796875,"poi_name":"Pi\u00f1as Barrio","parent_id":"4563921","long":-66.2262699999999995270627550780773162841796875},"7":{"id":"7268910","label":"R\u00edo Hondo Barrio","value":"7268910","lat":18.208189999999998320845406851731240749359130859375,"lon":-66.2514000000000038426151149906218051910400390625,"poi_name":"R\u00edo Hondo Barrio","parent_id":"4563921","long":-66.2514000000000038426151149906218051910400390625},"8":{"id":"7269069","label":"Vega Redonda Barrio","value":"7269069","lat":18.206379999999999341753209591843187808990478515625,"lon":-66.209509999999994533936842344701290130615234375,"poi_name":"Vega Redonda Barrio","parent_id":"4563921","long":-66.209509999999994533936842344701290130615234375}}