{"success":true,"remaining_lookups":8060,"0":{"id":"7268277","label":"Cabezas Barrio","value":"7268277","lat":18.380430000000000489990270580165088176727294921875,"lon":-65.579080000000004702087608166038990020751953125,"poi_name":"Cabezas Barrio","parent_id":"4564949","long":-65.579080000000004702087608166038990020751953125},"1":{"id":"7268147","label":"Demajagua Barrio","value":"7268147","lat":18.287970000000001391526893712580204010009765625,"lon":-65.6516400000000004411049303598701953887939453125,"poi_name":"Demajagua Barrio","parent_id":"4564949","long":-65.6516400000000004411049303598701953887939453125},"2":{"id":"7268385","label":"Fajardo Barrio-Pueblo","value":"7268385","lat":18.32891000000000047975845518521964550018310546875,"lon":-65.6496700000000004138200893066823482513427734375,"poi_name":"Fajardo Barrio-Pueblo","parent_id":"4564949","long":-65.6496700000000004138200893066823482513427734375},"3":{"id":"7268392","label":"Florencio Barrio","value":"7268392","lat":18.313300000000001688249540165998041629791259765625,"lon":-65.6710499999999939291228656657040119171142578125,"poi_name":"Florencio Barrio","parent_id":"4564949","long":-65.6710499999999939291228656657040119171142578125},"4":{"id":"7268697","label":"Naranjo Barrio","value":"7268697","lat":18.31587999999999993860910763032734394073486328125,"lon":-65.693340000000006284608389250934123992919921875,"poi_name":"Naranjo Barrio","parent_id":"4564949","long":-65.693340000000006284608389250934123992919921875},"5":{"id":"7268852","label":"Quebrada Fajardo Barrio","value":"7268852","lat":18.364850000000000562749846721999347209930419921875,"lon":-65.6603400000000050340531743131577968597412109375,"poi_name":"Quebrada Fajardo Barrio","parent_id":"4564949","long":-65.6603400000000050340531743131577968597412109375},"6":{"id":"7268863","label":"Quebrada Vueltas Barrio","value":"7268863","lat":18.306409999999999627107172273099422454833984375,"lon":-65.6447500000000019326762412674725055694580078125,"poi_name":"Quebrada Vueltas Barrio","parent_id":"4564949","long":-65.6447500000000019326762412674725055694580078125},"7":{"id":"7268891","label":"R\u00edo Arriba Barrio","value":"7268891","lat":18.289880000000000137561073643155395984649658203125,"lon":-65.707999999999998408384271897375583648681640625,"poi_name":"R\u00edo Arriba Barrio","parent_id":"4564949","long":-65.707999999999998408384271897375583648681640625},"8":{"id":"7269003","label":"Sardinera Barrio","value":"7269003","lat":18.346759999999999735109668108634650707244873046875,"lon":-65.6396299999999968122210702858865261077880859375,"poi_name":"Sardinera Barrio","parent_id":"4564949","long":-65.6396299999999968122210702858865261077880859375}}