{"success":true,"remaining_lookups":8048,"0":{"id":"7268241","label":"Bartolo Barrio","value":"7268241","lat":18.199909999999999143938111956231296062469482421875,"lon":-66.849230000000005702531780116260051727294921875,"poi_name":"Bartolo Barrio","parent_id":"4565910","long":-66.849230000000005702531780116260051727294921875},"1":{"id":"7268274","label":"Buenos Aires Barrio","value":"7268274","lat":18.265670000000000072759576141834259033203125,"lon":-66.8468299999999970850694808177649974822998046875,"poi_name":"Buenos Aires Barrio","parent_id":"4565910","long":-66.8468299999999970850694808177649974822998046875},"2":{"id":"7268301","label":"Callejones Barrio","value":"7268301","lat":18.327149999999999607780409860424697399139404296875,"lon":-66.848939999999998917701304890215396881103515625,"poi_name":"Callejones Barrio","parent_id":"4565910","long":-66.848939999999998917701304890215396881103515625},"3":{"id":"7268379","label":"Espino Barrio","value":"7268379","lat":18.275369999999998782413968001492321491241455078125,"lon":-66.899709999999998899511410854756832122802734375,"poi_name":"Espino Barrio","parent_id":"4565910","long":-66.899709999999998899511410854756832122802734375},"4":{"id":"7268539","label":"La Torre Barrio","value":"7268539","lat":18.252539999999999764668245916254818439483642578125,"lon":-66.8743199999999973215381032787263393402099609375,"poi_name":"La Torre Barrio","parent_id":"4565910","long":-66.8743199999999973215381032787263393402099609375},"5":{"id":"7268547","label":"Lares Barrio","value":"7268547","lat":18.294290000000000162572177941910922527313232421875,"lon":-66.84399999999999408828443847596645355224609375,"poi_name":"Lares Barrio","parent_id":"4565910","long":-66.84399999999999408828443847596645355224609375},"6":{"id":"7268548","label":"Lares Barrio-Pueblo","value":"7268548","lat":18.296009999999998996145222918130457401275634765625,"lon":-66.8814100000000024692781153135001659393310546875,"poi_name":"Lares Barrio-Pueblo","parent_id":"4565910","long":-66.8814100000000024692781153135001659393310546875},"7":{"id":"7268663","label":"Mirasol Barrio","value":"7268663","lat":18.244150000000001199396137963049113750457763671875,"lon":-66.85039000000000442014425061643123626708984375,"poi_name":"Mirasol Barrio","parent_id":"4565910","long":-66.85039000000000442014425061643123626708984375},"8":{"id":"7268752","label":"Pezuela Barrio","value":"7268752","lat":18.24470000000000169393388205207884311676025390625,"lon":-66.8937800000000066802385845221579074859619140625,"poi_name":"Pezuela Barrio","parent_id":"4565910","long":-66.8937800000000066802385845221579074859619140625},"9":{"id":"7268758","label":"Piletas Barrio","value":"7268758","lat":18.3349699999999984356691129505634307861328125,"lon":-66.8823200000000070986061473377048969268798828125,"poi_name":"Piletas Barrio","parent_id":"4565910","long":-66.8823200000000070986061473377048969268798828125},"10":{"id":"7268787","label":"Pueblo Barrio","value":"7268787","lat":18.3032299999999992223820299841463565826416015625,"lon":-66.8944900000000046702552936039865016937255859375,"poi_name":"Pueblo Barrio","parent_id":"4565910","long":-66.8944900000000046702552936039865016937255859375},"11":{"id":"7268916","label":"R\u00edo Prieto Barrio","value":"7268916","lat":18.211839999999998696011971333064138889312744140625,"lon":-66.8888299999999986766852089203894138336181640625,"poi_name":"R\u00edo Prieto Barrio","parent_id":"4565910","long":-66.8888299999999986766852089203894138336181640625}}