{"success":true,"remaining_lookups":8051,"0":{"id":"7268203","label":"Ant\u00f3n Ru\u00edz Barrio","value":"7268203","lat":18.1794000000000011141310096718370914459228515625,"lon":-65.7863100000000002864908310584723949432373046875,"poi_name":"Ant\u00f3n Ru\u00edz Barrio","parent_id":"4565449","long":-65.7863100000000002864908310584723949432373046875},"1":{"id":"7268272","label":"Buena Vista Barrio","value":"7268272","lat":18.115649999999998698285708087496459484100341796875,"lon":-65.798799999999999954525264911353588104248046875,"poi_name":"Buena Vista Barrio","parent_id":"4565449","long":-65.798799999999999954525264911353588104248046875},"2":{"id":"7268321","label":"Candelero Abajo Barrio","value":"7268321","lat":18.090360000000000439968061982654035091400146484375,"lon":-65.807940000000002100932761095464229583740234375,"poi_name":"Candelero Abajo Barrio","parent_id":"4565449","long":-65.807940000000002100932761095464229583740234375},"3":{"id":"7268322","label":"Candelero Arriba Barrio","value":"7268322","lat":18.10557000000000016370904631912708282470703125,"lon":-65.8340400000000016689227777533233165740966796875,"poi_name":"Candelero Arriba Barrio","parent_id":"4565449","long":-65.8340400000000016689227777533233165740966796875},"4":{"id":"7268355","label":"Cata\u00f1o Barrio","value":"7268355","lat":18.12953999999999865622157813049852848052978515625,"lon":-65.8246199999999959118213155306875705718994140625,"poi_name":"Cata\u00f1o Barrio","parent_id":"4565449","long":-65.8246199999999959118213155306875705718994140625},"5":{"id":"7268094","label":"Collores Barrio","value":"7268094","lat":18.174679999999998614157448173500597476959228515625,"lon":-65.8202399999999983037923811934888362884521484375,"poi_name":"Collores Barrio","parent_id":"4565449","long":-65.8202399999999983037923811934888362884521484375},"6":{"id":"7268486","label":"Humacao Barrio-Pueblo","value":"7268486","lat":18.1514600000000001500666257925331592559814453125,"lon":-65.8249699999999933197614154778420925140380859375,"poi_name":"Humacao Barrio-Pueblo","parent_id":"4565449","long":-65.8249699999999933197614154778420925140380859375},"7":{"id":"7268579","label":"Mab\u00fa Barrio","value":"7268579","lat":18.166070000000001272155714104883372783660888671875,"lon":-65.8372499999999973852027324028313159942626953125,"poi_name":"Mab\u00fa Barrio","parent_id":"4565449","long":-65.8372499999999973852027324028313159942626953125},"8":{"id":"7268599","label":"Mambiche Barrio","value":"7268599","lat":18.197399999999998243538357201032340526580810546875,"lon":-65.810100000000005593392415903508663177490234375,"poi_name":"Mambiche Barrio","parent_id":"4565449","long":-65.810100000000005593392415903508663177490234375},"9":{"id":"7268618","label":"Mariana Barrio","value":"7268618","lat":18.126180000000001513171810074709355831146240234375,"lon":-65.85268999999999550709617324173450469970703125,"poi_name":"Mariana Barrio","parent_id":"4565449","long":-65.85268999999999550709617324173450469970703125},"10":{"id":"7268837","label":"Punta Santiago Barrio","value":"7268837","lat":18.164680000000000603677108301781117916107177734375,"lon":-65.75042999999999437932274304330348968505859375,"poi_name":"Punta Santiago Barrio","parent_id":"4565449","long":-65.75042999999999437932274304330348968505859375},"11":{"id":"7268886","label":"R\u00edo Abajo Barrio","value":"7268886","lat":18.14068999999999931560523691587150096893310546875,"lon":-65.784930000000002792148734442889690399169921875,"poi_name":"R\u00edo Abajo Barrio","parent_id":"4565449","long":-65.784930000000002792148734442889690399169921875},"12":{"id":"7269029","label":"Tejas Barrio","value":"7269029","lat":18.147760000000001667785909376107156276702880859375,"lon":-65.849369999999993297024047933518886566162109375,"poi_name":"Tejas Barrio","parent_id":"4565449","long":-65.849369999999993297024047933518886566162109375}}