{"success":true,"remaining_lookups":8036,"0":{"id":"7268090","label":"Coabey Barrio","value":"7268090","lat":18.214110000000001576836439198814332485198974609375,"lon":-66.5620799999999945839590509422123432159423828125,"poi_name":"Coabey Barrio","parent_id":"4565684","long":-66.5620799999999945839590509422123432159423828125},"1":{"id":"7268095","label":"Collores Barrio","value":"7268095","lat":18.191410000000001190301190945319831371307373046875,"lon":-66.6263799999999974943420966155827045440673828125,"poi_name":"Collores Barrio","parent_id":"4565684","long":-66.6263799999999974943420966155827045440673828125},"2":{"id":"7268521","label":"Jauca Barrio","value":"7268521","lat":18.169709999999998473185769398696720600128173828125,"lon":-66.62740999999999758074409328401088714599609375,"poi_name":"Jauca Barrio","parent_id":"4565684","long":-66.62740999999999758074409328401088714599609375},"3":{"id":"7268522","label":"Jayuya Abajo Barrio","value":"7268522","lat":18.2273899999999997589839040301740169525146484375,"lon":-66.61155999999999721694621257483959197998046875,"poi_name":"Jayuya Abajo Barrio","parent_id":"4565684","long":-66.61155999999999721694621257483959197998046875},"4":{"id":"7268523","label":"Jayuya Barrio-Pueblo","value":"7268523","lat":18.219830000000001746229827404022216796875,"lon":-66.592569999999994934114511124789714813232421875,"poi_name":"Jayuya Barrio-Pueblo","parent_id":"4565684","long":-66.592569999999994934114511124789714813232421875},"5":{"id":"7268607","label":"Mameyes Arriba Barrio","value":"7268607","lat":18.262530000000001706439434201456606388092041015625,"lon":-66.577809999999999490682967007160186767578125,"poi_name":"Mameyes Arriba Barrio","parent_id":"4565684","long":-66.577809999999999490682967007160186767578125},"6":{"id":"7268753","label":"Pica Barrio","value":"7268753","lat":18.165019999999998390194377861917018890380859375,"lon":-66.64515000000000100044417195022106170654296875,"poi_name":"Pica Barrio","parent_id":"4565684","long":-66.64515000000000100044417195022106170654296875},"7":{"id":"7268906","label":"R\u00edo Grande Barrio","value":"7268906","lat":18.230039999999998912016963004134595394134521484375,"lon":-66.5720299999999980400389176793396472930908203125,"poi_name":"R\u00edo Grande Barrio","parent_id":"4565684","long":-66.5720299999999980400389176793396472930908203125},"8":{"id":"7268952","label":"Saliente Barrio","value":"7268952","lat":18.18012999999999834699337952770292758941650390625,"lon":-66.5525999999999982037479639984667301177978515625,"poi_name":"Saliente Barrio","parent_id":"4565684","long":-66.5525999999999982037479639984667301177978515625},"9":{"id":"7269074","label":"Veguitas Barrio","value":"7269074","lat":18.196090000000001651869752095080912113189697265625,"lon":-66.58719999999999572537490166723728179931640625,"poi_name":"Veguitas Barrio","parent_id":"4565684","long":-66.58719999999999572537490166723728179931640625},"10":{"id":"7269092","label":"Zamas Barrio","value":"7269092","lat":18.187290000000000844693204271607100963592529296875,"lon":-66.6050699999999977762854541651904582977294921875,"poi_name":"Zamas Barrio","parent_id":"4565684","long":-66.6050699999999977762854541651904582977294921875}}