{"success":true,"remaining_lookups":8035,"0":{"id":"7268292","label":"Caimito Barrio","value":"7268292","lat":18.242799999999999016608853708021342754364013671875,"lon":-65.866770000000002482920535840094089508056640625,"poi_name":"Caimito Barrio","parent_id":"4565720","long":-65.866770000000002482920535840094089508056640625},"1":{"id":"7268055","label":"Ceiba Norte Barrio","value":"7268055","lat":18.22279999999999944293449516408145427703857421875,"lon":-65.8941300000000040881786844693124294281005859375,"poi_name":"Ceiba Norte Barrio","parent_id":"4565720","long":-65.8941300000000040881786844693124294281005859375},"2":{"id":"7268056","label":"Ceiba Sur Barrio","value":"7268056","lat":18.206199999999999050714905024506151676177978515625,"lon":-65.9113300000000066347638494335114955902099609375,"poi_name":"Ceiba Sur Barrio","parent_id":"4565720","long":-65.9113300000000066347638494335114955902099609375},"3":{"id":"7268446","label":"Gurabo Abajo Barrio","value":"7268446","lat":18.25280000000000057980287238024175167083740234375,"lon":-65.9106000000000022964741219766438007354736328125,"poi_name":"Gurabo Abajo Barrio","parent_id":"4565720","long":-65.9106000000000022964741219766438007354736328125},"4":{"id":"7268447","label":"Gurabo Arriba Barrio","value":"7268447","lat":18.24398000000000052978066378273069858551025390625,"lon":-65.881000000000000227373675443232059478759765625,"poi_name":"Gurabo Arriba Barrio","parent_id":"4565720","long":-65.881000000000000227373675443232059478759765625},"5":{"id":"7268535","label":"Juncos Barrio-Pueblo","value":"7268535","lat":18.2291799999999994952304405160248279571533203125,"lon":-65.92194000000000642103259451687335968017578125,"poi_name":"Juncos Barrio-Pueblo","parent_id":"4565720","long":-65.92194000000000642103259451687335968017578125},"6":{"id":"7268562","label":"Lirios Barrio","value":"7268562","lat":18.2189699999999987767296261154115200042724609375,"lon":-65.9399700000000024147084332071244716644287109375,"poi_name":"Lirios Barrio","parent_id":"4565720","long":-65.9399700000000024147084332071244716644287109375},"7":{"id":"7268603","label":"Mamey Barrio","value":"7268603","lat":18.23977000000000003865352482534945011138916015625,"lon":-65.93434999999999490682967007160186767578125,"poi_name":"Mamey Barrio","parent_id":"4565720","long":-65.93434999999999490682967007160186767578125},"8":{"id":"7269064","label":"Valenciano Abajo Barrio","value":"7269064","lat":18.1934499999999985675458447076380252838134765625,"lon":-65.9219599999999985584508976899087429046630859375,"poi_name":"Valenciano Abajo Barrio","parent_id":"4565720","long":-65.9219599999999985584508976899087429046630859375},"9":{"id":"7269065","label":"Valenciano Arriba Barrio","value":"7269065","lat":18.164320000000000021600499167107045650482177734375,"lon":-65.923270000000002255546860396862030029296875,"poi_name":"Valenciano Arriba Barrio","parent_id":"4565720","long":-65.923270000000002255546860396862030029296875}}