{"success":true,"remaining_lookups":8056,"0":{"id":"7268305","label":"Camarones Barrio","value":"7268305","lat":18.336780000000000967474989010952413082122802734375,"lon":-66.1114400000000017598722479306161403656005859375,"poi_name":"Camarones Barrio","parent_id":"4565120","long":-66.1114400000000017598722479306161403656005859375},"1":{"id":"7268398","label":"Frailes Barrio","value":"7268398","lat":18.3721800000000001773514668457210063934326171875,"lon":-66.1087399999999973942976794205605983734130859375,"poi_name":"Frailes Barrio","parent_id":"4565120","long":-66.1087399999999973942976794205605983734130859375},"2":{"id":"7268427","label":"Guaraguao Barrio","value":"7268427","lat":18.31530000000000057980287238024175167083740234375,"lon":-66.13375999999999521605786867439746856689453125,"poi_name":"Guaraguao Barrio","parent_id":"4565120","long":-66.13375999999999521605786867439746856689453125},"3":{"id":"7268441","label":"Guaynabo Barrio-Pueblo","value":"7268441","lat":18.359970000000000567297320230863988399505615234375,"lon":-66.112359999999995352482073940336704254150390625,"poi_name":"Guaynabo Barrio-Pueblo","parent_id":"4565120","long":-66.112359999999995352482073940336704254150390625},"4":{"id":"7268458","label":"Hato Nuevo Barrio","value":"7268458","lat":18.2974099999999992860466591082513332366943359375,"lon":-66.100269999999994752215570770204067230224609375,"poi_name":"Hato Nuevo Barrio","parent_id":"4565120","long":-66.100269999999994752215570770204067230224609375},"5":{"id":"7268601","label":"Mamey Barrio","value":"7268601","lat":18.314330000000001774651536834426224231719970703125,"lon":-66.115669999999994388417690061032772064208984375,"poi_name":"Mamey Barrio","parent_id":"4565120","long":-66.115669999999994388417690061032772064208984375},"6":{"id":"7268822","label":"Pueblo Viejo Barrio","value":"7268822","lat":18.4140900000000016234480426646769046783447265625,"lon":-66.1142099999999999226929503493010997772216796875,"poi_name":"Pueblo Viejo Barrio","parent_id":"4565120","long":-66.1142099999999999226929503493010997772216796875},"7":{"id":"7268895","label":"R\u00edo Barrio","value":"7268895","lat":18.321079999999998477733242907561361789703369140625,"lon":-66.0934500000000042518877307884395122528076171875,"poi_name":"R\u00edo Barrio","parent_id":"4565120","long":-66.0934500000000042518877307884395122528076171875},"8":{"id":"7268992","label":"Santa Rosa Barrio","value":"7268992","lat":18.35213999999999856527210795320570468902587890625,"lon":-66.12776999999999816282070241868495941162109375,"poi_name":"Santa Rosa Barrio","parent_id":"4565120","long":-66.12776999999999816282070241868495941162109375},"9":{"id":"7269012","label":"Sonadora Barrio","value":"7269012","lat":18.2888200000000011868905858136713504791259765625,"lon":-66.1255900000000025329427444376051425933837890625,"poi_name":"Sonadora Barrio","parent_id":"4565120","long":-66.1255900000000025329427444376051425933837890625}}