{"success":true,"remaining_lookups":8032,"0":{"id":"7268179","label":"Ala de la Piedra Barrio","value":"7268179","lat":18.18099000000000131649358081631362438201904296875,"lon":-66.511740000000003192326403222978115081787109375,"poi_name":"Ala de la Piedra Barrio","parent_id":"4566456","long":-66.511740000000003192326403222978115081787109375},"1":{"id":"7268240","label":"Barros Barrio","value":"7268240","lat":18.247389999999999332658262574113905429840087890625,"lon":-66.412409999999994170138961635529994964599609375,"poi_name":"Barros Barrio","parent_id":"4566456","long":-66.412409999999994170138961635529994964599609375},"2":{"id":"7268243","label":"Bauta Abajo Barrio","value":"7268243","lat":18.195280000000000342197381542064249515533447265625,"lon":-66.4692600000000055615601013414561748504638671875,"poi_name":"Bauta Abajo Barrio","parent_id":"4566456","long":-66.4692600000000055615601013414561748504638671875},"3":{"id":"7268244","label":"Bauta Arriba Barrio","value":"7268244","lat":18.181960000000000121644916362129151821136474609375,"lon":-66.387799999999998590283212251961231231689453125,"poi_name":"Bauta Arriba Barrio","parent_id":"4566456","long":-66.387799999999998590283212251961231231689453125},"4":{"id":"7268256","label":"Bermejales Barrio","value":"7268256","lat":18.175039999999999196234057308174669742584228515625,"lon":-66.4224999999999994315658113919198513031005859375,"poi_name":"Bermejales Barrio","parent_id":"4566456","long":-66.4224999999999994315658113919198513031005859375},"5":{"id":"7268265","label":"Botijas Barrio","value":"7268265","lat":18.224299999999999499777914024889469146728515625,"lon":-66.3634299999999939245753921568393707275390625,"poi_name":"Botijas Barrio","parent_id":"4566456","long":-66.3634299999999939245753921568393707275390625},"6":{"id":"7268284","label":"Cacaos Barrio","value":"7268284","lat":18.2263200000000011868905858136713504791259765625,"lon":-66.4967299999999994497557054273784160614013671875,"poi_name":"Cacaos Barrio","parent_id":"4566456","long":-66.4967299999999994497557054273784160614013671875},"7":{"id":"7268098","label":"Collores Barrio","value":"7268098","lat":18.24143000000000114368958747945725917816162109375,"lon":-66.48700999999999794454197399318218231201171875,"poi_name":"Collores Barrio","parent_id":"4566456","long":-66.48700999999999794454197399318218231201171875},"8":{"id":"7268145","label":"Dami\u00e1n Abajo Barrio","value":"7268145","lat":18.239090000000000912905306904576718807220458984375,"lon":-66.4670899999999988949639373458921909332275390625,"poi_name":"Dami\u00e1n Abajo Barrio","parent_id":"4566456","long":-66.4670899999999988949639373458921909332275390625},"9":{"id":"7268146","label":"Dami\u00e1n Arriba Barrio","value":"7268146","lat":18.2424299999999988131094141863286495208740234375,"lon":-66.433999999999997498889570124447345733642578125,"poi_name":"Dami\u00e1n Arriba Barrio","parent_id":"4566456","long":-66.433999999999997498889570124447345733642578125},"10":{"id":"7268410","label":"Gato Barrio","value":"7268410","lat":18.260690000000000310365066980011761188507080078125,"lon":-66.3898200000000002773958840407431125640869140625,"poi_name":"Gato Barrio","parent_id":"4566456","long":-66.3898200000000002773958840407431125640869140625},"11":{"id":"7268636","label":"Mata de Ca\u00f1as Barrio","value":"7268636","lat":18.258120000000001681428329902701079845428466796875,"lon":-66.3708199999999948204276734031736850738525390625,"poi_name":"Mata de Ca\u00f1as Barrio","parent_id":"4566456","long":-66.3708199999999948204276734031736850738525390625},"12":{"id":"7268709","label":"Orocovis Barrio","value":"7268709","lat":18.222229999999999705551090301014482975006103515625,"lon":-66.3815599999999932379068923182785511016845703125,"poi_name":"Orocovis Barrio","parent_id":"4566456","long":-66.3815599999999932379068923182785511016845703125},"13":{"id":"7268710","label":"Orocovis Barrio-Pueblo","value":"7268710","lat":18.2251499999999992951416061259806156158447265625,"lon":-66.391760000000004993125912733376026153564453125,"poi_name":"Orocovis Barrio-Pueblo","parent_id":"4566456","long":-66.391760000000004993125912733376026153564453125},"14":{"id":"7268745","label":"Pellejas Barrio","value":"7268745","lat":18.219210000000000349018591805361211299896240234375,"lon":-66.4440799999999995861799106933176517486572265625,"poi_name":"Pellejas Barrio","parent_id":"4566456","long":-66.4440799999999995861799106933176517486572265625},"15":{"id":"7268936","label":"Sabana Barrio","value":"7268936","lat":18.204699999999998993871486163698136806488037109375,"lon":-66.378230000000002064552973024547100067138671875,"poi_name":"Sabana Barrio","parent_id":"4566456","long":-66.378230000000002064552973024547100067138671875},"16":{"id":"7268959","label":"Saltos Barrio","value":"7268959","lat":18.202190000000001646185410209000110626220703125,"lon":-66.4127600000000057889337767846882343292236328125,"poi_name":"Saltos Barrio","parent_id":"4566456","long":-66.4127600000000057889337767846882343292236328125}}