{"success":true,"remaining_lookups":8031,"0":{"id":"7268204","label":"Apeadero Barrio","value":"7268204","lat":18.019239999999999923829818726517260074615478515625,"lon":-65.983069999999997889972291886806488037109375,"poi_name":"Apeadero Barrio","parent_id":"4566654","long":-65.983069999999997889972291886806488037109375},"1":{"id":"7268223","label":"Bajo Barrio","value":"7268223","lat":17.974419999999998509565557469613850116729736328125,"lon":-65.989859999999993078745319508016109466552734375,"poi_name":"Bajo Barrio","parent_id":"4566654","long":-65.989859999999993078745319508016109466552734375},"2":{"id":"7268280","label":"Cacao Alto Barrio","value":"7268280","lat":18.0157999999999987039700499735772609710693359375,"lon":-66.0284999999999939745976007543504238128662109375,"poi_name":"Cacao Alto Barrio","parent_id":"4566654","long":-66.0284999999999939745976007543504238128662109375},"3":{"id":"7268281","label":"Cacao Bajo Barrio","value":"7268281","lat":17.9975400000000007594280759803950786590576171875,"lon":-66.0254800000000017234924598596990108489990234375,"poi_name":"Cacao Bajo Barrio","parent_id":"4566654","long":-66.0254800000000017234924598596990108489990234375},"4":{"id":"7268161","label":"Egozcue Barrio","value":"7268161","lat":18.056090000000001083435563487000763416290283203125,"lon":-65.9986799999999931287675281055271625518798828125,"poi_name":"Egozcue Barrio","parent_id":"4566654","long":-65.9986799999999931287675281055271625518798828125},"5":{"id":"7268429","label":"Guardarraya Barrio","value":"7268429","lat":17.974599999999998800603862036950886249542236328125,"lon":-65.935460000000006175469025038182735443115234375,"poi_name":"Guardarraya Barrio","parent_id":"4566654","long":-65.935460000000006175469025038182735443115234375},"6":{"id":"7268500","label":"Jacaboa Barrio","value":"7268500","lat":17.98304999999999864712663111276924610137939453125,"lon":-65.96523999999999432475306093692779541015625,"poi_name":"Jacaboa Barrio","parent_id":"4566654","long":-65.96523999999999432475306093692779541015625},"7":{"id":"7268505","label":"Jagual Barrio","value":"7268505","lat":18.030969999999999942019712761975824832916259765625,"lon":-66.0328300000000041336534195579588413238525390625,"poi_name":"Jagual Barrio","parent_id":"4566654","long":-66.0328300000000041336534195579588413238525390625},"8":{"id":"7268604","label":"Mamey Barrio","value":"7268604","lat":18.014600000000001500666257925331592559814453125,"lon":-66.00261000000000422005541622638702392578125,"poi_name":"Mamey Barrio","parent_id":"4566654","long":-66.00261000000000422005541622638702392578125},"9":{"id":"7268626","label":"Mar\u00edn Barrio","value":"7268626","lat":18.03866000000000013869794202037155628204345703125,"lon":-66.0056000000000011596057447604835033416748046875,"poi_name":"Mar\u00edn Barrio","parent_id":"4566654","long":-66.0056000000000011596057447604835033416748046875},"10":{"id":"7268687","label":"Mulas Barrio","value":"7268687","lat":18.063539999999999707824827055446803569793701171875,"lon":-66.0273399999999952569851302541792392730712890625,"poi_name":"Mulas Barrio","parent_id":"4566654","long":-66.0273399999999952569851302541792392730712890625},"11":{"id":"7268689","label":"Mu\u00f1oz Rivera Barrio","value":"7268689","lat":18.078610000000001178932507173158228397369384765625,"lon":-66.0499999999999971578290569595992565155029296875,"poi_name":"Mu\u00f1oz Rivera Barrio","parent_id":"4566654","long":-66.0499999999999971578290569595992565155029296875},"12":{"id":"7268740","label":"Patillas Barrio-Pueblo","value":"7268740","lat":18.00847999999999871079126023687422275543212890625,"lon":-66.014849999999995588950696401298046112060546875,"poi_name":"Patillas Barrio-Pueblo","parent_id":"4566654","long":-66.014849999999995588950696401298046112060546875},"13":{"id":"7268776","label":"Pollos Barrio","value":"7268776","lat":17.992129999999999512283466174267232418060302734375,"lon":-65.999560000000002446540747769176959991455078125,"poi_name":"Pollos Barrio","parent_id":"4566654","long":-65.999560000000002446540747769176959991455078125},"14":{"id":"7268847","label":"Quebrada Arriba Barrio","value":"7268847","lat":18.048860000000001235775926033966243267059326171875,"lon":-66.0708499999999929741534288041293621063232421875,"poi_name":"Quebrada Arriba Barrio","parent_id":"4566654","long":-66.0708499999999929741534288041293621063232421875},"15":{"id":"7268919","label":"R\u00edos Barrio","value":"7268919","lat":18.01136999999999943611328490078449249267578125,"lon":-65.9654799999999994497557054273784160614013671875,"poi_name":"R\u00edos Barrio","parent_id":"4566654","long":-65.9654799999999994497557054273784160614013671875}}