{"success":true,"remaining_lookups":8043,"0":{"id":"7268224","label":"Bajura Adentro Barrio","value":"7268224","lat":18.4104999999999989768184605054557323455810546875,"lon":-66.52577999999999747160472907125949859619140625,"poi_name":"Bajura Adentro Barrio","parent_id":"4566138","long":-66.52577999999999747160472907125949859619140625},"1":{"id":"7268225","label":"Bajura Afuera Barrio","value":"7268225","lat":18.43227999999999866531652514822781085968017578125,"lon":-66.5116699999999951842255541123449802398681640625,"poi_name":"Bajura Afuera Barrio","parent_id":"4566138","long":-66.5116699999999951842255541123449802398681640625},"2":{"id":"7268116","label":"Coto Norte Barrio","value":"7268116","lat":18.437000000000001165290086646564304828643798828125,"lon":-66.46093999999999368810676969587802886962890625,"poi_name":"Coto Norte Barrio","parent_id":"4566138","long":-66.46093999999999368810676969587802886962890625},"3":{"id":"7268117","label":"Coto Sur Barrio","value":"7268117","lat":18.412690000000001333546606474556028842926025390625,"lon":-66.465990000000005011315806768834590911865234375,"poi_name":"Coto Sur Barrio","parent_id":"4566138","long":-66.465990000000005011315806768834590911865234375},"4":{"id":"7268611","label":"Manat\u00ed Barrio-Pueblo","value":"7268611","lat":18.431039999999999423607732751406729221343994140625,"lon":-66.486299999999999954525264911353588104248046875,"poi_name":"Manat\u00ed Barrio-Pueblo","parent_id":"4566138","long":-66.486299999999999954525264911353588104248046875},"5":{"id":"7268893","label":"R\u00edo Arriba Poniente Barrio","value":"7268893","lat":18.382509999999999905639924691058695316314697265625,"lon":-66.511380000000002610249794088304042816162109375,"poi_name":"R\u00edo Arriba Poniente Barrio","parent_id":"4566138","long":-66.511380000000002610249794088304042816162109375},"6":{"id":"7268894","label":"R\u00edo Arriba Saliente Barrio","value":"7268894","lat":18.38683999999999940655470709316432476043701171875,"lon":-66.4713200000000057343640946783125400543212890625,"poi_name":"R\u00edo Arriba Saliente Barrio","parent_id":"4566138","long":-66.4713200000000057343640946783125400543212890625},"7":{"id":"7269036","label":"Tierras Nuevas Poniente Barrio","value":"7269036","lat":18.463380000000000791260390542447566986083984375,"lon":-66.51479000000000496584107168018817901611328125,"poi_name":"Tierras Nuevas Poniente Barrio","parent_id":"4566138","long":-66.51479000000000496584107168018817901611328125},"8":{"id":"7269037","label":"Tierras Nuevas Saliente Barrio","value":"7269037","lat":18.458819999999999339479472837410867214202880859375,"lon":-66.4697699999999969122654874809086322784423828125,"poi_name":"Tierras Nuevas Saliente Barrio","parent_id":"4566138","long":-66.4697699999999969122654874809086322784423828125}}