{"success":true,"remaining_lookups":8041,"0":{"id":"7268303","label":"Calzada Barrio","value":"7268303","lat":17.993700000000000471800376544706523418426513671875,"lon":-65.9141000000000047975845518521964550018310546875,"poi_name":"Calzada Barrio","parent_id":"4566209","long":-65.9141000000000047975845518521964550018310546875},"1":{"id":"7268370","label":"Emajagua Barrio","value":"7268370","lat":18.004829999999998335624695755541324615478515625,"lon":-65.87668999999999641659087501466274261474609375,"poi_name":"Emajagua Barrio","parent_id":"4566209","long":-65.87668999999999641659087501466274261474609375},"2":{"id":"7268563","label":"Lizas Barrio","value":"7268563","lat":18.021670000000000300133251585066318511962890625,"lon":-65.9388000000000005229594535194337368011474609375,"poi_name":"Lizas Barrio","parent_id":"4566209","long":-65.9388000000000005229594535194337368011474609375},"3":{"id":"7268640","label":"Matuyas Alto Barrio","value":"7268640","lat":18.043310000000001735998012009076774120330810546875,"lon":-65.9702999999999946112438919954001903533935546875,"poi_name":"Matuyas Alto Barrio","parent_id":"4566209","long":-65.9702999999999946112438919954001903533935546875},"4":{"id":"7268641","label":"Matuyas Bajo Barrio","value":"7268641","lat":18.03338000000000107547748484648764133453369140625,"lon":-65.9474799999999987676346790976822376251220703125,"poi_name":"Matuyas Bajo Barrio","parent_id":"4566209","long":-65.9474799999999987676346790976822376251220703125},"5":{"id":"7268642","label":"Maunabo Barrio-Pueblo","value":"7268642","lat":18.007819999999998827888703090138733386993408203125,"lon":-65.9007100000000036743585951626300811767578125,"poi_name":"Maunabo Barrio-Pueblo","parent_id":"4566209","long":-65.9007100000000036743585951626300811767578125},"6":{"id":"7268727","label":"Palo Seco Barrio","value":"7268727","lat":18.0040699999999986857801559381186962127685546875,"lon":-65.93795000000000072759576141834259033203125,"poi_name":"Palo Seco Barrio","parent_id":"4566209","long":-65.93795000000000072759576141834259033203125},"7":{"id":"7268841","label":"Quebrada Arenas Barrio","value":"7268841","lat":18.021820000000001726903064991347491741180419921875,"lon":-65.8932300000000026329871616326272487640380859375,"poi_name":"Quebrada Arenas Barrio","parent_id":"4566209","long":-65.8932300000000026329871616326272487640380859375},"8":{"id":"7269022","label":"Talante Barrio","value":"7269022","lat":18.019079999999998875637174933217465877532958984375,"lon":-65.9081900000000047157300286926329135894775390625,"poi_name":"Talante Barrio","parent_id":"4566209","long":-65.9081900000000047157300286926329135894775390625},"9":{"id":"7269433","label":"Tumbao Barrio","value":"7269433","lat":18.020790000000001640501068322919309139251708984375,"lon":-65.921189999999995734469848684966564178466796875,"poi_name":"Tumbao Barrio","parent_id":"4566209","long":-65.921189999999995734469848684966564178466796875}}