{"success":true,"remaining_lookups":8025,"0":{"id":"7268584","label":"Machuchal Barrio","value":"7268584","lat":18.056470000000000908357833395712077617645263671875,"lon":-66.940910000000002355591277591884136199951171875,"poi_name":"Machuchal Barrio","parent_id":"4568015","long":-66.940910000000002355591277591884136199951171875},"1":{"id":"7268875","label":"Rayo Barrio","value":"7268875","lat":18.0542200000000008230927051045000553131103515625,"lon":-66.9651199999999988676790962927043437957763671875,"poi_name":"Rayo Barrio","parent_id":"4568015","long":-66.9651199999999988676790962927043437957763671875},"2":{"id":"7268882","label":"Rinc\u00f3n Barrio","value":"7268882","lat":18.09264999999999901092451182194054126739501953125,"lon":-66.9422699999999935016603558324277400970458984375,"poi_name":"Rinc\u00f3n Barrio","parent_id":"4568015","long":-66.9422699999999935016603558324277400970458984375},"3":{"id":"7268941","label":"Sabana Grande Barrio-Pueblo","value":"7268941","lat":18.078939999999999344026946346275508403778076171875,"lon":-66.96053000000000565705704502761363983154296875,"poi_name":"Sabana Grande Barrio-Pueblo","parent_id":"4568015","long":-66.96053000000000565705704502761363983154296875},"4":{"id":"7268996","label":"Santana Barrio","value":"7268996","lat":18.109919999999998907469489495269954204559326171875,"lon":-66.966849999999993769961292855441570281982421875,"poi_name":"Santana Barrio","parent_id":"4568015","long":-66.966849999999993769961292855441570281982421875},"5":{"id":"7269020","label":"Sus\u00faa Barrio","value":"7269020","lat":18.036269999999998248085830709896981716156005859375,"lon":-66.9109700000000060526872402988374233245849609375,"poi_name":"Sus\u00faa Barrio","parent_id":"4568015","long":-66.9109700000000060526872402988374233245849609375},"6":{"id":"7269021","label":"Tabonuco Barrio","value":"7269021","lat":18.12810999999999950205165077932178974151611328125,"lon":-66.93509000000000241925590671598911285400390625,"poi_name":"Tabonuco Barrio","parent_id":"4568015","long":-66.93509000000000241925590671598911285400390625},"7":{"id":"7269045","label":"Torre Barrio","value":"7269045","lat":18.069120000000001624584911041893064975738525390625,"lon":-66.9195299999999946294337860308587551116943359375,"poi_name":"Torre Barrio","parent_id":"4568015","long":-66.9195299999999946294337860308587551116943359375}}