{"success":true,"remaining_lookups":9870,"0":{"id":"7839525","label":"Alpine","value":"7839525","lat":-36.8341199999999986403054208494722843170166015625,"lon":146.979360000000013997123460285365581512451171875,"poi_name":"Alpine","parent_id":"2145234","long":146.979360000000013997123460285365581512451171875},"1":{"id":"7839526","label":"Ararat","value":"7839526","lat":-37.489249999999998408384271897375583648681640625,"lon":142.822390000000012832970242016017436981201171875,"poi_name":"Ararat","parent_id":"2145234","long":142.822390000000012832970242016017436981201171875},"2":{"id":"2177089","label":"Ballarat North","value":"2177089","lat":-37.5188399999999973033482092432677745819091796875,"lon":143.772840000000002191882231272757053375244140625,"poi_name":"Ballarat North","parent_id":"2145234","long":143.772840000000002191882231272757053375244140625},"3":{"id":"7839527","label":"Banyule","value":"7839527","lat":-37.73385999999999995679900166578590869903564453125,"lon":145.08575999999999339706846512854099273681640625,"poi_name":"Banyule","parent_id":"2145234","long":145.08575999999999339706846512854099273681640625},"4":{"id":"7839528","label":"Bass Coast","value":"7839528","lat":-38.48507000000000033423930290155112743377685546875,"lon":145.463899999999995316102285869419574737548828125,"poi_name":"Bass Coast","parent_id":"2145234","long":145.463899999999995316102285869419574737548828125},"5":{"id":"7839529","label":"Baw Baw","value":"7839529","lat":-37.96997999999999962028596200980246067047119140625,"lon":146.144039999999989731804816983640193939208984375,"poi_name":"Baw Baw","parent_id":"2145234","long":146.144039999999989731804816983640193939208984375},"6":{"id":"7839530","label":"Bayside","value":"7839530","lat":-37.93986000000000302634362014941871166229248046875,"lon":145.0193199999999933424987830221652984619140625,"poi_name":"Bayside","parent_id":"2145234","long":145.0193199999999933424987830221652984619140625},"7":{"id":"7839531","label":"Benalla","value":"7839531","lat":-36.59040999999999854708221391774713993072509765625,"lon":146.02812000000000125510268844664096832275390625,"poi_name":"Benalla","parent_id":"2145234","long":146.02812000000000125510268844664096832275390625},"8":{"id":"7839532","label":"Boroondara","value":"7839532","lat":-37.82639999999999957935870043002068996429443359375,"lon":145.052989999999994097379385493695735931396484375,"poi_name":"Boroondara","parent_id":"2145234","long":145.052989999999994097379385493695735931396484375},"9":{"id":"7839533","label":"Brimbank","value":"7839533","lat":-37.74287000000000347199602401815354824066162109375,"lon":144.81644000000000005456968210637569427490234375,"poi_name":"Brimbank","parent_id":"2145234","long":144.81644000000000005456968210637569427490234375},"10":{"id":"7839534","label":"Buloke","value":"7839534","lat":-35.84638000000000346290107700042426586151123046875,"lon":143.0520099999999956708052195608615875244140625,"poi_name":"Buloke","parent_id":"2145234","long":143.0520099999999956708052195608615875244140625},"11":{"id":"7839535","label":"Campaspe","value":"7839535","lat":-36.3233800000000002228262019343674182891845703125,"lon":144.7084399999999959618435241281986236572265625,"poi_name":"Campaspe","parent_id":"2145234","long":144.7084399999999959618435241281986236572265625},"12":{"id":"7839536","label":"Cardinia","value":"7839536","lat":-38.09508000000000293994162348099052906036376953125,"lon":145.56454999999999699866748414933681488037109375,"poi_name":"Cardinia","parent_id":"2145234","long":145.56454999999999699866748414933681488037109375},"13":{"id":"7839537","label":"Casey","value":"7839537","lat":-38.0951900000000023283064365386962890625,"lon":145.32278999999999768988345749676227569580078125,"poi_name":"Casey","parent_id":"2145234","long":145.32278999999999768988345749676227569580078125},"14":{"id":"7839538","label":"Central Goldfields","value":"7839538","lat":-36.97888999999999981582732289098203182220458984375,"lon":143.738570000000009940777090378105640411376953125,"poi_name":"Central Goldfields","parent_id":"2145234","long":143.738570000000009940777090378105640411376953125},"15":{"id":"7839539","label":"Colac-Otway","value":"7839539","lat":-38.43872999999999962028596200980246067047119140625,"lon":143.596689999999995279722497798502445220947265625,"poi_name":"Colac-Otway","parent_id":"2145234","long":143.596689999999995279722497798502445220947265625},"16":{"id":"7839540","label":"Corangamite","value":"7839540","lat":-38.21596000000000259433363680727779865264892578125,"lon":143.235420000000004847606760449707508087158203125,"poi_name":"Corangamite","parent_id":"2145234","long":143.235420000000004847606760449707508087158203125},"17":{"id":"2169409","label":"Darebin","value":"2169409","lat":-37.75153000000000247382558882236480712890625,"lon":145.0219299999999975625541992485523223876953125,"poi_name":"Darebin","parent_id":"2145234","long":145.0219299999999975625541992485523223876953125},"18":{"id":"7839541","label":"East Gippsland","value":"7839541","lat":-37.34564000000000305590219795703887939453125,"lon":148.582950000000010959411156363785266876220703125,"poi_name":"East Gippsland","parent_id":"2145234","long":148.582950000000010959411156363785266876220703125},"19":{"id":"7839542","label":"Frankston","value":"7839542","lat":-38.13401999999999958390617393888533115386962890625,"lon":145.16874999999998863131622783839702606201171875,"poi_name":"Frankston","parent_id":"2145234","long":145.16874999999998863131622783839702606201171875},"20":{"id":"7839543","label":"Gannawarra","value":"7839543","lat":-35.73210999999999870624378672800958156585693359375,"lon":143.8531600000000025829649530351161956787109375,"poi_name":"Gannawarra","parent_id":"2145234","long":143.8531600000000025829649530351161956787109375},"21":{"id":"7839544","label":"Glen Eira","value":"7839544","lat":-37.8994900000000001227817847393453121185302734375,"lon":145.040989999999993642632034607231616973876953125,"poi_name":"Glen Eira","parent_id":"2145234","long":145.040989999999993642632034607231616973876953125},"22":{"id":"7839545","label":"Glenelg","value":"7839545","lat":-37.89083000000000112095221993513405323028564453125,"lon":141.44238000000001420630724169313907623291015625,"poi_name":"Glenelg","parent_id":"2145234","long":141.44238000000001420630724169313907623291015625},"23":{"id":"7839546","label":"Golden Plains","value":"7839546","lat":-37.8523100000000027876012609340250492095947265625,"lon":143.8635199999999940700945444405078887939453125,"poi_name":"Golden Plains","parent_id":"2145234","long":143.8635199999999940700945444405078887939453125},"24":{"id":"7839547","label":"Greater Bendigo","value":"7839547","lat":-36.72278000000000020008883439004421234130859375,"lon":144.439740000000000463842297904193401336669921875,"poi_name":"Greater Bendigo","parent_id":"2145234","long":144.439740000000000463842297904193401336669921875},"25":{"id":"7839548","label":"Greater Dandenong","value":"7839548","lat":-38.0011200000000002319211489520967006683349609375,"lon":145.190730000000002064552973024547100067138671875,"poi_name":"Greater Dandenong","parent_id":"2145234","long":145.190730000000002064552973024547100067138671875},"26":{"id":"7839549","label":"Greater Geelong","value":"7839549","lat":-38.05181999999999931105776340700685977935791015625,"lon":144.4613699999999880674295127391815185546875,"poi_name":"Greater Geelong","parent_id":"2145234","long":144.4613699999999880674295127391815185546875},"27":{"id":"7839550","label":"Greater Shepparton","value":"7839550","lat":-36.4274199999999979127096594311296939849853515625,"lon":145.41518999999999550709617324173450469970703125,"poi_name":"Greater Shepparton","parent_id":"2145234","long":145.41518999999999550709617324173450469970703125},"28":{"id":"7839551","label":"Hepburn","value":"7839551","lat":-37.31707000000000107320374809205532073974609375,"lon":144.0335499999999910869519226253032684326171875,"poi_name":"Hepburn","parent_id":"2145234","long":144.0335499999999910869519226253032684326171875},"29":{"id":"7839552","label":"Hindmarsh","value":"7839552","lat":-36.03293000000000034788172342814505100250244140625,"lon":141.73282000000000380168785341084003448486328125,"poi_name":"Hindmarsh","parent_id":"2145234","long":141.73282000000000380168785341084003448486328125},"30":{"id":"7839553","label":"Hobsons Bay","value":"7839553","lat":-37.85694000000000158934199134819209575653076171875,"lon":144.833470000000005484253051690757274627685546875,"poi_name":"Hobsons Bay","parent_id":"2145234","long":144.833470000000005484253051690757274627685546875},"31":{"id":"7839554","label":"Horsham","value":"7839554","lat":-36.8285699999999991405275068245828151702880859375,"lon":142.114479999999986148395691998302936553955078125,"poi_name":"Horsham","parent_id":"2145234","long":142.114479999999986148395691998302936553955078125},"32":{"id":"7839555","label":"Hume","value":"7839555","lat":-37.59716999999999842430042917840182781219482421875,"lon":144.805110000000013315002433955669403076171875,"poi_name":"Hume","parent_id":"2145234","long":144.805110000000013315002433955669403076171875},"33":{"id":"7839795","label":"Indigo","value":"7839795","lat":-36.208539999999999281499185599386692047119140625,"lon":146.6862800000000106592779047787189483642578125,"poi_name":"Indigo","parent_id":"2145234","long":146.6862800000000106592779047787189483642578125},"34":{"id":"7839796","label":"Kingston","value":"7839796","lat":-38.00450000000000017053025658242404460906982421875,"lon":145.095310000000011996235116384923458099365234375,"poi_name":"Kingston","parent_id":"2145234","long":145.095310000000011996235116384923458099365234375},"35":{"id":"7839797","label":"Knox","value":"7839797","lat":-37.8989499999999992496668710373342037200927734375,"lon":145.2692299999999931969796307384967803955078125,"poi_name":"Knox","parent_id":"2145234","long":145.2692299999999931969796307384967803955078125},"36":{"id":"7839798","label":"Latrobe","value":"7839798","lat":-38.25379000000000218051354750059545040130615234375,"lon":146.461240000000003647073754109442234039306640625,"poi_name":"Latrobe","parent_id":"2145234","long":146.461240000000003647073754109442234039306640625},"37":{"id":"7839799","label":"Loddon","value":"7839799","lat":-36.4040600000000011959855328314006328582763671875,"lon":143.829640000000011923475540243089199066162109375,"poi_name":"Loddon","parent_id":"2145234","long":143.829640000000011923475540243089199066162109375},"38":{"id":"7839800","label":"Macedon Ranges","value":"7839800","lat":-37.33342999999999989313437254168093204498291015625,"lon":144.615810000000010404619388282299041748046875,"poi_name":"Macedon Ranges","parent_id":"2145234","long":144.615810000000010404619388282299041748046875},"39":{"id":"7839801","label":"Manningham","value":"7839801","lat":-37.75710000000000121644916362129151821136474609375,"lon":145.180530000000004520188667811453342437744140625,"poi_name":"Manningham","parent_id":"2145234","long":145.180530000000004520188667811453342437744140625},"40":{"id":"7839802","label":"Mansfield","value":"7839802","lat":-37.24130000000000251247911364771425724029541015625,"lon":146.14803000000000565705704502761363983154296875,"poi_name":"Mansfield","parent_id":"2145234","long":146.14803000000000565705704502761363983154296875},"41":{"id":"7839803","label":"Maribyrnong","value":"7839803","lat":-37.7914099999999990586729836650192737579345703125,"lon":144.87785999999999830833985470235347747802734375,"poi_name":"Maribyrnong","parent_id":"2145234","long":144.87785999999999830833985470235347747802734375},"42":{"id":"7839804","label":"Maroondah","value":"7839804","lat":-37.8028800000000018144419300369918346405029296875,"lon":145.266030000000000654836185276508331298828125,"poi_name":"Maroondah","parent_id":"2145234","long":145.266030000000000654836185276508331298828125},"43":{"id":"7839805","label":"Melbourne","value":"7839805","lat":-37.81306000000000011596057447604835033416748046875,"lon":144.944220000000001391526893712580204010009765625,"poi_name":"Melbourne","parent_id":"2145234","long":144.944220000000001391526893712580204010009765625},"44":{"id":"7839806","label":"Melton","value":"7839806","lat":-37.68144000000000204408934223465621471405029296875,"lon":144.622919999999993478922988288104534149169921875,"poi_name":"Melton","parent_id":"2145234","long":144.622919999999993478922988288104534149169921875},"45":{"id":"2157697","label":"Mildura Shire","value":"2157697","lat":-34.86449999999999960209606797434389591217041015625,"lon":141.852319999999991750883054919540882110595703125,"poi_name":"Mildura Shire","parent_id":"2145234","long":141.852319999999991750883054919540882110595703125},"46":{"id":"7839807","label":"Mitchell","value":"7839807","lat":-37.17535000000000167119651450775563716888427734375,"lon":144.97998999999998659404809586703777313232421875,"poi_name":"Mitchell","parent_id":"2145234","long":144.97998999999998659404809586703777313232421875},"47":{"id":"7839808","label":"Moira","value":"7839808","lat":-36.050600000000002864908310584723949432373046875,"lon":145.538150000000001682565198279917240142822265625,"poi_name":"Moira","parent_id":"2145234","long":145.538150000000001682565198279917240142822265625},"48":{"id":"7839809","label":"Monash","value":"7839809","lat":-37.8967499999999972715158946812152862548828125,"lon":145.147140000000007376002031378448009490966796875,"poi_name":"Monash","parent_id":"2145234","long":145.147140000000007376002031378448009490966796875},"49":{"id":"7839810","label":"Moonee Valley","value":"7839810","lat":-37.7494099999999974670572555623948574066162109375,"lon":144.893249999999994770405464805662631988525390625,"poi_name":"Moonee Valley","parent_id":"2145234","long":144.893249999999994770405464805662631988525390625},"50":{"id":"7839811","label":"Moorabool","value":"7839811","lat":-37.6333800000000024965629563666880130767822265625,"lon":144.219459999999997990016709081828594207763671875,"poi_name":"Moorabool","parent_id":"2145234","long":144.219459999999997990016709081828594207763671875},"51":{"id":"7839812","label":"Moreland","value":"7839812","lat":-37.73557000000000272166289505548775196075439453125,"lon":144.9374500000000125510268844664096832275390625,"poi_name":"Moreland","parent_id":"2145234","long":144.9374500000000125510268844664096832275390625},"52":{"id":"7839813","label":"Mornington Peninsula","value":"7839813","lat":-38.3400400000000018962964531965553760528564453125,"lon":145.05455000000000609361450187861919403076171875,"poi_name":"Mornington Peninsula","parent_id":"2145234","long":145.05455000000000609361450187861919403076171875},"53":{"id":"7839814","label":"Mount Alexander","value":"7839814","lat":-37.0760700000000014142642612569034099578857421875,"lon":144.188250000000010686562745831906795501708984375,"poi_name":"Mount Alexander","parent_id":"2145234","long":144.188250000000010686562745831906795501708984375},"54":{"id":"7839815","label":"Moyne","value":"7839815","lat":-38.187849999999997407940099947154521942138671875,"lon":142.462169999999986202965374104678630828857421875,"poi_name":"Moyne","parent_id":"2145234","long":142.462169999999986202965374104678630828857421875},"55":{"id":"7839816","label":"Murrindindi","value":"7839816","lat":-37.28103999999999729197952547110617160797119140625,"lon":145.67437000000001035004970617592334747314453125,"poi_name":"Murrindindi","parent_id":"2145234","long":145.67437000000001035004970617592334747314453125},"56":{"id":"7839817","label":"Nillumbik","value":"7839817","lat":-37.6147399999999976216713548637926578521728515625,"lon":145.21706000000000358340912498533725738525390625,"poi_name":"Nillumbik","parent_id":"2145234","long":145.21706000000000358340912498533725738525390625},"57":{"id":"7839818","label":"Northern Grampians","value":"7839818","lat":-36.8496200000000015961632016114890575408935546875,"lon":142.873029999999999972715158946812152862548828125,"poi_name":"Northern Grampians","parent_id":"2145234","long":142.873029999999999972715158946812152862548828125},"58":{"id":"7839819","label":"Port Phillip","value":"7839819","lat":-37.8515900000000016234480426646769046783447265625,"lon":144.96992000000000189174897968769073486328125,"poi_name":"Port Phillip","parent_id":"2145234","long":144.96992000000000189174897968769073486328125},"59":{"id":"7839820","label":"Pyrenees","value":"7839820","lat":-37.32755999999999829697117093019187450408935546875,"lon":143.364720000000005484253051690757274627685546875,"poi_name":"Pyrenees","parent_id":"2145234","long":143.364720000000005484253051690757274627685546875},"60":{"id":"7839821","label":"Queenscliffe","value":"7839821","lat":-38.26895999999999986584953148849308490753173828125,"lon":144.662479999999987967385095544159412384033203125,"poi_name":"Queenscliffe","parent_id":"2145234","long":144.662479999999987967385095544159412384033203125},"61":{"id":"7839822","label":"South Gippsland","value":"7839822","lat":-38.698970000000002755768946371972560882568359375,"lon":146.06702000000001362423063255846500396728515625,"poi_name":"South Gippsland","parent_id":"2145234","long":146.06702000000001362423063255846500396728515625},"62":{"id":"7839823","label":"Southern Grampians","value":"7839823","lat":-37.52989000000000174850356415845453739166259765625,"lon":142.02532999999999674400896765291690826416015625,"poi_name":"Southern Grampians","parent_id":"2145234","long":142.02532999999999674400896765291690826416015625},"63":{"id":"7839824","label":"Stonnington","value":"7839824","lat":-37.861299999999999954525264911353588104248046875,"lon":145.03775999999999157807906158268451690673828125,"poi_name":"Stonnington","parent_id":"2145234","long":145.03775999999999157807906158268451690673828125},"64":{"id":"7839825","label":"Strathbogie","value":"7839825","lat":-36.72402000000000299451130558736622333526611328125,"lon":145.329379999999986239345162175595760345458984375,"poi_name":"Strathbogie","parent_id":"2145234","long":145.329379999999986239345162175595760345458984375},"65":{"id":"7839826","label":"Surf Coast","value":"7839826","lat":-38.33997000000000099362296168692409992218017578125,"lon":144.11529999999999063220457173883914947509765625,"poi_name":"Surf Coast","parent_id":"2145234","long":144.11529999999999063220457173883914947509765625},"66":{"id":"7839827","label":"Swan Hill","value":"7839827","lat":-35.1006100000000031968738767318427562713623046875,"lon":143.168100000000009686118573881685733795166015625,"poi_name":"Swan Hill","parent_id":"2145234","long":143.168100000000009686118573881685733795166015625},"67":{"id":"7839828","label":"Towong","value":"7839828","lat":-36.365870000000001027729013003408908843994140625,"lon":147.627170000000006666596163995563983917236328125,"poi_name":"Towong","parent_id":"2145234","long":147.627170000000006666596163995563983917236328125},"68":{"id":"7839829","label":"Wangaratta","value":"7839829","lat":-36.6159899999999964848029776476323604583740234375,"lon":146.428390000000007376002031378448009490966796875,"poi_name":"Wangaratta","parent_id":"2145234","long":146.428390000000007376002031378448009490966796875},"69":{"id":"7839830","label":"Warrnambool","value":"7839830","lat":-38.37818999999999647343429387547075748443603515625,"lon":142.521649999999993951860233210027217864990234375,"poi_name":"Warrnambool","parent_id":"2145234","long":142.521649999999993951860233210027217864990234375},"70":{"id":"7839831","label":"Wellington","value":"7839831","lat":-38.0376499999999992951416061259806156158447265625,"lon":147.016969999999986384864314459264278411865234375,"poi_name":"Wellington","parent_id":"2145234","long":147.016969999999986384864314459264278411865234375},"71":{"id":"7839832","label":"West Wimmera","value":"7839832","lat":-36.599209999999999354258761741220951080322265625,"lon":141.400380000000012614691513590514659881591796875,"poi_name":"West Wimmera","parent_id":"2145234","long":141.400380000000012614691513590514659881591796875},"72":{"id":"7839833","label":"Whitehorse","value":"7839833","lat":-37.82867999999999852889231988228857517242431640625,"lon":145.154320000000012669261195696890354156494140625,"poi_name":"Whitehorse","parent_id":"2145234","long":145.154320000000012669261195696890354156494140625},"73":{"id":"7839834","label":"Whittlesea","value":"7839834","lat":-37.550870000000003301465767435729503631591796875,"lon":145.09375,"poi_name":"Whittlesea","parent_id":"2145234","long":145.09375},"74":{"id":"7839835","label":"Wodonga","value":"7839835","lat":-36.144689999999997098711901344358921051025390625,"lon":146.888180000000005520632839761674404144287109375,"poi_name":"Wodonga","parent_id":"2145234","long":146.888180000000005520632839761674404144287109375},"75":{"id":"7839836","label":"Wyndham","value":"7839836","lat":-37.89280000000000114823706098832190036773681640625,"lon":144.635729999999995243342709727585315704345703125,"poi_name":"Wyndham","parent_id":"2145234","long":144.635729999999995243342709727585315704345703125},"76":{"id":"2142478","label":"Yarra","value":"2142478","lat":-37.80178000000000082536644185893237590789794921875,"lon":144.99592999999998710336512885987758636474609375,"poi_name":"Yarra","parent_id":"2145234","long":144.99592999999998710336512885987758636474609375},"77":{"id":"7839837","label":"Yarra Ranges","value":"7839837","lat":-37.75005999999999772853698232211172580718994140625,"lon":145.7370799999999917417881079018115997314453125,"poi_name":"Yarra Ranges","parent_id":"2145234","long":145.7370799999999917417881079018115997314453125},"78":{"id":"7839838","label":"Yarriambiack","value":"7839838","lat":-36.0261799999999965393726597540080547332763671875,"lon":142.40451999999999088686308823525905609130859375,"poi_name":"Yarriambiack","parent_id":"2145234","long":142.40451999999999088686308823525905609130859375}}