{"success":true,"remaining_lookups":9871,"0":{"id":"7839665","label":"Break O'Day","value":"7839665","lat":-41.39068999999999931560523691587150096893310546875,"lon":147.974770000000006575646693818271160125732421875,"poi_name":"Break O'Day","parent_id":"2147291","long":147.974770000000006575646693818271160125732421875},"1":{"id":"7839351","label":"Brighton","value":"7839351","lat":-42.726730000000003428795025683939456939697265625,"lon":147.242330000000009704308467917144298553466796875,"poi_name":"Brighton","parent_id":"2147291","long":147.242330000000009704308467917144298553466796875},"2":{"id":"7839352","label":"Burnie","value":"7839352","lat":-41.1965000000000003410605131648480892181396484375,"lon":145.811360000000007630660547874867916107177734375,"poi_name":"Burnie","parent_id":"2147291","long":145.811360000000007630660547874867916107177734375},"3":{"id":"7839353","label":"Central Coast","value":"7839353","lat":-41.26998999999999995225152815692126750946044921875,"lon":146.059159999999991441654856316745281219482421875,"poi_name":"Central Coast","parent_id":"2147291","long":146.059159999999991441654856316745281219482421875},"4":{"id":"7839354","label":"Central Highlands","value":"7839354","lat":-42.19653000000000275804268312640488147735595703125,"lon":146.63934000000000423824531026184558868408203125,"poi_name":"Central Highlands","parent_id":"2147291","long":146.63934000000000423824531026184558868408203125},"5":{"id":"7839355","label":"Circular Head","value":"7839355","lat":-41.01991000000000298086888506077229976654052734375,"lon":145.083660000000008949427865445613861083984375,"poi_name":"Circular Head","parent_id":"2147291","long":145.083660000000008949427865445613861083984375},"6":{"id":"7839356","label":"Clarence","value":"7839356","lat":-42.87369000000000340833139489404857158660888671875,"lon":147.44724999999999681676854379475116729736328125,"poi_name":"Clarence","parent_id":"2147291","long":147.44724999999999681676854379475116729736328125},"7":{"id":"7839357","label":"Derwent Valley","value":"7839357","lat":-42.80382999999999782403392600826919078826904296875,"lon":146.52969999999999117790139280259609222412109375,"poi_name":"Derwent Valley","parent_id":"2147291","long":146.52969999999999117790139280259609222412109375},"8":{"id":"7839666","label":"Devonport","value":"7839666","lat":-41.21296000000000248064679908566176891326904296875,"lon":146.32400999999998703060555271804332733154296875,"poi_name":"Devonport","parent_id":"2147291","long":146.32400999999998703060555271804332733154296875},"9":{"id":"7839667","label":"Dorset","value":"7839667","lat":-41.04789000000000243062459048815071582794189453125,"lon":147.7316700000000082582118920981884002685546875,"poi_name":"Dorset","parent_id":"2147291","long":147.7316700000000082582118920981884002685546875},"10":{"id":"7839668","label":"Flinders","value":"7839668","lat":-40.03799000000000063437255448661744594573974609375,"lon":148.139649999999988949639373458921909332275390625,"poi_name":"Flinders","parent_id":"2147291","long":148.139649999999988949639373458921909332275390625},"11":{"id":"7839669","label":"George Town","value":"7839669","lat":-41.11981999999999715100784669630229473114013671875,"lon":147.01731000000000904037733562290668487548828125,"poi_name":"George Town","parent_id":"2147291","long":147.01731000000000904037733562290668487548828125},"12":{"id":"7839670","label":"Glamorgan\/Spring Bay","value":"7839670","lat":-42.27832000000000078898665378801524639129638671875,"lon":147.96674999999999045030563138425350189208984375,"poi_name":"Glamorgan\/Spring Bay","parent_id":"2147291","long":147.96674999999999045030563138425350189208984375},"13":{"id":"7839671","label":"Glenorchy","value":"7839671","lat":-42.8318799999999981764631229452788829803466796875,"lon":147.22953999999998586645233444869518280029296875,"poi_name":"Glenorchy","parent_id":"2147291","long":147.22953999999998586645233444869518280029296875},"14":{"id":"7839672","label":"Hobart","value":"7839672","lat":-42.89386999999999972033037920482456684112548828125,"lon":147.2788600000000087675289250910282135009765625,"poi_name":"Hobart","parent_id":"2147291","long":147.2788600000000087675289250910282135009765625},"15":{"id":"7839673","label":"Huon Valley","value":"7839673","lat":-43.29384999999999905639924691058695316314697265625,"lon":146.565550000000001773514668457210063934326171875,"poi_name":"Huon Valley","parent_id":"2147291","long":146.565550000000001773514668457210063934326171875},"16":{"id":"7839674","label":"Kentish","value":"7839674","lat":-41.46341000000000320824256050400435924530029296875,"lon":146.17725999999998975908965803682804107666015625,"poi_name":"Kentish","parent_id":"2147291","long":146.17725999999998975908965803682804107666015625},"17":{"id":"7839675","label":"King Island","value":"7839675","lat":-39.87214999999999776036929688416421413421630859375,"lon":143.991530000000011568772606551647186279296875,"poi_name":"King Island","parent_id":"2147291","long":143.991530000000011568772606551647186279296875},"18":{"id":"7839676","label":"Kingborough","value":"7839676","lat":-42.97451000000000220779838855378329753875732421875,"lon":147.2511299999999891952029429376125335693359375,"poi_name":"Kingborough","parent_id":"2147291","long":147.2511299999999891952029429376125335693359375},"19":{"id":"7839677","label":"Latrobe","value":"7839677","lat":-41.21551000000000186673787538893520832061767578125,"lon":146.4065600000000131331034936010837554931640625,"poi_name":"Latrobe","parent_id":"2147291","long":146.4065600000000131331034936010837554931640625},"20":{"id":"7839678","label":"Launceston","value":"7839678","lat":-41.320999999999997953636921010911464691162109375,"lon":147.3123600000000124055077321827411651611328125,"poi_name":"Launceston","parent_id":"2147291","long":147.3123600000000124055077321827411651611328125},"21":{"id":"7839679","label":"Meander Valley","value":"7839679","lat":-41.64952000000000253976395470090210437774658203125,"lon":146.545719999999988658601068891584873199462890625,"poi_name":"Meander Valley","parent_id":"2147291","long":146.545719999999988658601068891584873199462890625},"22":{"id":"7839680","label":"Northern Midlands","value":"7839680","lat":-41.8798799999999999954525264911353588104248046875,"lon":147.457760000000007494236342608928680419921875,"poi_name":"Northern Midlands","parent_id":"2147291","long":147.457760000000007494236342608928680419921875},"23":{"id":"7839861","label":"Sorell","value":"7839861","lat":-42.7890799999999984493115334771573543548583984375,"lon":147.6948800000000119325704872608184814453125,"poi_name":"Sorell","parent_id":"2147291","long":147.6948800000000119325704872608184814453125},"24":{"id":"7839862","label":"Southern Midlands","value":"7839862","lat":-42.4178500000000013869794202037155628204345703125,"lon":147.43414000000001351509126834571361541748046875,"poi_name":"Southern Midlands","parent_id":"2147291","long":147.43414000000001351509126834571361541748046875},"25":{"id":"7839863","label":"Tasman Peninsula","value":"7839863","lat":-43.16244999999999976125764078460633754730224609375,"lon":147.947390000000012832970242016017436981201171875,"poi_name":"Tasman Peninsula","parent_id":"2147291","long":147.947390000000012832970242016017436981201171875},"26":{"id":"7839371","label":"Waratah\/Wynyard","value":"7839371","lat":-41.3070900000000023055690689943730831146240234375,"lon":145.458310000000011541487765498459339141845703125,"poi_name":"Waratah\/Wynyard","parent_id":"2147291","long":145.458310000000011541487765498459339141845703125},"27":{"id":"7839372","label":"West Coast","value":"7839372","lat":-42.452460000000002082742867060005664825439453125,"lon":145.522639999999995552570908330380916595458984375,"poi_name":"West Coast","parent_id":"2147291","long":145.522639999999995552570908330380916595458984375},"28":{"id":"7839373","label":"West Tamar","value":"7839373","lat":-41.264409999999998035491444170475006103515625,"lon":146.89123000000000729414750821888446807861328125,"poi_name":"West Tamar","parent_id":"2147291","long":146.89123000000000729414750821888446807861328125}}