{"success":true,"remaining_lookups":9874,"0":{"id":"2178173","label":"Albury Municipality","value":"2178173","lat":-36.01494000000000283989720628596842288970947265625,"lon":146.95683999999999969077180139720439910888671875,"poi_name":"Albury Municipality","parent_id":"2155400","long":146.95683999999999969077180139720439910888671875},"1":{"id":"2177670","label":"Armidale Dumaresq","value":"2177670","lat":-30.58124000000000108911990537308156490325927734375,"lon":151.8748600000000124055077321827411651611328125,"poi_name":"Armidale Dumaresq","parent_id":"2155400","long":151.8748600000000124055077321827411651611328125},"2":{"id":"7839683","label":"Ashfield","value":"7839683","lat":-33.888609999999999899955582804977893829345703125,"lon":151.13141999999999143255990929901599884033203125,"poi_name":"Ashfield","parent_id":"2155400","long":151.13141999999999143255990929901599884033203125},"3":{"id":"7839684","label":"Auburn","value":"7839684","lat":-33.85430000000000205773176276125013828277587890625,"lon":151.048120000000011486918083392083644866943359375,"poi_name":"Auburn","parent_id":"2155400","long":151.048120000000011486918083392083644866943359375},"4":{"id":"7839686","label":"Ballina","value":"7839686","lat":-28.85273000000000109821485239081084728240966796875,"lon":153.485680000000002110027708113193511962890625,"poi_name":"Ballina","parent_id":"2155400","long":153.485680000000002110027708113193511962890625},"5":{"id":"7839687","label":"Balranald","value":"7839687","lat":-34.67839000000000027057467377744615077972412109375,"lon":143.563839999999999008650775067508220672607421875,"poi_name":"Balranald","parent_id":"2155400","long":143.563839999999999008650775067508220672607421875},"6":{"id":"7839688","label":"Bankstown","value":"7839688","lat":-33.9238399999999984402165864594280719757080078125,"lon":151.020749999999992496668710373342037200927734375,"poi_name":"Bankstown","parent_id":"2155400","long":151.020749999999992496668710373342037200927734375},"7":{"id":"7839689","label":"Bathurst Regional","value":"7839689","lat":-33.4731000000000022964741219766438007354736328125,"lon":149.51956000000001267835614271461963653564453125,"poi_name":"Bathurst Regional","parent_id":"2155400","long":149.51956000000001267835614271461963653564453125},"8":{"id":"7839691","label":"Bega Valley","value":"7839691","lat":-36.81645999999999929741534288041293621063232421875,"lon":149.7205999999999903593561612069606781005859375,"poi_name":"Bega Valley","parent_id":"2155400","long":149.7205999999999903593561612069606781005859375},"9":{"id":"7839692","label":"Bellingen","value":"7839692","lat":-30.373940000000001049329512170515954494476318359375,"lon":152.7249199999999973442754708230495452880859375,"poi_name":"Bellingen","parent_id":"2155400","long":152.7249199999999973442754708230495452880859375},"10":{"id":"7839693","label":"Berrigan","value":"7839693","lat":-35.7519199999999983674570103175938129425048828125,"lon":145.669839999999993551682564429938793182373046875,"poi_name":"Berrigan","parent_id":"2155400","long":145.669839999999993551682564429938793182373046875},"11":{"id":"7839694","label":"Blacktown","value":"7839694","lat":-33.74016000000000303771230392158031463623046875,"lon":150.8625299999999924693838693201541900634765625,"poi_name":"Blacktown","parent_id":"2155400","long":150.8625299999999924693838693201541900634765625},"12":{"id":"7839695","label":"Bland","value":"7839695","lat":-33.91904000000000252157406066544353961944580078125,"lon":146.927179999999992787707014940679073333740234375,"poi_name":"Bland","parent_id":"2155400","long":146.927179999999992787707014940679073333740234375},"13":{"id":"7839696","label":"Blayney","value":"7839696","lat":-33.6165299999999973579178913496434688568115234375,"lon":149.130459999999999354258761741220951080322265625,"poi_name":"Blayney","parent_id":"2155400","long":149.130459999999999354258761741220951080322265625},"14":{"id":"2175228","label":"Blue Mountains Municipality","value":"2175228","lat":-33.6320300000000003137756721116602420806884765625,"lon":150.412929999999988694980856962502002716064453125,"poi_name":"Blue Mountains Municipality","parent_id":"2155400","long":150.412929999999988694980856962502002716064453125},"15":{"id":"7839697","label":"Bogan","value":"7839697","lat":-31.570119999999999294004737748764455318450927734375,"lon":146.906170000000003028617356903851032257080078125,"poi_name":"Bogan","parent_id":"2155400","long":146.906170000000003028617356903851032257080078125},"16":{"id":"7839698","label":"Bombala","value":"7839698","lat":-36.91100999999999743295120424591004848480224609375,"lon":148.95274000000000569343683309853076934814453125,"poi_name":"Bombala","parent_id":"2155400","long":148.95274000000000569343683309853076934814453125},"17":{"id":"7839699","label":"Boorowa","value":"7839699","lat":-34.28790000000000048885340220294892787933349609375,"lon":148.84233000000000401996658183634281158447265625,"poi_name":"Boorowa","parent_id":"2155400","long":148.84233000000000401996658183634281158447265625},"18":{"id":"7839700","label":"Botany Bay","value":"7839700","lat":-33.94659999999999655528881703503429889678955078125,"lon":151.19873999999998659404809586703777313232421875,"poi_name":"Botany Bay","parent_id":"2155400","long":151.19873999999998659404809586703777313232421875},"19":{"id":"7839701","label":"Bourke","value":"7839701","lat":-29.9958400000000011687006917782127857208251953125,"lon":145.36160000000000991349224932491779327392578125,"poi_name":"Bourke","parent_id":"2155400","long":145.36160000000000991349224932491779327392578125},"20":{"id":"7839702","label":"Brewarrina","value":"7839702","lat":-29.95054999999999978399500832892954349517822265625,"lon":147.147600000000011277734301984310150146484375,"poi_name":"Brewarrina","parent_id":"2155400","long":147.147600000000011277734301984310150146484375},"21":{"id":"2173910","label":"Broken Hill Municipality","value":"2173910","lat":-31.949999999999999289457264239899814128875732421875,"lon":141.43333000000001220541889779269695281982421875,"poi_name":"Broken Hill Municipality","parent_id":"2155400","long":141.43333000000001220541889779269695281982421875},"22":{"id":"7839703","label":"Burwood","value":"7839703","lat":-33.88535999999999859255694900639355182647705078125,"lon":151.10480999999998630300979129970073699951171875,"poi_name":"Burwood","parent_id":"2155400","long":151.10480999999998630300979129970073699951171875},"23":{"id":"2172879","label":"Byron Shire","value":"2172879","lat":-28.6166699999999991632648743689060211181640625,"lon":153.516670000000004847606760449707508087158203125,"poi_name":"Byron Shire","parent_id":"2155400","long":153.516670000000004847606760449707508087158203125},"24":{"id":"7839704","label":"Cabonne","value":"7839704","lat":-33.110759999999999081410351209342479705810546875,"lon":148.826940000000007557900971733033657073974609375,"poi_name":"Cabonne","parent_id":"2155400","long":148.826940000000007557900971733033657073974609375},"25":{"id":"7839705","label":"Camden","value":"7839705","lat":-34.01610000000000155750967678613960742950439453125,"lon":150.72521000000000412910594604909420013427734375,"poi_name":"Camden","parent_id":"2155400","long":150.72521000000000412910594604909420013427734375},"26":{"id":"2172583","label":"Campbelltown Municipality","value":"2172583","lat":-34.08332999999999657347871107049286365509033203125,"lon":150.83332999999998946805135346949100494384765625,"poi_name":"Campbelltown Municipality","parent_id":"2155400","long":150.83332999999998946805135346949100494384765625},"27":{"id":"7839706","label":"Canada Bay","value":"7839706","lat":-33.86590000000000344471118296496570110321044921875,"lon":151.115910000000013724275049753487110137939453125,"poi_name":"Canada Bay","parent_id":"2155400","long":151.115910000000013724275049753487110137939453125},"28":{"id":"7839707","label":"Canterbury","value":"7839707","lat":-33.92228999999999672354533686302602291107177734375,"lon":151.096890000000001919033820740878582000732421875,"poi_name":"Canterbury","parent_id":"2155400","long":151.096890000000001919033820740878582000732421875},"29":{"id":"7839708","label":"Carrathool","value":"7839708","lat":-33.625709999999997990016709081828594207763671875,"lon":145.42522999999999910869519226253032684326171875,"poi_name":"Carrathool","parent_id":"2155400","long":145.42522999999999910869519226253032684326171875},"30":{"id":"7839709","label":"Central Darling","value":"7839709","lat":-31.771550000000001290345608140341937541961669921875,"lon":143.625689999999991641743690706789493560791015625,"poi_name":"Central Darling","parent_id":"2155400","long":143.625689999999991641743690706789493560791015625},"31":{"id":"7839710","label":"Cessnock","value":"7839710","lat":-32.89390999999999820602170075289905071258544921875,"lon":151.212340000000011741576599888503551483154296875,"poi_name":"Cessnock","parent_id":"2155400","long":151.212340000000011741576599888503551483154296875},"32":{"id":"6619279","label":"City of Sydney","value":"6619279","lat":-33.86778000000000332647687173448503017425537109375,"lon":151.2084399999999959618435241281986236572265625,"poi_name":"City of Sydney","parent_id":"2155400","long":151.2084399999999959618435241281986236572265625},"33":{"id":"7839711","label":"Clarence Valley","value":"7839711","lat":-29.6944400000000001682565198279917240142822265625,"lon":152.7815600000000131331034936010837554931640625,"poi_name":"Clarence Valley","parent_id":"2155400","long":152.7815600000000131331034936010837554931640625},"34":{"id":"7839712","label":"Cobar","value":"7839712","lat":-31.96612999999999971123543218709528446197509765625,"lon":145.360629999999986239345162175595760345458984375,"poi_name":"Cobar","parent_id":"2155400","long":145.360629999999986239345162175595760345458984375},"35":{"id":"7839713","label":"Coffs Harbour","value":"7839713","lat":-30.172940000000000537738742423243820667266845703125,"lon":153.03262000000000853106030263006687164306640625,"poi_name":"Coffs Harbour","parent_id":"2155400","long":153.03262000000000853106030263006687164306640625},"36":{"id":"7839714","label":"Conargo","value":"7839714","lat":-35.23387000000000313093551085330545902252197265625,"lon":144.823489999999992505763657391071319580078125,"poi_name":"Conargo","parent_id":"2155400","long":144.823489999999992505763657391071319580078125},"37":{"id":"7839715","label":"Coolamon","value":"7839715","lat":-34.6004599999999982173903845250606536865234375,"lon":147.137069999999994251993484795093536376953125,"poi_name":"Coolamon","parent_id":"2155400","long":147.137069999999994251993484795093536376953125},"38":{"id":"7839716","label":"Cooma-Monaro","value":"7839716","lat":-36.134669999999999845385900698602199554443359375,"lon":149.0706500000000005456968210637569427490234375,"poi_name":"Cooma-Monaro","parent_id":"2155400","long":149.0706500000000005456968210637569427490234375},"39":{"id":"7839717","label":"Coonamble","value":"7839717","lat":-30.86713999999999913370629656128585338592529296875,"lon":148.290529999999989740899764001369476318359375,"poi_name":"Coonamble","parent_id":"2155400","long":148.290529999999989740899764001369476318359375},"40":{"id":"7839718","label":"Cootamundra","value":"7839718","lat":-34.587569999999999481588019989430904388427734375,"lon":148.02042000000000143700162880122661590576171875,"poi_name":"Cootamundra","parent_id":"2155400","long":148.02042000000000143700162880122661590576171875},"41":{"id":"7839719","label":"Corowa Shire","value":"7839719","lat":-35.81703999999999865622157813049852848052978515625,"lon":146.327480000000008431015885435044765472412109375,"poi_name":"Corowa Shire","parent_id":"2155400","long":146.327480000000008431015885435044765472412109375},"42":{"id":"7839720","label":"Cowra","value":"7839720","lat":-33.8113799999999997680788510479032993316650390625,"lon":148.7834599999999909414327703416347503662109375,"poi_name":"Cowra","parent_id":"2155400","long":148.7834599999999909414327703416347503662109375},"43":{"id":"7839721","label":"Deniliquin","value":"7839721","lat":-35.52908000000000043883119360543787479400634765625,"lon":144.973170000000010304574971087276935577392578125,"poi_name":"Deniliquin","parent_id":"2155400","long":144.973170000000010304574971087276935577392578125},"44":{"id":"2168303","label":"Dubbo Municipality","value":"2168303","lat":-32.26979999999999648707671440206468105316162109375,"lon":148.69571999999999434294295497238636016845703125,"poi_name":"Dubbo Municipality","parent_id":"2155400","long":148.69571999999999434294295497238636016845703125},"45":{"id":"7839358","label":"Dungog","value":"7839358","lat":-32.34618999999999999772626324556767940521240234375,"lon":151.611220000000002983142621815204620361328125,"poi_name":"Dungog","parent_id":"2155400","long":151.611220000000002983142621815204620361328125},"46":{"id":"7839359","label":"Eurobodalla","value":"7839359","lat":-35.9330700000000007321432349272072315216064453125,"lon":149.92779999999999063220457173883914947509765625,"poi_name":"Eurobodalla","parent_id":"2155400","long":149.92779999999999063220457173883914947509765625},"47":{"id":"7839360","label":"Fairfield","value":"7839360","lat":-33.86742000000000274440026259981095790863037109375,"lon":150.90104999999999790816218592226505279541015625,"poi_name":"Fairfield","parent_id":"2155400","long":150.90104999999999790816218592226505279541015625},"48":{"id":"7839361","label":"Forbes","value":"7839361","lat":-33.3789799999999985402610036544501781463623046875,"lon":147.864479999999986148395691998302936553955078125,"poi_name":"Forbes","parent_id":"2155400","long":147.864479999999986148395691998302936553955078125},"49":{"id":"7839362","label":"Gilgandra","value":"7839362","lat":-31.6329700000000002546585164964199066162109375,"lon":148.703540000000003828972694464027881622314453125,"poi_name":"Gilgandra","parent_id":"2155400","long":148.703540000000003828972694464027881622314453125},"50":{"id":"7839363","label":"Glen Innes Severn","value":"7839363","lat":-29.63116000000000127556631923653185367584228515625,"lon":151.93957000000000334694050252437591552734375,"poi_name":"Glen Innes Severn","parent_id":"2155400","long":151.93957000000000334694050252437591552734375},"51":{"id":"2165153","label":"Gloucester Shire","value":"2165153","lat":-31.887889999999998735802364535629749298095703125,"lon":151.7759800000000041109160520136356353759765625,"poi_name":"Gloucester Shire","parent_id":"2155400","long":151.7759800000000041109160520136356353759765625},"52":{"id":"2164848","label":"Gosford Shire","value":"2164848","lat":-33.3402999999999991587174008600413799285888671875,"lon":151.2345500000000129148247651755809783935546875,"poi_name":"Gosford Shire","parent_id":"2155400","long":151.2345500000000129148247651755809783935546875},"53":{"id":"7839364","label":"Goulburn Mulwaree","value":"7839364","lat":-34.902500000000003410605131648480892181396484375,"lon":149.90199999999998681232682429254055023193359375,"poi_name":"Goulburn Mulwaree","parent_id":"2155400","long":149.90199999999998681232682429254055023193359375},"54":{"id":"7839722","label":"Great Lakes","value":"7839722","lat":-32.3878399999999970759745338000357151031494140625,"lon":152.110350000000011050360626541078090667724609375,"poi_name":"Great Lakes","parent_id":"2155400","long":152.110350000000011050360626541078090667724609375},"55":{"id":"7839366","label":"Greater Hume Shire","value":"7839366","lat":-35.7583699999999993224264471791684627532958984375,"lon":147.197309999999987439878168515861034393310546875,"poi_name":"Greater Hume Shire","parent_id":"2155400","long":147.197309999999987439878168515861034393310546875},"56":{"id":"7839365","label":"Greater Taree","value":"7839365","lat":-31.80490999999999957026375341229140758514404296875,"lon":152.279550000000000409272615797817707061767578125,"poi_name":"Greater Taree","parent_id":"2155400","long":152.279550000000000409272615797817707061767578125},"57":{"id":"7839723","label":"Griffith","value":"7839723","lat":-34.3344799999999992223820299841463565826416015625,"lon":146.022950000000008685674401931464672088623046875,"poi_name":"Griffith","parent_id":"2155400","long":146.022950000000008685674401931464672088623046875},"58":{"id":"7839724","label":"Gundagai","value":"7839724","lat":-35.02622999999999819920049048960208892822265625,"lon":148.13456999999999652573023922741413116455078125,"poi_name":"Gundagai","parent_id":"2155400","long":148.13456999999999652573023922741413116455078125},"59":{"id":"7839725","label":"Gunnedah","value":"7839725","lat":-31.0240399999999993951860233210027217864990234375,"lon":150.11547999999999092324287630617618560791015625,"poi_name":"Gunnedah","parent_id":"2155400","long":150.11547999999999092324287630617618560791015625},"60":{"id":"7839726","label":"Guyra","value":"7839726","lat":-30.1758099999999984675014275126159191131591796875,"lon":151.678940000000011423253454267978668212890625,"poi_name":"Guyra","parent_id":"2155400","long":151.678940000000011423253454267978668212890625},"61":{"id":"7839727","label":"Gwydir","value":"7839727","lat":-29.498059999999998836983650107868015766143798828125,"lon":150.538129999999995334292179904878139495849609375,"poi_name":"Gwydir","parent_id":"2155400","long":150.538129999999995334292179904878139495849609375},"62":{"id":"7839728","label":"Harden","value":"7839728","lat":-34.62874000000000052068571676500141620635986328125,"lon":148.405720000000002301021595485508441925048828125,"poi_name":"Harden","parent_id":"2155400","long":148.405720000000002301021595485508441925048828125},"63":{"id":"7839729","label":"Hawkesbury","value":"7839729","lat":-33.34078000000000230329533223994076251983642578125,"lon":150.782999999999987039700499735772609710693359375,"poi_name":"Hawkesbury","parent_id":"2155400","long":150.782999999999987039700499735772609710693359375},"64":{"id":"7839730","label":"Hay","value":"7839730","lat":-34.5427600000000012414602679200470447540283203125,"lon":144.83825999999999112333171069622039794921875,"poi_name":"Hay","parent_id":"2155400","long":144.83825999999999112333171069622039794921875},"65":{"id":"7839731","label":"Holroyd","value":"7839731","lat":-33.8275000000000005684341886080801486968994140625,"lon":150.96080000000000609361450187861919403076171875,"poi_name":"Holroyd","parent_id":"2155400","long":150.96080000000000609361450187861919403076171875},"66":{"id":"2163136","label":"Hornsby Shire","value":"2163136","lat":-33.5831500000000033878677641041576862335205078125,"lon":151.10953000000000656655174680054187774658203125,"poi_name":"Hornsby Shire","parent_id":"2155400","long":151.10953000000000656655174680054187774658203125},"67":{"id":"7839732","label":"Hunters Hill","value":"7839732","lat":-33.83436999999999983401721692644059658050537109375,"lon":151.14510000000001355147105641663074493408203125,"poi_name":"Hunters Hill","parent_id":"2155400","long":151.14510000000001355147105641663074493408203125},"68":{"id":"7839733","label":"Hurstville","value":"7839733","lat":-33.96665999999999741021383670158684253692626953125,"lon":151.076089999999993551682564429938793182373046875,"poi_name":"Hurstville","parent_id":"2155400","long":151.076089999999993551682564429938793182373046875},"69":{"id":"7839734","label":"Inverell","value":"7839734","lat":-29.315259999999998541397872031666338443756103515625,"lon":151.041869999999988749550539068877696990966796875,"poi_name":"Inverell","parent_id":"2155400","long":151.041869999999988749550539068877696990966796875},"70":{"id":"7839735","label":"Jerilderie","value":"7839735","lat":-35.22299000000000290810930891893804073333740234375,"lon":145.78271000000000867657945491373538970947265625,"poi_name":"Jerilderie","parent_id":"2155400","long":145.78271000000000867657945491373538970947265625},"71":{"id":"7839736","label":"Junee","value":"7839736","lat":-34.81517999999999801730155013501644134521484375,"lon":147.631310000000013360477169044315814971923828125,"poi_name":"Junee","parent_id":"2155400","long":147.631310000000013360477169044315814971923828125},"72":{"id":"7839737","label":"Kempsey","value":"7839737","lat":-30.90552999999999883584678173065185546875,"lon":152.68608000000000401996658183634281158447265625,"poi_name":"Kempsey","parent_id":"2155400","long":152.68608000000000401996658183634281158447265625},"73":{"id":"7839738","label":"Kiama","value":"7839738","lat":-34.6712399999999973942976794205605983734130859375,"lon":150.845720000000000027284841053187847137451171875,"poi_name":"Kiama","parent_id":"2155400","long":150.845720000000000027284841053187847137451171875},"74":{"id":"7839739","label":"Kogarah","value":"7839739","lat":-33.981099999999997862687450833618640899658203125,"lon":151.10475999999999885403667576611042022705078125,"poi_name":"Kogarah","parent_id":"2155400","long":151.10475999999999885403667576611042022705078125},"75":{"id":"7839740","label":"Ku-ring-gai","value":"7839740","lat":-33.72700999999999993406163412146270275115966796875,"lon":151.148770000000013169483281672000885009765625,"poi_name":"Ku-ring-gai","parent_id":"2155400","long":151.148770000000013169483281672000885009765625},"76":{"id":"7839741","label":"Kyogle","value":"7839741","lat":-28.646429999999998727844285895116627216339111328125,"lon":152.77870999999998957719071768224239349365234375,"poi_name":"Kyogle","parent_id":"2155400","long":152.77870999999998957719071768224239349365234375},"77":{"id":"7839742","label":"Lachlan","value":"7839742","lat":-32.79999000000000108911990537308156490325927734375,"lon":146.87556000000000722138793207705020904541015625,"poi_name":"Lachlan","parent_id":"2155400","long":146.87556000000000722138793207705020904541015625},"78":{"id":"2160746","label":"Lake Macquarie Shire","value":"2160746","lat":-33.0375599999999991496224538423120975494384765625,"lon":151.53469999999998663042788393795490264892578125,"poi_name":"Lake Macquarie Shire","parent_id":"2155400","long":151.53469999999998663042788393795490264892578125},"79":{"id":"7839743","label":"Lane Cove","value":"7839743","lat":-33.8232100000000031059244065545499324798583984375,"lon":151.17027999999999110514181666076183319091796875,"poi_name":"Lane Cove","parent_id":"2155400","long":151.17027999999999110514181666076183319091796875},"80":{"id":"7839744","label":"Leeton","value":"7839744","lat":-34.52967000000000297177393804304301738739013671875,"lon":146.269180000000005748006515204906463623046875,"poi_name":"Leeton","parent_id":"2155400","long":146.269180000000005748006515204906463623046875},"81":{"id":"7839745","label":"Leichhardt","value":"7839745","lat":-33.86780999999999863803168409503996372222900390625,"lon":151.170569999999997889972291886806488037109375,"poi_name":"Leichhardt","parent_id":"2155400","long":151.170569999999997889972291886806488037109375},"82":{"id":"2160061","label":"Lismore Municipality","value":"2160061","lat":-28.800000000000000710542735760100185871124267578125,"lon":153.266670000000004847606760449707508087158203125,"poi_name":"Lismore Municipality","parent_id":"2155400","long":153.266670000000004847606760449707508087158203125},"83":{"id":"7839746","label":"Lithgow","value":"7839746","lat":-33.3202500000000014779288903810083866119384765625,"lon":150.185840000000013105818652547895908355712890625,"poi_name":"Lithgow","parent_id":"2155400","long":150.185840000000013105818652547895908355712890625},"84":{"id":"7839747","label":"Liverpool","value":"7839747","lat":-33.92417999999999977944753482006490230560302734375,"lon":150.912319999999994024619809351861476898193359375,"poi_name":"Liverpool","parent_id":"2155400","long":150.912319999999994024619809351861476898193359375},"85":{"id":"7839748","label":"Liverpool Plains","value":"7839748","lat":-31.470240000000000435420588473789393901824951171875,"lon":150.42000999999999066858435980975627899169921875,"poi_name":"Liverpool Plains","parent_id":"2155400","long":150.42000999999999066858435980975627899169921875},"86":{"id":"7839749","label":"Lockhart","value":"7839749","lat":-35.32193000000000182581061380915343761444091796875,"lon":146.7935400000000072395778261125087738037109375,"poi_name":"Lockhart","parent_id":"2155400","long":146.7935400000000072395778261125087738037109375},"87":{"id":"2159040","label":"Maitland Municipality","value":"2159040","lat":-32.73333000000000225782059715129435062408447265625,"lon":151.55000000000001136868377216160297393798828125,"poi_name":"Maitland Municipality","parent_id":"2155400","long":151.55000000000001136868377216160297393798828125},"88":{"id":"2158864","label":"Manly Vale","value":"2158864","lat":-33.7927499999999980673237587325274944305419921875,"lon":151.27280999999999266947270371019840240478515625,"poi_name":"Manly Vale","parent_id":"2155400","long":151.27280999999999266947270371019840240478515625},"89":{"id":"7839750","label":"Marrickville","value":"7839750","lat":-33.9104099999999988312993082217872142791748046875,"lon":151.15507999999999810825102031230926513671875,"poi_name":"Marrickville","parent_id":"2155400","long":151.15507999999999810825102031230926513671875},"90":{"id":"7839751","label":"Mid-Western Regional","value":"7839751","lat":-32.60202000000000310819814330898225307464599609375,"lon":149.767480000000006157279131002724170684814453125,"poi_name":"Mid-Western Regional","parent_id":"2155400","long":149.767480000000006157279131002724170684814453125},"91":{"id":"7839752","label":"Moree Plains","value":"7839752","lat":-29.321310000000000428599378210492432117462158203125,"lon":149.58120999999999867213773541152477264404296875,"poi_name":"Moree Plains","parent_id":"2155400","long":149.58120999999999867213773541152477264404296875},"92":{"id":"7839753","label":"Mosman","value":"7839753","lat":-33.82844999999999657802618457935750484466552734375,"lon":151.248660000000000991349224932491779327392578125,"poi_name":"Mosman","parent_id":"2155400","long":151.248660000000000991349224932491779327392578125},"93":{"id":"2156090","label":"Murray Shire","value":"2156090","lat":-35.70810000000000172803993336856365203857421875,"lon":144.833629999999999427018337883055210113525390625,"poi_name":"Murray Shire","parent_id":"2155400","long":144.833629999999999427018337883055210113525390625},"94":{"id":"2156065","label":"Murrumbidgee Shire","value":"2156065","lat":-34.6833299999999979945641825906932353973388671875,"lon":145.69999999999998863131622783839702606201171875,"poi_name":"Murrumbidgee Shire","parent_id":"2155400","long":145.69999999999998863131622783839702606201171875},"95":{"id":"7839754","label":"Muswellbrook","value":"7839754","lat":-32.48935000000000172803993336856365203857421875,"lon":150.698389999999989186107995919883251190185546875,"poi_name":"Muswellbrook","parent_id":"2155400","long":150.698389999999989186107995919883251190185546875},"96":{"id":"2155855","label":"Nambucca Shire","value":"2155855","lat":-30.708290000000001640501068322919309139251708984375,"lon":152.7102399999999988722265698015689849853515625,"poi_name":"Nambucca Shire","parent_id":"2155400","long":152.7102399999999988722265698015689849853515625},"97":{"id":"7839755","label":"Narrabri","value":"7839755","lat":-30.32779000000000024783730623312294483184814453125,"lon":149.60241999999999507053871639072895050048828125,"poi_name":"Narrabri","parent_id":"2155400","long":149.60241999999999507053871639072895050048828125},"98":{"id":"7839756","label":"Narrandera","value":"7839756","lat":-34.59107000000000198269844986498355865478515625,"lon":146.53197000000000116415321826934814453125,"poi_name":"Narrandera","parent_id":"2155400","long":146.53197000000000116415321826934814453125},"99":{"id":"7839757","label":"Narromine","value":"7839757","lat":-32.23174000000000205545802600681781768798828125,"lon":147.9759099999999989449861459434032440185546875,"poi_name":"Narromine","parent_id":"2155400","long":147.9759099999999989449861459434032440185546875}}