{"success":true,"remaining_lookups":9928,"0":{"id":"3041566","label":"Andorra la Vella","value":"3041566","lat":42.50450000000000017053025658242404460906982421875,"lon":1.4941400000000000236610731008113361895084381103515625,"poi_name":"Andorra la Vella","parent_id":"3041565","long":1.4941400000000000236610731008113361895084381103515625},"1":{"id":"3041203","label":"Canillo","value":"3041203","lat":42.58332999999999657347871107049286365509033203125,"lon":1.6583300000000000817834688859875313937664031982421875,"poi_name":"Canillo","parent_id":"3041565","long":1.6583300000000000817834688859875313937664031982421875},"2":{"id":"3040684","label":"Encamp","value":"3040684","lat":42.53332999999999941564965411089360713958740234375,"lon":1.63332999999999994855670593096874654293060302734375,"poi_name":"Encamp","parent_id":"3041565","long":1.63332999999999994855670593096874654293060302734375},"3":{"id":"3338529","label":"Escaldes-Engordany","value":"3338529","lat":42.5,"lon":1.5666700000000000070343730840249918401241302490234375,"poi_name":"Escaldes-Engordany","parent_id":"3041565","long":1.5666700000000000070343730840249918401241302490234375},"4":{"id":"3040131","label":"La Massana","value":"3040131","lat":42.5541699999999991632648743689060211181640625,"lon":1.483330000000000037374547900981269776821136474609375,"poi_name":"La Massana","parent_id":"3041565","long":1.483330000000000037374547900981269776821136474609375},"5":{"id":"3039676","label":"Ordino","value":"3039676","lat":42.59758000000000066620486904866993427276611328125,"lon":1.5257300000000000306243919112603180110454559326171875,"poi_name":"Ordino","parent_id":"3041565","long":1.5257300000000000306243919112603180110454559326171875},"6":{"id":"3039162","label":"Sant Juli\u00e0 de L\u00f2ria","value":"3039162","lat":42.46247000000000326735971611924469470977783203125,"lon":1.4824699999999999544542106377775780856609344482421875,"poi_name":"Sant Juli\u00e0 de L\u00f2ria","parent_id":"3041565","long":1.4824699999999999544542106377775780856609344482421875}}