{"success":true,"remaining_lookups":9868,"0":{"id":"2781194","label":"Burgenland","value":"2781194","lat":47.5,"lon":16.416669999999999873807610129006206989288330078125,"poi_name":"Burgenland","parent_id":"2782113","long":16.416669999999999873807610129006206989288330078125},"1":{"id":"2774686","label":"K\u00e4rnten","value":"2774686","lat":46.75,"lon":13.833330000000000126192389870993793010711669921875,"poi_name":"K\u00e4rnten","parent_id":"2782113","long":13.833330000000000126192389870993793010711669921875},"2":{"id":"2770542","label":"Nieder\u00f6sterreich","value":"2770542","lat":48.33332999999999657347871107049286365509033203125,"lon":15.75,"poi_name":"Nieder\u00f6sterreich","parent_id":"2782113","long":15.75},"3":{"id":"2769848","label":"Ober\u00f6sterreich","value":"2769848","lat":48.25,"lon":14,"poi_name":"Ober\u00f6sterreich","parent_id":"2782113","long":14},"4":{"id":"2766823","label":"Salzburg","value":"2766823","lat":47.41667000000000342652128892950713634490966796875,"lon":13.25,"poi_name":"Salzburg","parent_id":"2782113","long":13.25},"5":{"id":"2764581","label":"Steiermark","value":"2764581","lat":47.25,"lon":15.166669999999999873807610129006206989288330078125,"poi_name":"Steiermark","parent_id":"2782113","long":15.166669999999999873807610129006206989288330078125},"6":{"id":"2763586","label":"Tirol","value":"2763586","lat":47.25,"lon":11.333330000000000126192389870993793010711669921875,"poi_name":"Tirol","parent_id":"2782113","long":11.333330000000000126192389870993793010711669921875},"7":{"id":"2762300","label":"Vorarlberg","value":"2762300","lat":47.25,"lon":9.916669999999999873807610129006206989288330078125,"poi_name":"Vorarlberg","parent_id":"2782113","long":9.916669999999999873807610129006206989288330078125},"8":{"id":"2761367","label":"Wien","value":"2761367","lat":48.20819999999999794226823723874986171722412109375,"lon":16.37169000000000096406438387930393218994140625,"poi_name":"Wien","parent_id":"2782113","long":16.37169000000000096406438387930393218994140625}}