{"success":true,"remaining_lookups":9715,"0":{"id":"6930701","label":"Boucle du Mouhoun Region","value":"6930701","lat":12.472030000000000171667124959640204906463623046875,"lon":-3.473050000000000192557081390987150371074676513671875,"poi_name":"Boucle du Mouhoun Region","parent_id":"2361809","long":-3.473050000000000192557081390987150371074676513671875},"1":{"id":"6930703","label":"Cascades Region","value":"6930703","lat":10.3800000000000007815970093361102044582366943359375,"lon":-4.5,"poi_name":"Cascades Region","parent_id":"2361809","long":-4.5},"2":{"id":"6930704","label":"Centre","value":"6930704","lat":12.37874000000000052068571676500141620635986328125,"lon":-1.5327599999999999003108541728579439222812652587890625,"poi_name":"Centre","parent_id":"2361809","long":-1.5327599999999999003108541728579439222812652587890625},"3":{"id":"6930705","label":"Centre-Est","value":"6930705","lat":11.7892200000000002546585164964199066162109375,"lon":-0.357059999999999988506971249080379493534564971923828125,"poi_name":"Centre-Est","parent_id":"2361809","long":-0.357059999999999988506971249080379493534564971923828125},"4":{"id":"6930706","label":"Centre-Nord","value":"6930706","lat":13.0982900000000004325784175307489931583404541015625,"lon":-1.0854999999999999094058011905872263014316558837890625,"poi_name":"Centre-Nord","parent_id":"2361809","long":-1.0854999999999999094058011905872263014316558837890625},"5":{"id":"6930707","label":"Centre-Ouest","value":"6930707","lat":12.2548799999999999954525264911353588104248046875,"lon":-2.3687599999999999766941982670687139034271240234375,"poi_name":"Centre-Ouest","parent_id":"2361809","long":-2.3687599999999999766941982670687139034271240234375},"6":{"id":"6930708","label":"Centre-Sud","value":"6930708","lat":11.6713199999999996947508407174609601497650146484375,"lon":-1.07373999999999991672439136891625821590423583984375,"poi_name":"Centre-Sud","parent_id":"2361809","long":-1.07373999999999991672439136891625821590423583984375},"7":{"id":"6930709","label":"Est","value":"6930709","lat":12.0630799999999993588062352500855922698974609375,"lon":0.36348999999999997978505916762514971196651458740234375,"poi_name":"Est","parent_id":"2361809","long":0.36348999999999997978505916762514971196651458740234375},"8":{"id":"6930710","label":"High-Basins Region","value":"6930710","lat":11.2799999999999993605115378159098327159881591796875,"lon":-4.32000000000000028421709430404007434844970703125,"poi_name":"High-Basins Region","parent_id":"2361809","long":-4.32000000000000028421709430404007434844970703125},"9":{"id":"6930711","label":"Nord","value":"6930711","lat":13.5880899999999993355004335171543061733245849609375,"lon":-2.42119999999999979678477757261134684085845947265625,"poi_name":"Nord","parent_id":"2361809","long":-2.42119999999999979678477757261134684085845947265625},"10":{"id":"6930712","label":"Plateau-Central","value":"6930712","lat":12.587740000000000151203494169749319553375244140625,"lon":-1.3010200000000000652988774163532070815563201904296875,"poi_name":"Plateau-Central","parent_id":"2361809","long":-1.3010200000000000652988774163532070815563201904296875},"11":{"id":"6930713","label":"Sahel","value":"6930713","lat":14.03350999999999970668795867823064327239990234375,"lon":-0.04574999999999999900079927783735911361873149871826171875,"poi_name":"Sahel","parent_id":"2361809","long":-0.04574999999999999900079927783735911361873149871826171875},"12":{"id":"6930714","label":"Southwest Region","value":"6930714","lat":10.5,"lon":-3.20000000000000017763568394002504646778106689453125,"poi_name":"Southwest Region","parent_id":"2361809","long":-3.20000000000000017763568394002504646778106689453125}}