{"success":true,"remaining_lookups":9744,"0":{"id":"733192","label":"Blagoevgrad","value":"733192","lat":41.73333000000000225782059715129435062408447265625,"lon":23.449999999999999289457264239899814128875732421875,"poi_name":"Blagoevgrad","parent_id":"732800","long":23.449999999999999289457264239899814128875732421875},"1":{"id":"732771","label":"Burgas","value":"732771","lat":42.53332999999999941564965411089360713958740234375,"lon":27.233329999999998705106918350793421268463134765625,"poi_name":"Burgas","parent_id":"732800","long":27.233329999999998705106918350793421268463134765625},"2":{"id":"864552","label":"Gabrovo","value":"864552","lat":42.9500000000000028421709430404007434844970703125,"lon":25.25,"poi_name":"Gabrovo","parent_id":"732800","long":25.25},"3":{"id":"730436","label":"Haskovo","value":"730436","lat":41.83332999999999657347871107049286365509033203125,"lon":25.916669999999999873807610129006206989288330078125,"poi_name":"Haskovo","parent_id":"732800","long":25.916669999999999873807610129006206989288330078125},"4":{"id":"729560","label":"Lovech","value":"729560","lat":43.03332999999999941564965411089360713958740234375,"lon":24.566669999999998452722138608805835247039794921875,"poi_name":"Lovech","parent_id":"732800","long":24.566669999999998452722138608805835247039794921875},"5":{"id":"726419","label":"Oblast Dobrich","value":"726419","lat":43.6833299999999979945641825906932353973388671875,"lon":27.89999999999999857891452847979962825775146484375,"poi_name":"Oblast Dobrich","parent_id":"732800","long":27.89999999999999857891452847979962825775146484375},"6":{"id":"864553","label":"Oblast Kardzhali","value":"864553","lat":41.53332999999999941564965411089360713958740234375,"lon":25.433330000000001547277861391194164752960205078125,"poi_name":"Oblast Kardzhali","parent_id":"732800","long":25.433330000000001547277861391194164752960205078125},"7":{"id":"864554","label":"Oblast Kyustendil","value":"864554","lat":42.25,"lon":22.89999999999999857891452847979962825775146484375,"poi_name":"Oblast Kyustendil","parent_id":"732800","long":22.89999999999999857891452847979962825775146484375},"8":{"id":"453753","label":"Oblast Montana","value":"453753","lat":43.5,"lon":23.183330000000001547277861391194164752960205078125,"poi_name":"Oblast Montana","parent_id":"732800","long":23.183330000000001547277861391194164752960205078125},"9":{"id":"728204","label":"Oblast Pleven","value":"728204","lat":43.5,"lon":24.6333300000000008367351256310939788818359375,"poi_name":"Oblast Pleven","parent_id":"732800","long":24.6333300000000008367351256310939788818359375},"10":{"id":"453751","label":"Oblast Razgrad","value":"453751","lat":43.64999999999999857891452847979962825775146484375,"lon":26.60000000000000142108547152020037174224853515625,"poi_name":"Oblast Razgrad","parent_id":"732800","long":26.60000000000000142108547152020037174224853515625},"11":{"id":"727524","label":"Oblast Ruse","value":"727524","lat":43.7000000000000028421709430404007434844970703125,"lon":26,"poi_name":"Oblast Ruse","parent_id":"732800","long":26},"12":{"id":"864555","label":"Oblast Shumen","value":"864555","lat":43.33332999999999657347871107049286365509033203125,"lon":27,"poi_name":"Oblast Shumen","parent_id":"732800","long":27},"13":{"id":"864556","label":"Oblast Silistra","value":"864556","lat":43.9333299999999979945641825906932353973388671875,"lon":27.050000000000000710542735760100185871124267578125,"poi_name":"Oblast Silistra","parent_id":"732800","long":27.050000000000000710542735760100185871124267578125},"14":{"id":"864557","label":"Oblast Sliven","value":"864557","lat":42.66667000000000342652128892950713634490966796875,"lon":26.28332999999999941564965411089360713958740234375,"poi_name":"Oblast Sliven","parent_id":"732800","long":26.28332999999999941564965411089360713958740234375},"15":{"id":"864558","label":"Oblast Smolyan","value":"864558","lat":41.6166699999999991632648743689060211181640625,"lon":24.64999999999999857891452847979962825775146484375,"poi_name":"Oblast Smolyan","parent_id":"732800","long":24.64999999999999857891452847979962825775146484375},"16":{"id":"864559","label":"Oblast Stara Zagora","value":"864559","lat":42.4500000000000028421709430404007434844970703125,"lon":25.566669999999998452722138608805835247039794921875,"poi_name":"Oblast Stara Zagora","parent_id":"732800","long":25.566669999999998452722138608805835247039794921875},"17":{"id":"864560","label":"Oblast Targovishte","value":"864560","lat":43.26666999999999774217940284870564937591552734375,"lon":26.3833300000000008367351256310939788818359375,"poi_name":"Oblast Targovishte","parent_id":"732800","long":26.3833300000000008367351256310939788818359375},"18":{"id":"864561","label":"Oblast Veliko Tarnovo","value":"864561","lat":43.23333000000000225782059715129435062408447265625,"lon":25.64999999999999857891452847979962825775146484375,"poi_name":"Oblast Veliko Tarnovo","parent_id":"732800","long":25.64999999999999857891452847979962825775146484375},"19":{"id":"864562","label":"Oblast Vidin","value":"864562","lat":43.8166700000000020054358174093067646026611328125,"lon":22.71667000000000058435034588910639286041259765625,"poi_name":"Oblast Vidin","parent_id":"732800","long":22.71667000000000058435034588910639286041259765625},"20":{"id":"725713","label":"Oblast Vratsa","value":"725713","lat":43.39999999999999857891452847979962825775146484375,"lon":23.766670000000001294893081649206578731536865234375,"poi_name":"Oblast Vratsa","parent_id":"732800","long":23.766670000000001294893081649206578731536865234375},"21":{"id":"864563","label":"Oblast Yambol","value":"864563","lat":42.33332999999999657347871107049286365509033203125,"lon":26.6333300000000008367351256310939788818359375,"poi_name":"Oblast Yambol","parent_id":"732800","long":26.6333300000000008367351256310939788818359375},"22":{"id":"728379","label":"Pazardzhik","value":"728379","lat":42.08332999999999657347871107049286365509033203125,"lon":24.166669999999999873807610129006206989288330078125,"poi_name":"Pazardzhik","parent_id":"732800","long":24.166669999999999873807610129006206989288330078125},"23":{"id":"728331","label":"Pernik","value":"728331","lat":42.6333300000000008367351256310939788818359375,"lon":22.8833300000000008367351256310939788818359375,"poi_name":"Pernik","parent_id":"732800","long":22.8833300000000008367351256310939788818359375},"24":{"id":"728194","label":"Plovdiv","value":"728194","lat":42.26666999999999774217940284870564937591552734375,"lon":24.833330000000000126192389870993793010711669921875,"poi_name":"Plovdiv","parent_id":"732800","long":24.833330000000000126192389870993793010711669921875},"25":{"id":"727012","label":"Sofia","value":"727012","lat":42.66667000000000342652128892950713634490966796875,"lon":23.800000000000000710542735760100185871124267578125,"poi_name":"Sofia","parent_id":"732800","long":23.800000000000000710542735760100185871124267578125},"26":{"id":"731061","label":"Sofia-Grad","value":"731061","lat":42.66667000000000342652128892950713634490966796875,"lon":23.3833300000000008367351256310939788818359375,"poi_name":"Sofia-Grad","parent_id":"732800","long":23.3833300000000008367351256310939788818359375},"27":{"id":"726051","label":"Varna","value":"726051","lat":43.21667000000000058435034588910639286041259765625,"lon":27.60000000000000142108547152020037174224853515625,"poi_name":"Varna","parent_id":"732800","long":27.60000000000000142108547152020037174224853515625}}