{"success":true,"remaining_lookups":9812,"0":{"id":"3573251","label":"Devonshire Parish","value":"3573251","lat":32.3027799999999984947862685658037662506103515625,"lon":-64.75583000000000311047188006341457366943359375,"poi_name":"Devonshire Parish","parent_id":"3573345","long":-64.75583000000000311047188006341457366943359375},"1":{"id":"3573195","label":"Hamilton","value":"3573195","lat":32.34221999999999752617441117763519287109375,"lon":-64.728329999999999699866748414933681488037109375,"poi_name":"Hamilton","parent_id":"3573345","long":-64.728329999999999699866748414933681488037109375},"2":{"id":"3573198","label":"Hamilton","value":"3573198","lat":32.29325999999999652345650247298181056976318359375,"lon":-64.780630000000002155502443201839923858642578125,"poi_name":"Hamilton","parent_id":"3573345","long":-64.780630000000002155502443201839923858642578125},"3":{"id":"3573103","label":"Paget Parish","value":"3573103","lat":32.2783299999999968576958053745329380035400390625,"lon":-64.7816700000000054160409490577876567840576171875,"poi_name":"Paget Parish","parent_id":"3573345","long":-64.7816700000000054160409490577876567840576171875},"4":{"id":"3573095","label":"Pembroke Parish","value":"3573095","lat":32.29943999999999704186848248355090618133544921875,"lon":-64.792779999999993378878571093082427978515625,"poi_name":"Pembroke Parish","parent_id":"3573345","long":-64.792779999999993378878571093082427978515625},"5":{"id":"3573062","label":"Saint George","value":"3573062","lat":32.3841699999999974579623085446655750274658203125,"lon":-64.676389999999997826307662762701511383056640625,"poi_name":"Saint George","parent_id":"3573345","long":-64.676389999999997826307662762701511383056640625},"6":{"id":"3573057","label":"Saint George\u2019s Parish","value":"3573057","lat":32.37259999999999848796505830250680446624755859375,"lon":-64.6943700000000063710103859193623065948486328125,"poi_name":"Saint George\u2019s Parish","parent_id":"3573345","long":-64.6943700000000063710103859193623065948486328125},"7":{"id":"3573050","label":"Sandys Parish","value":"3573050","lat":32.29344999999999998863131622783839702606201171875,"lon":-64.868279999999998608473106287419795989990234375,"poi_name":"Sandys Parish","parent_id":"3573345","long":-64.868279999999998608473106287419795989990234375},"8":{"id":"3573031","label":"Smith\u2019s Parish","value":"3573031","lat":32.315280000000001336957211606204509735107421875,"lon":-64.7352800000000030422597774304449558258056640625,"poi_name":"Smith\u2019s Parish","parent_id":"3573345","long":-64.7352800000000030422597774304449558258056640625},"9":{"id":"3573026","label":"Southampton Parish","value":"3573026","lat":32.25083000000000055251803132705390453338623046875,"lon":-64.856390000000004647517926059663295745849609375,"poi_name":"Southampton Parish","parent_id":"3573345","long":-64.856390000000004647517926059663295745849609375},"10":{"id":"3572972","label":"Warwick Parish","value":"3572972","lat":32.26583000000000112095221993513405323028564453125,"lon":-64.807220000000000936779542826116085052490234375,"poi_name":"Warwick Parish","parent_id":"3573345","long":-64.807220000000000936779542826116085052490234375}}