{"success":true,"remaining_lookups":9775,"0":{"id":"3665474","label":"Acre","value":"3665474","lat":-9,"lon":-70,"poi_name":"Acre","parent_id":"3469034","long":-70},"1":{"id":"3408096","label":"Alagoas","value":"3408096","lat":-9.583330000000000126192389870993793010711669921875,"lon":-36.41667000000000342652128892950713634490966796875,"poi_name":"Alagoas","parent_id":"3469034","long":-36.41667000000000342652128892950713634490966796875},"2":{"id":"3407762","label":"Amap\u00e1","value":"3407762","lat":1,"lon":-52,"poi_name":"Amap\u00e1","parent_id":"3469034","long":-52},"3":{"id":"3665361","label":"Amazonas","value":"3665361","lat":-3.75,"lon":-64.5,"poi_name":"Amazonas","parent_id":"3469034","long":-64.5},"4":{"id":"3471168","label":"Bahia","value":"3471168","lat":-12,"lon":-42,"poi_name":"Bahia","parent_id":"3469034","long":-42},"5":{"id":"3402362","label":"Cear\u00e1","value":"3402362","lat":-5,"lon":-39.5,"poi_name":"Cear\u00e1","parent_id":"3469034","long":-39.5},"6":{"id":"3463930","label":"Esp\u00edrito Santo","value":"3463930","lat":-20,"lon":-40.75,"poi_name":"Esp\u00edrito Santo","parent_id":"3469034","long":-40.75},"7":{"id":"3463504","label":"Federal District","value":"3463504","lat":-15.75,"lon":-47.75,"poi_name":"Federal District","parent_id":"3469034","long":-47.75},"8":{"id":"3462372","label":"Goi\u00e1s","value":"3462372","lat":-15.580709999999999837427822058089077472686767578125,"lon":-49.6362299999999976307663018815219402313232421875,"poi_name":"Goi\u00e1s","parent_id":"3469034","long":-49.6362299999999976307663018815219402313232421875},"9":{"id":"3395443","label":"Maranh\u00e3o","value":"3395443","lat":-5,"lon":-45,"poi_name":"Maranh\u00e3o","parent_id":"3469034","long":-45},"10":{"id":"3457419","label":"Mato Grosso","value":"3457419","lat":-13,"lon":-56,"poi_name":"Mato Grosso","parent_id":"3469034","long":-56},"11":{"id":"3457415","label":"Mato Grosso do Sul","value":"3457415","lat":-20.5,"lon":-55,"poi_name":"Mato Grosso do Sul","parent_id":"3469034","long":-55},"12":{"id":"3457153","label":"Minas Gerais","value":"3457153","lat":-18,"lon":-44,"poi_name":"Minas Gerais","parent_id":"3469034","long":-44},"13":{"id":"3455077","label":"Paran\u00e1","value":"3455077","lat":-24.5,"lon":-51.33332999999999657347871107049286365509033203125,"poi_name":"Paran\u00e1","parent_id":"3469034","long":-51.33332999999999657347871107049286365509033203125},"14":{"id":"3393098","label":"Para\u00edba","value":"3393098","lat":-7.25,"lon":-36.5,"poi_name":"Para\u00edba","parent_id":"3469034","long":-36.5},"15":{"id":"3393129","label":"Par\u00e1","value":"3393129","lat":-4,"lon":-53,"poi_name":"Par\u00e1","parent_id":"3469034","long":-53},"16":{"id":"3392268","label":"Pernambuco","value":"3392268","lat":-8.333330000000000126192389870993793010711669921875,"lon":-37.75,"poi_name":"Pernambuco","parent_id":"3469034","long":-37.75},"17":{"id":"3392213","label":"Piau\u00ed","value":"3392213","lat":-7.25,"lon":-42.33332999999999657347871107049286365509033203125,"poi_name":"Piau\u00ed","parent_id":"3469034","long":-42.33332999999999657347871107049286365509033203125},"18":{"id":"3390290","label":"Rio Grande do Norte","value":"3390290","lat":-5.75,"lon":-36.5,"poi_name":"Rio Grande do Norte","parent_id":"3469034","long":-36.5},"19":{"id":"3451133","label":"Rio Grande do Sul","value":"3451133","lat":-30,"lon":-53.5,"poi_name":"Rio Grande do Sul","parent_id":"3469034","long":-53.5},"20":{"id":"3451189","label":"Rio de Janeiro","value":"3451189","lat":-22.25,"lon":-42.5,"poi_name":"Rio de Janeiro","parent_id":"3469034","long":-42.5},"21":{"id":"3924825","label":"Rond\u00f4nia","value":"3924825","lat":-11,"lon":-63,"poi_name":"Rond\u00f4nia","parent_id":"3469034","long":-63},"22":{"id":"3662560","label":"Roraima","value":"3662560","lat":2.25,"lon":-61.25,"poi_name":"Roraima","parent_id":"3469034","long":-61.25},"23":{"id":"3450387","label":"Santa Catarina","value":"3450387","lat":-27,"lon":-50,"poi_name":"Santa Catarina","parent_id":"3469034","long":-50},"24":{"id":"3447799","label":"Sergipe","value":"3447799","lat":-10.5,"lon":-37.33332999999999657347871107049286365509033203125,"poi_name":"Sergipe","parent_id":"3469034","long":-37.33332999999999657347871107049286365509033203125},"25":{"id":"3448433","label":"S\u00e3o Paulo","value":"3448433","lat":-22,"lon":-49,"poi_name":"S\u00e3o Paulo","parent_id":"3469034","long":-49},"26":{"id":"3474575","label":"Tocantins","value":"3474575","lat":-10.5,"lon":-48,"poi_name":"Tocantins","parent_id":"3469034","long":-48}}