{"success":true,"remaining_lookups":9639,"0":{"id":"5883102","label":"Alberta","value":"5883102","lat":52.28332999999999941564965411089360713958740234375,"lon":-117.46899999999999408828443847596645355224609375,"poi_name":"Alberta","parent_id":"6251999","long":-117.46899999999999408828443847596645355224609375},"1":{"id":"5909050","label":"British Columbia","value":"5909050","lat":53.999830000000002883098204620182514190673828125,"lon":-125.0032000000000067529981606639921665191650390625,"poi_name":"British Columbia","parent_id":"6251999","long":-125.0032000000000067529981606639921665191650390625},"2":{"id":"6065171","label":"Manitoba","value":"6065171","lat":55.000190000000003465174813754856586456298828125,"lon":-97.0004899999999992132870829664170742034912109375,"poi_name":"Manitoba","parent_id":"6251999","long":-97.0004899999999992132870829664170742034912109375},"3":{"id":"6087430","label":"New Brunswick\/Nouveau-Brunswick","value":"6087430","lat":46.500100000000003319655661471188068389892578125,"lon":-65.9987799999999964484231895767152309417724609375,"poi_name":"New Brunswick\/Nouveau-Brunswick","parent_id":"6251999","long":-65.9987799999999964484231895767152309417724609375},"4":{"id":"6354959","label":"Newfoundland and Labrador","value":"6354959","lat":52,"lon":-56,"poi_name":"Newfoundland and Labrador","parent_id":"6251999","long":-56},"5":{"id":"6091069","label":"Northwest Territories","value":"6091069","lat":69.50060999999999467036104761064052581787109375,"lon":-121.5044500000000056161297834478318691253662109375,"poi_name":"Northwest Territories","parent_id":"6251999","long":-121.5044500000000056161297834478318691253662109375},"6":{"id":"6091530","label":"Nova Scotia","value":"6091530","lat":45.00014999999999787405613460578024387359619140625,"lon":-62.99864999999999781721271574497222900390625,"poi_name":"Nova Scotia","parent_id":"6251999","long":-62.99864999999999781721271574497222900390625},"7":{"id":"6091732","label":"Nunavut","value":"6091732","lat":66.0347799999999978126652422361075878143310546875,"lon":-100.0781300000000015870682545937597751617431640625,"poi_name":"Nunavut","parent_id":"6251999","long":-100.0781300000000015870682545937597751617431640625},"8":{"id":"6093943","label":"Ontario","value":"6093943","lat":49.2501400000000018053469830192625522613525390625,"lon":-84.499830000000002883098204620182514190673828125,"poi_name":"Ontario","parent_id":"6251999","long":-84.499830000000002883098204620182514190673828125},"9":{"id":"6113358","label":"Prince Edward Island","value":"6113358","lat":46.39808000000000021145751816220581531524658203125,"lon":-63.298439999999999372448655776679515838623046875,"poi_name":"Prince Edward Island","parent_id":"6251999","long":-63.298439999999999372448655776679515838623046875},"10":{"id":"6115047","label":"Qu\u00e9bec","value":"6115047","lat":52.000169999999997116901795379817485809326171875,"lon":-71.9990700000000032332536648027598857879638671875,"poi_name":"Qu\u00e9bec","parent_id":"6251999","long":-71.9990700000000032332536648027598857879638671875},"11":{"id":"6141242","label":"Saskatchewan","value":"6141242","lat":54.000100000000003319655661471188068389892578125,"lon":-106.00099000000000160071067512035369873046875,"poi_name":"Saskatchewan","parent_id":"6251999","long":-106.00099000000000160071067512035369873046875},"12":{"id":"6185811","label":"Yukon","value":"6185811","lat":62.99962000000000017507773009128868579864501953125,"lon":-135.004040000000003374225343577563762664794921875,"poi_name":"Yukon","parent_id":"6251999","long":-135.004040000000003374225343577563762664794921875}}