{"success":true,"remaining_lookups":9628,"0":{"id":"240591","label":"Bamingui-Bangoran","value":"240591","lat":8.416669999999999873807610129006206989288330078125,"lon":20.666669999999999873807610129006206989288330078125,"poi_name":"Bamingui-Bangoran","parent_id":"239880","long":20.666669999999999873807610129006206989288330078125},"1":{"id":"240396","label":"Basse-Kotto","value":"240396","lat":5,"lon":21.3666699999999991632648743689060211181640625,"poi_name":"Basse-Kotto","parent_id":"239880","long":21.3666699999999991632648743689060211181640625},"2":{"id":"2596686","label":"Commune de Bangui","value":"2596686","lat":4.38332999999999994855670593096874654293060302734375,"lon":18.566669999999998452722138608805835247039794921875,"poi_name":"Commune de Bangui","parent_id":"239880","long":18.566669999999998452722138608805835247039794921875},"3":{"id":"238639","label":"Haut-Mbomou","value":"238639","lat":6.333330000000000126192389870993793010711669921875,"lon":25.666669999999999873807610129006206989288330078125,"poi_name":"Haut-Mbomou","parent_id":"239880","long":25.666669999999999873807610129006206989288330078125},"4":{"id":"238640","label":"Haute-Kotto","value":"238640","lat":7.416669999999999873807610129006206989288330078125,"lon":23,"poi_name":"Haute-Kotto","parent_id":"239880","long":23},"5":{"id":"2385105","label":"Lobaye","value":"2385105","lat":4.166669999999999873807610129006206989288330078125,"lon":17.666669999999999873807610129006206989288330078125,"poi_name":"Lobaye","parent_id":"239880","long":17.666669999999999873807610129006206989288330078125},"6":{"id":"2386161","label":"Mamb\u00e9r\u00e9-Kad\u00e9\u00ef","value":"2386161","lat":4.5,"lon":16,"poi_name":"Mamb\u00e9r\u00e9-Kad\u00e9\u00ef","parent_id":"239880","long":16},"7":{"id":"237556","label":"Mbomou","value":"237556","lat":5.5,"lon":23.333330000000000126192389870993793010711669921875,"poi_name":"Mbomou","parent_id":"239880","long":23.333330000000000126192389870993793010711669921875},"8":{"id":"2383765","label":"Ombella-Mpoko","value":"2383765","lat":5.083330000000000126192389870993793010711669921875,"lon":18,"poi_name":"Ombella-Mpoko","parent_id":"239880","long":18},"9":{"id":"236887","label":"Ouaka","value":"236887","lat":6.25,"lon":20.75,"poi_name":"Ouaka","parent_id":"239880","long":20.75},"10":{"id":"2383653","label":"Ouham","value":"2383653","lat":7,"lon":18,"poi_name":"Ouham","parent_id":"239880","long":18},"11":{"id":"2385836","label":"Pr\u00e9fecture de la K\u00e9mo","value":"2385836","lat":5.86667000000000005144329406903125345706939697265625,"lon":19.199999999999999289457264239899814128875732421875,"poi_name":"Pr\u00e9fecture de la K\u00e9mo","parent_id":"239880","long":19.199999999999999289457264239899814128875732421875},"12":{"id":"2386243","label":"Pr\u00e9fecture de la Nana-Gr\u00e9bizi","value":"2386243","lat":7.083330000000000126192389870993793010711669921875,"lon":19.333330000000000126192389870993793010711669921875,"poi_name":"Pr\u00e9fecture de la Nana-Gr\u00e9bizi","parent_id":"239880","long":19.333330000000000126192389870993793010711669921875},"13":{"id":"2384205","label":"Pr\u00e9fecture de la Nana-Mamb\u00e9r\u00e9","value":"2384205","lat":5.97121999999999975017317410674877464771270751953125,"lon":15.2627600000000001045918907038867473602294921875,"poi_name":"Pr\u00e9fecture de la Nana-Mamb\u00e9r\u00e9","parent_id":"239880","long":15.2627600000000001045918907038867473602294921875},"14":{"id":"2383204","label":"Pr\u00e9fecture de la Sangha-Mba\u00e9r\u00e9","value":"2383204","lat":3.5,"lon":16.166669999999999873807610129006206989288330078125,"poi_name":"Pr\u00e9fecture de la Sangha-Mba\u00e9r\u00e9","parent_id":"239880","long":16.166669999999999873807610129006206989288330078125},"15":{"id":"2383650","label":"Pr\u00e9fecture de l\u2019Ouham-Pend\u00e9","value":"2383650","lat":6.75,"lon":16.083330000000000126192389870993793010711669921875,"poi_name":"Pr\u00e9fecture de l\u2019Ouham-Pend\u00e9","parent_id":"239880","long":16.083330000000000126192389870993793010711669921875},"16":{"id":"236178","label":"Vakaga","value":"236178","lat":9.833330000000000126192389870993793010711669921875,"lon":22.5,"poi_name":"Vakaga","parent_id":"239880","long":22.5}}