{"success":true,"remaining_lookups":7658,"0":{"id":"2661551","label":"Canton de Berne","value":"2661551","lat":46.87250999999999834244590601883828639984130859375,"lon":7.595629999999999881765688769519329071044921875,"poi_name":"Canton de Berne","parent_id":"2658434","long":7.595629999999999881765688769519329071044921875},"1":{"id":"2660717","label":"Canton de Fribourg","value":"2660717","lat":46.70833999999999974761522025801241397857666015625,"lon":7.10311000000000003495870259939692914485931396484375,"poi_name":"Canton de Fribourg","parent_id":"2658434","long":7.10311000000000003495870259939692914485931396484375},"2":{"id":"2658182","label":"Canton de Vaud","value":"2658182","lat":46.6167099999999976489561959169805049896240234375,"lon":6.64496000000000019980461729574017226696014404296875,"poi_name":"Canton de Vaud","parent_id":"2658434","long":6.64496000000000019980461729574017226696014404296875},"3":{"id":"2658205","label":"Canton du Valais","value":"2658205","lat":46.22925000000000039790393202565610408782958984375,"lon":7.45971999999999990649257597397081553936004638671875,"poi_name":"Canton du Valais","parent_id":"2658434","long":7.45971999999999990649257597397081553936004638671875},"4":{"id":"2660645","label":"Gen\u00e8ve","value":"2660645","lat":46.1967300000000022919266484677791595458984375,"lon":6.11043999999999964956032272311858832836151123046875,"poi_name":"Gen\u00e8ve","parent_id":"2658434","long":6.11043999999999964956032272311858832836151123046875},"5":{"id":"2660207","label":"Jura","value":"2660207","lat":47.37266000000000332192939822562038898468017578125,"lon":7.1680200000000002802380549837835133075714111328125,"poi_name":"Jura","parent_id":"2658434","long":7.1680200000000002802380549837835133075714111328125},"6":{"id":"2661876","label":"Kanton Aargau","value":"2661876","lat":47.39556999999999931105776340700685977935791015625,"lon":8.1721400000000006258460416574962437152862548828125,"poi_name":"Kanton Aargau","parent_id":"2658434","long":8.1721400000000006258460416574962437152862548828125},"7":{"id":"2661739","label":"Kanton Appenzell Ausserrhoden","value":"2661739","lat":47.36292999999999864257915760390460491180419921875,"lon":9.282830000000000580939740757457911968231201171875,"poi_name":"Kanton Appenzell Ausserrhoden","parent_id":"2658434","long":9.282830000000000580939740757457911968231201171875},"8":{"id":"2661741","label":"Kanton Appenzell Innerrhoden","value":"2661741","lat":47.31262000000000256250132224522531032562255859375,"lon":9.4056200000000007577227734145708382129669189453125,"poi_name":"Kanton Appenzell Innerrhoden","parent_id":"2658434","long":9.4056200000000007577227734145708382129669189453125},"9":{"id":"2661603","label":"Kanton Basel-Landschaft","value":"2661603","lat":47.504379999999997608028934337198734283447265625,"lon":7.7044399999999999550936990999616682529449462890625,"poi_name":"Kanton Basel-Landschaft","parent_id":"2658434","long":7.7044399999999999550936990999616682529449462890625},"10":{"id":"2661602","label":"Kanton Basel-Stadt","value":"2661602","lat":47.56689999999999685087459511123597621917724609375,"lon":7.6151900000000001256239556823857128620147705078125,"poi_name":"Kanton Basel-Stadt","parent_id":"2658434","long":7.6151900000000001256239556823857128620147705078125},"11":{"id":"2660593","label":"Kanton Glarus","value":"2660593","lat":46.9755899999999968486008583568036556243896484375,"lon":9.07318000000000068894223659299314022064208984375,"poi_name":"Kanton Glarus","parent_id":"2658434","long":9.07318000000000068894223659299314022064208984375},"12":{"id":"2660522","label":"Kanton Graub\u00fcnden","value":"2660522","lat":46.65870000000000317186277243308722972869873046875,"lon":9.6229600000000008463985068374313414096832275390625,"poi_name":"Kanton Graub\u00fcnden","parent_id":"2658434","long":9.6229600000000008463985068374313414096832275390625},"13":{"id":"2659810","label":"Kanton Luzern","value":"2659810","lat":47.16667000000000342652128892950713634490966796875,"lon":8.166669999999999873807610129006206989288330078125,"poi_name":"Kanton Luzern","parent_id":"2658434","long":8.166669999999999873807610129006206989288330078125},"14":{"id":"2659471","label":"Kanton Nidwalden","value":"2659471","lat":46.92739000000000260115484707057476043701171875,"lon":8.41028000000000020008883439004421234130859375,"poi_name":"Kanton Nidwalden","parent_id":"2658434","long":8.41028000000000020008883439004421234130859375},"15":{"id":"2659315","label":"Kanton Obwalden","value":"2659315","lat":46.85866999999999649162418791092932224273681640625,"lon":8.2098399999999998044586391188204288482666015625,"poi_name":"Kanton Obwalden","parent_id":"2658434","long":8.2098399999999998044586391188204288482666015625},"16":{"id":"2658760","label":"Kanton Schaffhausen","value":"2658760","lat":47.710340000000002191882231272757053375244140625,"lon":8.6338799999999995549160303198732435703277587890625,"poi_name":"Kanton Schaffhausen","parent_id":"2658434","long":8.6338799999999995549160303198732435703277587890625},"17":{"id":"2658664","label":"Kanton Schwyz","value":"2658664","lat":47.04050000000000153477230924181640148162841796875,"lon":8.741009999999999280362317222170531749725341796875,"poi_name":"Kanton Schwyz","parent_id":"2658434","long":8.741009999999999280362317222170531749725341796875},"18":{"id":"2658563","label":"Kanton Solothurn","value":"2658563","lat":47.21070999999999884266799199394881725311279296875,"lon":7.52048000000000005371703082346357405185699462890625,"poi_name":"Kanton Solothurn","parent_id":"2658434","long":7.52048000000000005371703082346357405185699462890625},"19":{"id":"2658821","label":"Kanton St. Gallen","value":"2658821","lat":47.25,"lon":9.25,"poi_name":"Kanton St. Gallen","parent_id":"2658434","long":9.25},"20":{"id":"2658372","label":"Kanton Thurgau","value":"2658372","lat":47.55619999999999691908669774420559406280517578125,"lon":9.076859999999999928377292235381901264190673828125,"poi_name":"Kanton Thurgau","parent_id":"2658434","long":9.076859999999999928377292235381901264190673828125},"21":{"id":"2658226","label":"Kanton Uri","value":"2658226","lat":46.7847000000000008412825991399586200714111328125,"lon":8.6417500000000000426325641456060111522674560546875,"poi_name":"Kanton Uri","parent_id":"2658434","long":8.6417500000000000426325641456060111522674560546875},"22":{"id":"2657907","label":"Kanton Zug","value":"2657907","lat":47.15885999999999711462805862538516521453857421875,"lon":8.53866000000000013869794202037155628204345703125,"poi_name":"Kanton Zug","parent_id":"2658434","long":8.53866000000000013869794202037155628204345703125},"23":{"id":"2657895","label":"Kanton Z\u00fcrich","value":"2657895","lat":47.41667000000000342652128892950713634490966796875,"lon":8.666669999999999873807610129006206989288330078125,"poi_name":"Kanton Z\u00fcrich","parent_id":"2658434","long":8.666669999999999873807610129006206989288330078125},"24":{"id":"2659495","label":"Neuch\u00e2tel","value":"2659495","lat":46.990870000000001027729013003408908843994140625,"lon":6.797670000000000101181285572238266468048095703125,"poi_name":"Neuch\u00e2tel","parent_id":"2658434","long":6.797670000000000101181285572238266468048095703125},"25":{"id":"2658370","label":"Ticino","value":"2658370","lat":46.28455000000000296722646453417837619781494140625,"lon":8.790649999999999408828443847596645355224609375,"poi_name":"Ticino","parent_id":"2658434","long":8.790649999999999408828443847596645355224609375}}