{"success":true,"remaining_lookups":9682,"0":{"id":"3374855","label":"Concelho da Boa Vista","value":"3374855","lat":16.083330000000000126192389870993793010711669921875,"lon":-22.833330000000000126192389870993793010711669921875,"poi_name":"Concelho da Boa Vista","parent_id":"3374766","long":-22.833330000000000126192389870993793010711669921875},"1":{"id":"3374832","label":"Concelho da Brava","value":"3374832","lat":14.8666699999999991632648743689060211181640625,"lon":-24.699999999999999289457264239899814128875732421875,"poi_name":"Concelho da Brava","parent_id":"3374766","long":-24.699999999999999289457264239899814128875732421875},"2":{"id":"3374332","label":"Concelho da Praia","value":"3374332","lat":14.949999999999999289457264239899814128875732421875,"lon":-23.516670000000001294893081649206578731536865234375,"poi_name":"Concelho da Praia","parent_id":"3374766","long":-23.516670000000001294893081649206578731536865234375},"3":{"id":"7602869","label":"Concelho da Ribeira Brava","value":"7602869","lat":16.6166699999999991632648743689060211181640625,"lon":-24.199999999999999289457264239899814128875732421875,"poi_name":"Concelho da Ribeira Brava","parent_id":"3374766","long":-24.199999999999999289457264239899814128875732421875},"4":{"id":"3374274","label":"Concelho da Ribeira Grande","value":"3374274","lat":17.1333300000000008367351256310939788818359375,"lon":-25.1166699999999991632648743689060211181640625,"poi_name":"Concelho da Ribeira Grande","parent_id":"3374766","long":-25.1166699999999991632648743689060211181640625},"5":{"id":"7603281","label":"Concelho de Ribeira Grande de Santiago","value":"7603281","lat":14.9833300000000004814637577510438859462738037109375,"lon":-23.64999999999999857891452847979962825775146484375,"poi_name":"Concelho de Ribeira Grande de Santiago","parent_id":"3374766","long":-23.64999999999999857891452847979962825775146484375},"6":{"id":"3374226","label":"Concelho de Santa Catarina","value":"3374226","lat":15.0999999999999996447286321199499070644378662109375,"lon":-23.699999999999999289457264239899814128875732421875,"poi_name":"Concelho de Santa Catarina","parent_id":"3374766","long":-23.699999999999999289457264239899814128875732421875},"7":{"id":"7602870","label":"Concelho de Santa Catarina do Fogo","value":"7602870","lat":14.9000000000000003552713678800500929355621337890625,"lon":-24.333330000000000126192389870993793010711669921875,"poi_name":"Concelho de Santa Catarina do Fogo","parent_id":"3374766","long":-24.333330000000000126192389870993793010711669921875},"8":{"id":"3411925","label":"Concelho de Santa Cruz","value":"3411925","lat":15.0999999999999996447286321199499070644378662109375,"lon":-23.566669999999998452722138608805835247039794921875,"poi_name":"Concelho de Santa Cruz","parent_id":"3374766","long":-23.566669999999998452722138608805835247039794921875},"9":{"id":"3411926","label":"Concelho de S\u00e3o Domingos","value":"3411926","lat":15.0166699999999995185362422489561140537261962890625,"lon":-23.53332999999999941564965411089360713958740234375,"poi_name":"Concelho de S\u00e3o Domingos","parent_id":"3374766","long":-23.53332999999999941564965411089360713958740234375},"10":{"id":"3411928","label":"Concelho de S\u00e3o Miguel","value":"3411928","lat":15.199999999999999289457264239899814128875732421875,"lon":-23.64999999999999857891452847979962825775146484375,"poi_name":"Concelho de S\u00e3o Miguel","parent_id":"3374766","long":-23.64999999999999857891452847979962825775146484375},"11":{"id":"7602871","label":"Concelho de S\u00e3o Salvador do Mundo","value":"7602871","lat":15.083330000000000126192389870993793010711669921875,"lon":-23.6333300000000008367351256310939788818359375,"poi_name":"Concelho de S\u00e3o Salvador do Mundo","parent_id":"3374766","long":-23.6333300000000008367351256310939788818359375},"12":{"id":"3374198","label":"Concelho de S\u00e3o Vicente","value":"3374198","lat":16.833330000000000126192389870993793010711669921875,"lon":-25,"poi_name":"Concelho de S\u00e3o Vicente","parent_id":"3374766","long":-25},"13":{"id":"3374487","label":"Concelho do Maio","value":"3374487","lat":15.21667000000000058435034588910639286041259765625,"lon":-23.166669999999999873807610129006206989288330078125,"poi_name":"Concelho do Maio","parent_id":"3374766","long":-23.166669999999999873807610129006206989288330078125},"14":{"id":"3374391","label":"Concelho do Paul","value":"3374391","lat":17.1166699999999991632648743689060211181640625,"lon":-25.016670000000001294893081649206578731536865234375,"poi_name":"Concelho do Paul","parent_id":"3374766","long":-25.016670000000001294893081649206578731536865234375},"15":{"id":"7602868","label":"Concelho do Porto Novo","value":"7602868","lat":17.016670000000001294893081649206578731536865234375,"lon":-25.199999999999999289457264239899814128875732421875,"poi_name":"Concelho do Porto Novo","parent_id":"3374766","long":-25.199999999999999289457264239899814128875732421875},"16":{"id":"3411927","label":"Concelho do S\u00e3o Filipe","value":"3411927","lat":14.9333299999999997709210219909437000751495361328125,"lon":-24.433330000000001547277861391194164752960205078125,"poi_name":"Concelho do S\u00e3o Filipe","parent_id":"3374766","long":-24.433330000000001547277861391194164752960205078125},"17":{"id":"3374161","label":"Concelho do Tarrafal","value":"3374161","lat":15.2666699999999995185362422489561140537261962890625,"lon":-23.71667000000000058435034588910639286041259765625,"poi_name":"Concelho do Tarrafal","parent_id":"3374766","long":-23.71667000000000058435034588910639286041259765625},"18":{"id":"7602872","label":"Concelho do Tarrafal de S\u00e3o Nicolau","value":"7602872","lat":16.60000000000000142108547152020037174224853515625,"lon":-24.35000000000000142108547152020037174224853515625,"poi_name":"Concelho do Tarrafal de S\u00e3o Nicolau","parent_id":"3374766","long":-24.35000000000000142108547152020037174224853515625},"19":{"id":"3411924","label":"Concelho dos Mosteiros","value":"3411924","lat":15,"lon":-24.35000000000000142108547152020037174224853515625,"poi_name":"Concelho dos Mosteiros","parent_id":"3374766","long":-24.35000000000000142108547152020037174224853515625},"20":{"id":"3374249","label":"Sal Municipality","value":"3374249","lat":16.75,"lon":-22.916669999999999873807610129006206989288330078125,"poi_name":"Sal Municipality","parent_id":"3374766","long":-22.916669999999999873807610129006206989288330078125},"21":{"id":"7602873","label":"S\u00e3o Louren\u00e7o dos \u00d3rg\u00e3os","value":"7602873","lat":15.0666700000000002290789780090562999248504638671875,"lon":-23.60000000000000142108547152020037174224853515625,"poi_name":"S\u00e3o Louren\u00e7o dos \u00d3rg\u00e3os","parent_id":"3374766","long":-23.60000000000000142108547152020037174224853515625}}