{"success":true,"remaining_lookups":9204,"0":{"id":"2953481","label":"Baden-W\u00fcrttemberg Region","value":"2953481","lat":48.5,"lon":9,"poi_name":"Baden-W\u00fcrttemberg Region","parent_id":"2921044","long":9},"1":{"id":"2951839","label":"Bavaria","value":"2951839","lat":49,"lon":11.5,"poi_name":"Bavaria","parent_id":"2921044","long":11.5},"2":{"id":"2945356","label":"Brandenburg","value":"2945356","lat":52.45904999999999773763192933984100818634033203125,"lon":13.0158199999999997231725501478649675846099853515625,"poi_name":"Brandenburg","parent_id":"2921044","long":13.0158199999999997231725501478649675846099853515625},"3":{"id":"2944387","label":"Bremen","value":"2944387","lat":53.08332999999999657347871107049286365509033203125,"lon":8.833330000000000126192389870993793010711669921875,"poi_name":"Bremen","parent_id":"2921044","long":8.833330000000000126192389870993793010711669921875},"4":{"id":"2911297","label":"Free and Hanseatic City of Hamburg","value":"2911297","lat":53.58332999999999657347871107049286365509033203125,"lon":10,"poi_name":"Free and Hanseatic City of Hamburg","parent_id":"2921044","long":10},"5":{"id":"2905330","label":"Hessen","value":"2905330","lat":50.5499999999999971578290569595992565155029296875,"lon":9,"poi_name":"Hessen","parent_id":"2921044","long":9},"6":{"id":"2950157","label":"Land Berlin","value":"2950157","lat":52.5,"lon":13.416669999999999873807610129006206989288330078125,"poi_name":"Land Berlin","parent_id":"2921044","long":13.416669999999999873807610129006206989288330078125},"7":{"id":"2862926","label":"Lower Saxony","value":"2862926","lat":52.83332999999999657347871107049286365509033203125,"lon":9.166669999999999873807610129006206989288330078125,"poi_name":"Lower Saxony","parent_id":"2921044","long":9.166669999999999873807610129006206989288330078125},"8":{"id":"2872567","label":"Mecklenburg-Western Pomerania","value":"2872567","lat":53.83332999999999657347871107049286365509033203125,"lon":12.5,"poi_name":"Mecklenburg-Western Pomerania","parent_id":"2921044","long":12.5},"9":{"id":"2861876","label":"Nordrhein-Westfalen","value":"2861876","lat":51.21894999999999953388396534137427806854248046875,"lon":6.76339000000000023504753698944114148616790771484375,"poi_name":"Nordrhein-Westfalen","parent_id":"2921044","long":6.76339000000000023504753698944114148616790771484375},"10":{"id":"2847618","label":"Rheinland-Pfalz","value":"2847618","lat":49.66667000000000342652128892950713634490966796875,"lon":7.5,"poi_name":"Rheinland-Pfalz","parent_id":"2921044","long":7.5},"11":{"id":"2842635","label":"Saarland","value":"2842635","lat":49.40471999999999752617441117763519287109375,"lon":6.9608299999999996288124748389236629009246826171875,"poi_name":"Saarland","parent_id":"2921044","long":6.9608299999999996288124748389236629009246826171875},"12":{"id":"2842566","label":"Saxony","value":"2842566","lat":51,"lon":13.25,"poi_name":"Saxony","parent_id":"2921044","long":13.25},"13":{"id":"2842565","label":"Saxony-Anhalt","value":"2842565","lat":52,"lon":11.7332999999999998408384271897375583648681640625,"poi_name":"Saxony-Anhalt","parent_id":"2921044","long":11.7332999999999998408384271897375583648681640625},"14":{"id":"2838632","label":"Schleswig-Holstein","value":"2838632","lat":54.2000000000000028421709430404007434844970703125,"lon":9.75,"poi_name":"Schleswig-Holstein","parent_id":"2921044","long":9.75},"15":{"id":"2822542","label":"Thuringia","value":"2822542","lat":50.91667000000000342652128892950713634490966796875,"lon":11,"poi_name":"Thuringia","parent_id":"2921044","long":11}}