{"success":true,"remaining_lookups":9435,"0":{"id":"3575632","label":"Saint Andrew","value":"3575632","lat":15.5666700000000002290789780090562999248504638671875,"lon":-61.3666699999999991632648743689060211181640625,"poi_name":"Saint Andrew","parent_id":"3575830","long":-61.3666699999999991632648743689060211181640625},"1":{"id":"3575630","label":"Saint David","value":"3575630","lat":15.46667000000000058435034588910639286041259765625,"lon":-61.28332999999999941564965411089360713958740234375,"poi_name":"Saint David","parent_id":"3575830","long":-61.28332999999999941564965411089360713958740234375},"2":{"id":"3575628","label":"Saint George","value":"3575628","lat":15.300000000000000710542735760100185871124267578125,"lon":-61.3666699999999991632648743689060211181640625,"poi_name":"Saint George","parent_id":"3575830","long":-61.3666699999999991632648743689060211181640625},"3":{"id":"3575626","label":"Saint John","value":"3575626","lat":15.583330000000000126192389870993793010711669921875,"lon":-61.4500000000000028421709430404007434844970703125,"poi_name":"Saint John","parent_id":"3575830","long":-61.4500000000000028421709430404007434844970703125},"4":{"id":"3575625","label":"Saint Joseph","value":"3575625","lat":15.4333299999999997709210219909437000751495361328125,"lon":-61.4333299999999979945641825906932353973388671875,"poi_name":"Saint Joseph","parent_id":"3575830","long":-61.4333299999999979945641825906932353973388671875},"5":{"id":"3575622","label":"Saint Luke","value":"3575622","lat":15.2666699999999995185362422489561140537261962890625,"lon":-61.3833300000000008367351256310939788818359375,"poi_name":"Saint Luke","parent_id":"3575830","long":-61.3833300000000008367351256310939788818359375},"6":{"id":"3575621","label":"Saint Mark","value":"3575621","lat":15.21667000000000058435034588910639286041259765625,"lon":-61.3666699999999991632648743689060211181640625,"poi_name":"Saint Mark","parent_id":"3575830","long":-61.3666699999999991632648743689060211181640625},"7":{"id":"3575620","label":"Saint Patrick","value":"3575620","lat":15.28332999999999941564965411089360713958740234375,"lon":-61.2999999999999971578290569595992565155029296875,"poi_name":"Saint Patrick","parent_id":"3575830","long":-61.2999999999999971578290569595992565155029296875},"8":{"id":"3575619","label":"Saint Paul","value":"3575619","lat":15.3499999999999996447286321199499070644378662109375,"lon":-61.3833300000000008367351256310939788818359375,"poi_name":"Saint Paul","parent_id":"3575830","long":-61.3833300000000008367351256310939788818359375},"9":{"id":"3575618","label":"Saint Peter","value":"3575618","lat":15.5166699999999995185362422489561140537261962890625,"lon":-61.4500000000000028421709430404007434844970703125,"poi_name":"Saint Peter","parent_id":"3575830","long":-61.4500000000000028421709430404007434844970703125}}