{"success":true,"remaining_lookups":9233,"0":{"id":"2400682","label":"Estuaire","value":"2400682","lat":0.299999999999999988897769753748434595763683319091796875,"lon":10.03332999999999941564965411089360713958740234375,"poi_name":"Estuaire","parent_id":"2400553","long":10.03332999999999941564965411089360713958740234375},"1":{"id":"2397466","label":"Province de la Ngouni\u00e9","value":"2397466","lat":-1.63332999999999994855670593096874654293060302734375,"lon":11.166669999999999873807610129006206989288330078125,"poi_name":"Province de la Ngouni\u00e9","parent_id":"2400553","long":11.166669999999999873807610129006206989288330078125},"2":{"id":"2397141","label":"Province de la Nyanga","value":"2397141","lat":-3,"lon":11,"poi_name":"Province de la Nyanga","parent_id":"2400553","long":11},"3":{"id":"2396926","label":"Province de l\u2019Ogoou\u00e9-Ivindo","value":"2396926","lat":0.66666999999999998482991259152186103165149688720703125,"lon":12.833330000000000126192389870993793010711669921875,"poi_name":"Province de l\u2019Ogoou\u00e9-Ivindo","parent_id":"2400553","long":12.833330000000000126192389870993793010711669921875},"4":{"id":"2396925","label":"Province de l\u2019Ogoou\u00e9-Lolo","value":"2396925","lat":-0.83333000000000001517008740847813896834850311279296875,"lon":12.666669999999999873807610129006206989288330078125,"poi_name":"Province de l\u2019Ogoou\u00e9-Lolo","parent_id":"2400553","long":12.666669999999999873807610129006206989288330078125},"5":{"id":"2396924","label":"Province de l\u2019Ogoou\u00e9-Maritime","value":"2396924","lat":-1.5833299999999999041477849459624849259853363037109375,"lon":9.583330000000000126192389870993793010711669921875,"poi_name":"Province de l\u2019Ogoou\u00e9-Maritime","parent_id":"2400553","long":9.583330000000000126192389870993793010711669921875},"6":{"id":"2400454","label":"Province du Haut-Ogoou\u00e9","value":"2400454","lat":-1.3000000000000000444089209850062616169452667236328125,"lon":13.9000000000000003552713678800500929355621337890625,"poi_name":"Province du Haut-Ogoou\u00e9","parent_id":"2400553","long":13.9000000000000003552713678800500929355621337890625},"7":{"id":"2397842","label":"Province du Moyen-Ogoou\u00e9","value":"2397842","lat":-0.41666999999999998482991259152186103165149688720703125,"lon":10.583330000000000126192389870993793010711669921875,"poi_name":"Province du Moyen-Ogoou\u00e9","parent_id":"2400553","long":10.583330000000000126192389870993793010711669921875},"8":{"id":"2396076","label":"Province du Woleu-Ntem","value":"2396076","lat":1.5,"lon":12,"poi_name":"Province du Woleu-Ntem","parent_id":"2400553","long":12}}