{"success":true,"remaining_lookups":9160,"0":{"id":"4043524","label":"Agana Heights Municipality","value":"4043524","lat":13.4655900000000006144773578853346407413482666015625,"lon":144.74772999999999001374817453324794769287109375,"poi_name":"Agana Heights Municipality","parent_id":"4043988","long":144.74772999999999001374817453324794769287109375},"1":{"id":"4043725","label":"Agat Municipality","value":"4043725","lat":13.3561899999999997845634425175376236438751220703125,"lon":144.66937999999998964995029382407665252685546875,"poi_name":"Agat Municipality","parent_id":"4043988","long":144.66937999999998964995029382407665252685546875},"2":{"id":"4043691","label":"Asan-Maina Municipality","value":"4043691","lat":13.472139999999999560031938017345964908599853515625,"lon":144.716399999999993042365531437098979949951171875,"poi_name":"Asan-Maina Municipality","parent_id":"4043988","long":144.716399999999993042365531437098979949951171875},"3":{"id":"4043885","label":"Barrigada Municipality","value":"4043885","lat":13.4690600000000006986056177993305027484893798828125,"lon":144.798799999999999954525264911353588104248046875,"poi_name":"Barrigada Municipality","parent_id":"4043988","long":144.798799999999999954525264911353588104248046875},"4":{"id":"4043614","label":"Chalan Pago-Ordot Municipality","value":"4043614","lat":13.4474000000000000198951966012828052043914794921875,"lon":144.758880000000004883986548520624637603759765625,"poi_name":"Chalan Pago-Ordot Municipality","parent_id":"4043988","long":144.758880000000004883986548520624637603759765625},"5":{"id":"4043877","label":"Dededo Municipality","value":"4043877","lat":13.5177600000000008861889000399969518184661865234375,"lon":144.83897999999999228748492896556854248046875,"poi_name":"Dededo Municipality","parent_id":"4043988","long":144.83897999999999228748492896556854248046875},"6":{"id":"4044019","label":"Hag\u00e5t\u00f1a Municipality","value":"4044019","lat":13.472789999999999821511664777062833309173583984375,"lon":144.7578800000000001091393642127513885498046875,"poi_name":"Hag\u00e5t\u00f1a Municipality","parent_id":"4043988","long":144.7578800000000001091393642127513885498046875},"7":{"id":"4044041","label":"Inarajan Municipality","value":"4044041","lat":13.2941400000000005121592039358802139759063720703125,"lon":144.734790000000003828972694464027881622314453125,"poi_name":"Inarajan Municipality","parent_id":"4043988","long":144.734790000000003828972694464027881622314453125},"8":{"id":"4043416","label":"Mangilao Municipality","value":"4043416","lat":13.4476600000000008350298230652697384357452392578125,"lon":144.800710000000009358700481243431568145751953125,"poi_name":"Mangilao Municipality","parent_id":"4043988","long":144.800710000000009358700481243431568145751953125},"9":{"id":"4043396","label":"Merizo Municipality","value":"4043396","lat":13.2712500000000002131628207280300557613372802734375,"lon":144.67464000000001078660716302692890167236328125,"poi_name":"Merizo Municipality","parent_id":"4043988","long":144.67464000000001078660716302692890167236328125},"10":{"id":"4044148","label":"Mongmong-Toto-Maite Municipality","value":"4044148","lat":13.4685699999999997089616954326629638671875,"lon":144.781910000000010541043593548238277435302734375,"poi_name":"Mongmong-Toto-Maite Municipality","parent_id":"4043988","long":144.781910000000010541043593548238277435302734375},"11":{"id":"4038478","label":"Piti Municipality","value":"4038478","lat":13.462559999999999860165189602412283420562744140625,"lon":144.692820000000011759766493923962116241455078125,"poi_name":"Piti Municipality","parent_id":"4043988","long":144.692820000000011759766493923962116241455078125},"12":{"id":"4038555","label":"Santa Rita Municipality","value":"4038555","lat":13.386089999999999378132997662760317325592041015625,"lon":144.67207999999999401552486233413219451904296875,"poi_name":"Santa Rita Municipality","parent_id":"4043988","long":144.67207999999999401552486233413219451904296875},"13":{"id":"4038590","label":"Sinajana Municipality","value":"4038590","lat":13.4633400000000005292122295941226184368133544921875,"lon":144.75380999999998721250449307262897491455078125,"poi_name":"Sinajana Municipality","parent_id":"4043988","long":144.75380999999998721250449307262897491455078125},"14":{"id":"4038652","label":"Talofofo Municipality","value":"4038652","lat":13.355219999999999203055267571471631526947021484375,"lon":144.75880000000000791260390542447566986083984375,"poi_name":"Talofofo Municipality","parent_id":"4043988","long":144.75880000000000791260390542447566986083984375},"15":{"id":"4038661","label":"Tamuning-Tumon-Harmon Municipality","value":"4038661","lat":13.487590000000000856061888043768703937530517578125,"lon":144.7809399999999868668965063989162445068359375,"poi_name":"Tamuning-Tumon-Harmon Municipality","parent_id":"4043988","long":144.7809399999999868668965063989162445068359375},"16":{"id":"4038739","label":"Umatac Municipality","value":"4038739","lat":13.3073899999999998300381776061840355396270751953125,"lon":144.669090000000011286829249002039432525634765625,"poi_name":"Umatac Municipality","parent_id":"4043988","long":144.669090000000011286829249002039432525634765625},"17":{"id":"4038796","label":"Yigo Municipality","value":"4038796","lat":13.536030000000000228510543820448219776153564453125,"lon":144.889129999999994424797478131949901580810546875,"poi_name":"Yigo Municipality","parent_id":"4043988","long":144.889129999999994424797478131949901580810546875},"18":{"id":"4038811","label":"Yona Municipality","value":"4038811","lat":13.40972000000000008412825991399586200714111328125,"lon":144.777140000000002828528522513806819915771484375,"poi_name":"Yona Municipality","parent_id":"4043988","long":144.777140000000002828528522513806819915771484375}}