{"success":true,"remaining_lookups":9126,"0":{"id":"2375255","label":"Bafat\u00e1","value":"2375255","lat":12.166669999999999873807610129006206989288330078125,"lon":-14.71667000000000058435034588910639286041259765625,"poi_name":"Bafat\u00e1","parent_id":"2372248","long":-14.71667000000000058435034588910639286041259765625},"1":{"id":"2374820","label":"Biombo","value":"2374820","lat":11.88280999999999920646587270312011241912841796875,"lon":-15.8433200000000002916067387559451162815093994140625,"poi_name":"Biombo","parent_id":"2372248","long":-15.8433200000000002916067387559451162815093994140625},"2":{"id":"2374776","label":"Bissau Region","value":"2374776","lat":11.8539100000000008350298230652697384357452392578125,"lon":-15.5909700000000004393996277940459549427032470703125,"poi_name":"Bissau Region","parent_id":"2372248","long":-15.5909700000000004393996277940459549427032470703125},"3":{"id":"2374689","label":"Bolama","value":"2374689","lat":11.15484000000000008867573342286050319671630859375,"lon":-16.009260000000001156195139628835022449493408203125,"poi_name":"Bolama","parent_id":"2372248","long":-16.009260000000001156195139628835022449493408203125},"4":{"id":"2374312","label":"Cacheu Region","value":"2374312","lat":12,"lon":-16.166669999999999873807610129006206989288330078125,"poi_name":"Cacheu Region","parent_id":"2372248","long":-16.166669999999999873807610129006206989288330078125},"5":{"id":"2372533","label":"Gab\u00fa","value":"2372533","lat":12.166669999999999873807610129006206989288330078125,"lon":-14.166669999999999873807610129006206989288330078125,"poi_name":"Gab\u00fa","parent_id":"2372248","long":-14.166669999999999873807610129006206989288330078125},"6":{"id":"2371071","label":"Oio Region","value":"2371071","lat":12.25,"lon":-15.25,"poi_name":"Oio Region","parent_id":"2372248","long":-15.25},"7":{"id":"2370360","label":"Quinara","value":"2370360","lat":11.666669999999999873807610129006206989288330078125,"lon":-15.083330000000000126192389870993793010711669921875,"poi_name":"Quinara","parent_id":"2372248","long":-15.083330000000000126192389870993793010711669921875},"8":{"id":"2368955","label":"Tombali","value":"2368955","lat":11.300000000000000710542735760100185871124267578125,"lon":-15,"poi_name":"Tombali","parent_id":"2372248","long":-15}}