{"success":true,"remaining_lookups":9015,"0":{"id":"1923045","label":"Banten","value":"1923045","lat":-6.5,"lon":106.25,"poi_name":"Banten","parent_id":"1643084","long":106.25},"1":{"id":"1621176","label":"Daerah Istimewa Yogyakarta","value":"1621176","lat":-7.80079999999999973425701682572253048419952392578125,"lon":110.3439300000000002910383045673370361328125,"poi_name":"Daerah Istimewa Yogyakarta","parent_id":"1643084","long":110.3439300000000002910383045673370361328125},"2":{"id":"1642907","label":"Daerah Khusus Ibukota Jakarta","value":"1642907","lat":-6.21820000000000039364067561109550297260284423828125,"lon":106.8584000000000031604940886609256267547607421875,"poi_name":"Daerah Khusus Ibukota Jakarta","parent_id":"1643084","long":106.8584000000000031604940886609256267547607421875},"3":{"id":"1642672","label":"Jawa Barat","value":"1642672","lat":-6.75,"lon":107.5,"poi_name":"Jawa Barat","parent_id":"1643084","long":107.5},"4":{"id":"1642668","label":"Jawa Timur","value":"1642668","lat":-7.739399999999999835154085303656756877899169921875,"lon":112.5099000000000017962520360015332698822021484375,"poi_name":"Jawa Timur","parent_id":"1643084","long":112.5099000000000017962520360015332698822021484375},"5":{"id":"1923047","label":"Kepulauan Bangka Belitung","value":"1923047","lat":-2.666669999999999873807610129006206989288330078125,"lon":106.6666699999999963210939313285052776336669921875,"poi_name":"Kepulauan Bangka Belitung","parent_id":"1643084","long":106.6666699999999963210939313285052776336669921875},"6":{"id":"1215638","label":"Nanggroe Aceh Darussalam Province","value":"1215638","lat":4,"lon":97,"poi_name":"Nanggroe Aceh Darussalam Province","parent_id":"1643084","long":97},"7":{"id":"8604684","label":"North Kalimantan","value":"8604684","lat":3.35989000000000004320099833421409130096435546875,"lon":116.531980000000004338289727456867694854736328125,"poi_name":"North Kalimantan","parent_id":"1643084","long":116.531980000000004338289727456867694854736328125},"8":{"id":"1649147","label":"Propinsi Bengkulu","value":"1649147","lat":-3.799650000000000193978166862507350742816925048828125,"lon":102.266829999999998790372046642005443572998046875,"poi_name":"Propinsi Bengkulu","parent_id":"1643084","long":102.266829999999998790372046642005443572998046875},"9":{"id":"1650535","label":"Provinsi Bali","value":"1650535","lat":-8.5,"lon":115,"poi_name":"Provinsi Bali","parent_id":"1643084","long":115},"10":{"id":"1923046","label":"Provinsi Gorontalo","value":"1923046","lat":0.69299999999999994937383007709286175668239593505859375,"lon":122.4703999999999979308995534665882587432861328125,"poi_name":"Provinsi Gorontalo","parent_id":"1643084","long":122.4703999999999979308995534665882587432861328125},"11":{"id":"1642856","label":"Provinsi Jambi","value":"1642856","lat":-1.5,"lon":103,"poi_name":"Provinsi Jambi","parent_id":"1643084","long":103},"12":{"id":"1642669","label":"Provinsi Jawa Tengah","value":"1642669","lat":-7.5,"lon":110,"poi_name":"Provinsi Jawa Tengah","parent_id":"1643084","long":110},"13":{"id":"1641899","label":"Provinsi Kalimantan Selatan","value":"1641899","lat":-2.5,"lon":115.5,"poi_name":"Provinsi Kalimantan Selatan","parent_id":"1643084","long":115.5},"14":{"id":"1641898","label":"Provinsi Kalimantan Tengah","value":"1641898","lat":-2,"lon":113.5,"poi_name":"Provinsi Kalimantan Tengah","parent_id":"1643084","long":113.5},"15":{"id":"1641897","label":"Provinsi Kalimantan Timur","value":"1641897","lat":0.5,"lon":116.5,"poi_name":"Provinsi Kalimantan Timur","parent_id":"1643084","long":116.5},"16":{"id":"1996551","label":"Provinsi Kepulauan Riau","value":"1996551","lat":0.63332999999999994855670593096874654293060302734375,"lon":107.0186800000000033605829230509698390960693359375,"poi_name":"Provinsi Kepulauan Riau","parent_id":"1643084","long":107.0186800000000033605829230509698390960693359375},"17":{"id":"1638535","label":"Provinsi Lampung","value":"1638535","lat":-5,"lon":105,"poi_name":"Provinsi Lampung","parent_id":"1643084","long":105},"18":{"id":"1636627","label":"Provinsi Maluku","value":"1636627","lat":-3.238459999999999894271240918897092342376708984375,"lon":130.145270000000010668372851796448230743408203125,"poi_name":"Provinsi Maluku","parent_id":"1643084","long":130.145270000000010668372851796448230743408203125},"19":{"id":"1958070","label":"Provinsi Maluku Utara","value":"1958070","lat":0.62621000000000004437339384821825660765171051025390625,"lon":127.842410000000000991349224932491779327392578125,"poi_name":"Provinsi Maluku Utara","parent_id":"1643084","long":127.842410000000000991349224932491779327392578125},"20":{"id":"1633791","label":"Provinsi Nusa Tenggara Timur","value":"1633791","lat":-8.657379999999999853343979339115321636199951171875,"lon":121.0793699999999972760633681900799274444580078125,"poi_name":"Provinsi Nusa Tenggara Timur","parent_id":"1643084","long":121.0793699999999972760633681900799274444580078125},"21":{"id":"1643012","label":"Provinsi Papua","value":"1643012","lat":-4.75,"lon":138,"poi_name":"Provinsi Papua","parent_id":"1643084","long":138},"22":{"id":"1996549","label":"Provinsi Papua Barat","value":"1996549","lat":-0.86531000000000002359001882723532617092132568359375,"lon":134.061180000000007339622243307530879974365234375,"poi_name":"Provinsi Papua Barat","parent_id":"1643084","long":134.061180000000007339622243307530879974365234375},"23":{"id":"1629652","label":"Provinsi Riau","value":"1629652","lat":0.5004999999999999449329379785922355949878692626953125,"lon":101.748999999999995225152815692126750946044921875,"poi_name":"Provinsi Riau","parent_id":"1643084","long":101.748999999999995225152815692126750946044921875},"24":{"id":"1996550","label":"Provinsi Sulawesi Barat","value":"1996550","lat":-2.5,"lon":119.3332999999999941564965411089360713958740234375,"poi_name":"Provinsi Sulawesi Barat","parent_id":"1643084","long":119.3332999999999941564965411089360713958740234375},"25":{"id":"1626232","label":"Provinsi Sulawesi Selatan","value":"1626232","lat":-4.333330000000000126192389870993793010711669921875,"lon":120.25,"poi_name":"Provinsi Sulawesi Selatan","parent_id":"1643084","long":120.25},"26":{"id":"1626197","label":"Provinsi Sumatera Barat","value":"1626197","lat":-1,"lon":100.5,"poi_name":"Provinsi Sumatera Barat","parent_id":"1643084","long":100.5},"27":{"id":"1626231","label":"Sulawesi Tengah","value":"1626231","lat":-0.91659999999999997033484078201581723988056182861328125,"lon":122.353800000000006775735528208315372467041015625,"poi_name":"Sulawesi Tengah","parent_id":"1643084","long":122.353800000000006775735528208315372467041015625},"28":{"id":"1626230","label":"Sulawesi Tenggara","value":"1626230","lat":-4.39350000000000040500935938325710594654083251953125,"lon":122.21490000000000009094947017729282379150390625,"poi_name":"Sulawesi Tenggara","parent_id":"1643084","long":122.21490000000000009094947017729282379150390625},"29":{"id":"1626229","label":"Sulawesi Utara","value":"1626229","lat":1.25,"lon":124.8333300000000036789060686714947223663330078125,"poi_name":"Sulawesi Utara","parent_id":"1643084","long":124.8333300000000036789060686714947223663330078125},"30":{"id":"1626196","label":"Sumatera Selatan","value":"1626196","lat":-2.75,"lon":103.8333300000000036789060686714947223663330078125,"poi_name":"Sumatera Selatan","parent_id":"1643084","long":103.8333300000000036789060686714947223663330078125},"31":{"id":"1213642","label":"Sumatera Utara","value":"1213642","lat":2,"lon":99,"poi_name":"Sumatera Utara","parent_id":"1643084","long":99},"32":{"id":"1633792","label":"West Nusa Tenggara","value":"1633792","lat":-8.7400000000000002131628207280300557613372802734375,"lon":117.53329999999999699866748414933681488037109375,"poi_name":"West Nusa Tenggara","parent_id":"1643084","long":117.53329999999999699866748414933681488037109375}}