{"success":true,"remaining_lookups":8885,"0":{"id":"3490952","label":"Clarendon","value":"3490952","lat":17.983329999999998705106918350793421268463134765625,"lon":-77.2999999999999971578290569595992565155029296875,"poi_name":"Clarendon","parent_id":"3489940","long":-77.2999999999999971578290569595992565155029296875},"1":{"id":"3489853","label":"Kingston","value":"3489853","lat":17.96667000000000058435034588910639286041259765625,"lon":-76.7999999999999971578290569595992565155029296875,"poi_name":"Kingston","parent_id":"3489940","long":-76.7999999999999971578290569595992565155029296875},"2":{"id":"3489586","label":"Manchester","value":"3489586","lat":18.050000000000000710542735760100185871124267578125,"lon":-77.533330000000006521077011711895465850830078125,"poi_name":"Manchester","parent_id":"3489940","long":-77.533330000000006521077011711895465850830078125},"3":{"id":"3490145","label":"Parish of Hanover","value":"3490145","lat":18.416669999999999873807610129006206989288330078125,"lon":-78.1333300000000008367351256310939788818359375,"poi_name":"Parish of Hanover","parent_id":"3489940","long":-78.1333300000000008367351256310939788818359375},"4":{"id":"3488715","label":"Parish of Saint Ann","value":"3488715","lat":18.35000000000000142108547152020037174224853515625,"lon":-77.266670000000004847606760449707508087158203125,"poi_name":"Parish of Saint Ann","parent_id":"3489940","long":-77.266670000000004847606760449707508087158203125},"5":{"id":"3488997","label":"Portland","value":"3488997","lat":18.1333300000000008367351256310939788818359375,"lon":-76.533330000000006521077011711895465850830078125,"poi_name":"Portland","parent_id":"3489940","long":-76.533330000000006521077011711895465850830078125},"6":{"id":"3488716","label":"Saint Andrew","value":"3488716","lat":18.066669999999998452722138608805835247039794921875,"lon":-76.75,"poi_name":"Saint Andrew","parent_id":"3489940","long":-76.75},"7":{"id":"3488711","label":"Saint Catherine","value":"3488711","lat":18.066669999999998452722138608805835247039794921875,"lon":-77.016670000000004847606760449707508087158203125,"poi_name":"Saint Catherine","parent_id":"3489940","long":-77.016670000000004847606760449707508087158203125},"8":{"id":"3488708","label":"Saint Elizabeth","value":"3488708","lat":18.050000000000000710542735760100185871124267578125,"lon":-77.783330000000006521077011711895465850830078125,"poi_name":"Saint Elizabeth","parent_id":"3489940","long":-77.783330000000006521077011711895465850830078125},"9":{"id":"3488700","label":"Saint James","value":"3488700","lat":18.3833300000000008367351256310939788818359375,"lon":-77.8833300000000008367351256310939788818359375,"poi_name":"Saint James","parent_id":"3489940","long":-77.8833300000000008367351256310939788818359375},"10":{"id":"3488693","label":"Saint Mary","value":"3488693","lat":18.316669999999998452722138608805835247039794921875,"lon":-76.900000000000005684341886080801486968994140625,"poi_name":"Saint Mary","parent_id":"3489940","long":-76.900000000000005684341886080801486968994140625},"11":{"id":"3488688","label":"Saint Thomas","value":"3488688","lat":17.89999999999999857891452847979962825775146484375,"lon":-76.4333299999999979945641825906932353973388671875,"poi_name":"Saint Thomas","parent_id":"3489940","long":-76.4333299999999979945641825906932353973388671875},"12":{"id":"3488222","label":"Trelawny","value":"3488222","lat":18.3833300000000008367351256310939788818359375,"lon":-77.6333300000000008367351256310939788818359375,"poi_name":"Trelawny","parent_id":"3489940","long":-77.6333300000000008367351256310939788818359375},"13":{"id":"3488081","label":"Westmoreland","value":"3488081","lat":18.233329999999998705106918350793421268463134765625,"lon":-78.150000000000005684341886080801486968994140625,"poi_name":"Westmoreland","parent_id":"3489940","long":-78.150000000000005684341886080801486968994140625}}