{"success":true,"remaining_lookups":7863,"0":{"id":"3575476","label":"Christ Church Nichola Town","value":"3575476","lat":17.35000000000000142108547152020037174224853515625,"lon":-62.76666999999999774217940284870564937591552734375,"poi_name":"Christ Church Nichola Town","parent_id":"3575174","long":-62.76666999999999774217940284870564937591552734375},"1":{"id":"3575183","label":"Saint Anne Sandy Point","value":"3575183","lat":17.3666699999999991632648743689060211181640625,"lon":-62.83332999999999657347871107049286365509033203125,"poi_name":"Saint Anne Sandy Point","parent_id":"3575174","long":-62.83332999999999657347871107049286365509033203125},"2":{"id":"3575180","label":"Saint George Basseterre","value":"3575180","lat":17.266670000000001294893081649206578731536865234375,"lon":-62.6833299999999979945641825906932353973388671875,"poi_name":"Saint George Basseterre","parent_id":"3575174","long":-62.6833299999999979945641825906932353973388671875},"3":{"id":"3575179","label":"Saint George Gingerland","value":"3575179","lat":17.1333300000000008367351256310939788818359375,"lon":-62.5666700000000020054358174093067646026611328125,"poi_name":"Saint George Gingerland","parent_id":"3575174","long":-62.5666700000000020054358174093067646026611328125},"4":{"id":"3575177","label":"Saint James Windward","value":"3575177","lat":17.166669999999999873807610129006206989288330078125,"lon":-62.5666700000000020054358174093067646026611328125,"poi_name":"Saint James Windward","parent_id":"3575174","long":-62.5666700000000020054358174093067646026611328125},"5":{"id":"3575176","label":"Saint John Capesterre","value":"3575176","lat":17.3833300000000008367351256310939788818359375,"lon":-62.7999999999999971578290569595992565155029296875,"poi_name":"Saint John Capesterre","parent_id":"3575174","long":-62.7999999999999971578290569595992565155029296875},"6":{"id":"3575175","label":"Saint John Figtree","value":"3575175","lat":17.1166699999999991632648743689060211181640625,"lon":-62.60000000000000142108547152020037174224853515625,"poi_name":"Saint John Figtree","parent_id":"3575174","long":-62.60000000000000142108547152020037174224853515625},"7":{"id":"3575173","label":"Saint Mary Cayon","value":"3575173","lat":17.35000000000000142108547152020037174224853515625,"lon":-62.73333000000000225782059715129435062408447265625,"poi_name":"Saint Mary Cayon","parent_id":"3575174","long":-62.73333000000000225782059715129435062408447265625},"8":{"id":"3575172","label":"Saint Paul Capesterre","value":"3575172","lat":17.39999999999999857891452847979962825775146484375,"lon":-62.83332999999999657347871107049286365509033203125,"poi_name":"Saint Paul Capesterre","parent_id":"3575174","long":-62.83332999999999657347871107049286365509033203125},"9":{"id":"3575171","label":"Saint Paul Charlestown","value":"3575171","lat":17.1333300000000008367351256310939788818359375,"lon":-62.60000000000000142108547152020037174224853515625,"poi_name":"Saint Paul Charlestown","parent_id":"3575174","long":-62.60000000000000142108547152020037174224853515625},"10":{"id":"3575168","label":"Saint Peter Basseterre","value":"3575168","lat":17.316669999999998452722138608805835247039794921875,"lon":-62.71667000000000058435034588910639286041259765625,"poi_name":"Saint Peter Basseterre","parent_id":"3575174","long":-62.71667000000000058435034588910639286041259765625},"11":{"id":"3575165","label":"Saint Thomas Lowland","value":"3575165","lat":17.166669999999999873807610129006206989288330078125,"lon":-62.60000000000000142108547152020037174224853515625,"poi_name":"Saint Thomas Lowland","parent_id":"3575174","long":-62.60000000000000142108547152020037174224853515625},"12":{"id":"3575164","label":"Saint Thomas Middle Island","value":"3575164","lat":17.35000000000000142108547152020037174224853515625,"lon":-62.7999999999999971578290569595992565155029296875,"poi_name":"Saint Thomas Middle Island","parent_id":"3575174","long":-62.7999999999999971578290569595992565155029296875},"13":{"id":"3575114","label":"Trinity Palmetto Point","value":"3575114","lat":17.316669999999998452722138608805835247039794921875,"lon":-62.76666999999999774217940284870564937591552734375,"poi_name":"Trinity Palmetto Point","parent_id":"3575174","long":-62.76666999999999774217940284870564937591552734375}}