{"success":true,"remaining_lookups":7862,"0":{"id":"3576891","label":"Anse-la-Raye","value":"3576891","lat":13.912069999999999936335370875895023345947265625,"lon":-61.015659999999996898623066954314708709716796875,"poi_name":"Anse-la-Raye","parent_id":"3576468","long":-61.015659999999996898623066954314708709716796875},"1":{"id":"11351387","label":"Canaries","value":"11351387","lat":13.90465999999999979763742885552346706390380859375,"lon":-61.0632599999999996498445398174226284027099609375,"poi_name":"Canaries","parent_id":"3576468","long":-61.0632599999999996498445398174226284027099609375},"2":{"id":"3576810","label":"Castries","value":"3576810","lat":13.98404000000000024783730623312294483184814453125,"lon":-60.969999999999998863131622783839702606201171875,"poi_name":"Castries","parent_id":"3576468","long":-60.969999999999998863131622783839702606201171875},"3":{"id":"3576794","label":"Choiseul","value":"3576794","lat":13.8015699999999998937028067302890121936798095703125,"lon":-61.02819000000000215777617995627224445343017578125,"poi_name":"Choiseul","parent_id":"3576468","long":-61.02819000000000215777617995627224445343017578125},"4":{"id":"3576764","label":"Dennery","value":"3576764","lat":13.9250699999999998368593878694809973239898681640625,"lon":-60.9191900000000003956301952712237834930419921875,"poi_name":"Dennery","parent_id":"3576468","long":-60.9191900000000003956301952712237834930419921875},"5":{"id":"3576685","label":"Gros-Islet","value":"3576685","lat":14.05366000000000070713213062845170497894287109375,"lon":-60.944940000000002555680111981928348541259765625,"poi_name":"Gros-Islet","parent_id":"3576468","long":-60.944940000000002555680111981928348541259765625},"6":{"id":"3576662","label":"Laborie","value":"3576662","lat":13.786699999999999732835931354202330112457275390625,"lon":-61.0030900000000002592059900052845478057861328125,"poi_name":"Laborie","parent_id":"3576468","long":-61.0030900000000002592059900052845478057861328125},"7":{"id":"3576567","label":"Micoud","value":"3576567","lat":13.8204100000000007497646947740577161312103271484375,"lon":-60.94563000000000130285116028971970081329345703125,"poi_name":"Micoud","parent_id":"3576468","long":-60.94563000000000130285116028971970081329345703125},"8":{"id":"3576441","label":"Soufri\u00e8re","value":"3576441","lat":13.8454099999999993286792232538573443889617919921875,"lon":-61.0249299999999976762410369701683521270751953125,"poi_name":"Soufri\u00e8re","parent_id":"3576468","long":-61.0249299999999976762410369701683521270751953125},"9":{"id":"3576413","label":"Vieux-Fort","value":"3576413","lat":13.7840699999999998226485331542789936065673828125,"lon":-60.965879999999998517523636110126972198486328125,"poi_name":"Vieux-Fort","parent_id":"3576468","long":-60.965879999999998517523636110126972198486328125}}