{"success":true,"remaining_lookups":8583,"0":{"id":"2960629","label":"Canton d'Echternach","value":"2960629","lat":49.7887199999999978672349243424832820892333984375,"lon":6.3902400000000003643663148977793753147125244140625,"poi_name":"Canton d'Echternach","parent_id":"2960313","long":6.3902400000000003643663148977793753147125244140625},"1":{"id":"2960599","label":"Canton d'Esch-sur-Alzette","value":"2960599","lat":49.5,"lon":6.03333000000000030382807381101883947849273681640625,"poi_name":"Canton d'Esch-sur-Alzette","parent_id":"2960313","long":6.03333000000000030382807381101883947849273681640625},"2":{"id":"2960696","label":"Capellen","value":"2960696","lat":49.6367800000000016780177247710525989532470703125,"lon":5.9703099999999995617372405831702053546905517578125,"poi_name":"Capellen","parent_id":"2960313","long":5.9703099999999995617372405831702053546905517578125},"3":{"id":"2960683","label":"Clervaux","value":"2960683","lat":50.078519999999997480699676088988780975341796875,"lon":6.02235999999999993548271959298290312290191650390625,"poi_name":"Clervaux","parent_id":"2960313","long":6.02235999999999993548271959298290312290191650390625},"4":{"id":"2960656","label":"Diekirch","value":"2960656","lat":49.86155000000000114823706098832190036773681640625,"lon":6.14749999999999996447286321199499070644378662109375,"poi_name":"Diekirch","parent_id":"2960313","long":6.14749999999999996447286321199499070644378662109375},"5":{"id":"2960514","label":"Grevenmacher","value":"2960514","lat":49.68341000000000207137418328784406185150146484375,"lon":6.34306999999999998607336237910203635692596435546875,"poi_name":"Grevenmacher","parent_id":"2960313","long":6.34306999999999998607336237910203635692596435546875},"6":{"id":"2960315","label":"Luxembourg","value":"2960315","lat":49.61426999999999765122993267141282558441162109375,"lon":6.17288999999999976608933138777501881122589111328125,"poi_name":"Luxembourg","parent_id":"2960313","long":6.17288999999999976608933138777501881122589111328125},"7":{"id":"2960275","label":"Mersch","value":"2960275","lat":49.756360000000000809450284577906131744384765625,"lon":6.12716999999999956116880639456212520599365234375,"poi_name":"Mersch","parent_id":"2960313","long":6.12716999999999956116880639456212520599365234375},"8":{"id":"2960161","label":"Redange","value":"2960161","lat":49.79715999999999809233486303128302097320556640625,"lon":5.88731000000000026517454898566938936710357666015625,"poi_name":"Redange","parent_id":"2960313","long":5.88731000000000026517454898566938936710357666015625},"9":{"id":"2960152","label":"Remich","value":"2960152","lat":49.54323000000000121190169011242687702178955078125,"lon":6.31778999999999957282170726102776825428009033203125,"poi_name":"Remich","parent_id":"2960313","long":6.31778999999999957282170726102776825428009033203125},"10":{"id":"2960020","label":"Vianden","value":"2960020","lat":49.93256000000000227601049118675291538238525390625,"lon":6.16617999999999977234210746246390044689178466796875,"poi_name":"Vianden","parent_id":"2960313","long":6.16617999999999977234210746246390044689178466796875},"11":{"id":"2959975","label":"Wiltz","value":"2959975","lat":49.94698000000000348563844454474747180938720703125,"lon":5.907000000000000028421709430404007434844970703125,"poi_name":"Wiltz","parent_id":"2960313","long":5.907000000000000028421709430404007434844970703125}}