{"success":true,"remaining_lookups":8533,"0":{"id":"1282497","label":"Alifu Atholhu","value":"1282497","lat":4.26499999999999968025576890795491635799407958984375,"lon":72.9693299999999993588062352500855922698974609375,"poi_name":"Alifu Atholhu","parent_id":"1282028","long":72.9693299999999993588062352500855922698974609375},"1":{"id":"1282478","label":"Baa Atholhu","value":"1282478","lat":4.891040000000000276259015663526952266693115234375,"lon":72.9731199999999944338924251496791839599609375,"poi_name":"Baa Atholhu","parent_id":"1282028","long":72.9731199999999944338924251496791839599609375},"2":{"id":"1282447","label":"Dhaalu Atholhu","value":"1282447","lat":2.948749999999999982236431605997495353221893310546875,"lon":73.01200000000000045474735088646411895751953125,"poi_name":"Dhaalu Atholhu","parent_id":"1282028","long":73.01200000000000045474735088646411895751953125},"3":{"id":"1282393","label":"Faafu Atholhu","value":"1282393","lat":3.1060900000000000176214598468504846096038818359375,"lon":72.9793300000000044747139327228069305419921875,"poi_name":"Faafu Atholhu","parent_id":"1282028","long":72.9793300000000044747139327228069305419921875},"4":{"id":"1282329","label":"Gaafu Alifu Atholhu","value":"1282329","lat":0.38568999999999997729815959246479906141757965087890625,"lon":73.50920999999999594365363009274005889892578125,"poi_name":"Gaafu Alifu Atholhu","parent_id":"1282028","long":73.50920999999999594365363009274005889892578125},"5":{"id":"1282328","label":"Gaafu Dhaalu Atholhu","value":"1282328","lat":0.2202800000000000035793590313915046863257884979248046875,"lon":73.101619999999996935002855025231838226318359375,"poi_name":"Gaafu Dhaalu Atholhu","parent_id":"1282028","long":73.101619999999996935002855025231838226318359375},"6":{"id":"1281945","label":"Gnaviyani Atoll","value":"1281945","lat":-0.29693000000000002724931391639984212815761566162109375,"lon":73.4249099999999970123099046759307384490966796875,"poi_name":"Gnaviyani Atoll","parent_id":"1282028","long":73.4249099999999970123099046759307384490966796875},"7":{"id":"1282294","label":"Haa Alifu Atholhu","value":"1282294","lat":7.02179999999999981952214511693455278873443603515625,"lon":72.9798100000000005138645065017044544219970703125,"poi_name":"Haa Alifu Atholhu","parent_id":"1282028","long":72.9798100000000005138645065017044544219970703125},"8":{"id":"1282293","label":"Haa Dhaalu Atholhu","value":"1282293","lat":6.8262499999999999289457264239899814128875732421875,"lon":73.188590000000004920366336591541767120361328125,"poi_name":"Haa Dhaalu Atholhu","parent_id":"1282028","long":73.188590000000004920366336591541767120361328125},"9":{"id":"1282208","label":"Kaafu Atoll","value":"1282208","lat":4.169579999999999841975295566953718662261962890625,"lon":73.499179999999995516191120259463787078857421875,"poi_name":"Kaafu Atoll","parent_id":"1282028","long":73.499179999999995516191120259463787078857421875},"10":{"id":"1282101","label":"Laamu Atholhu","value":"1282101","lat":2.103470000000000172946101884008385241031646728515625,"lon":73.5729099999999931469574221409857273101806640625,"poi_name":"Laamu Atholhu","parent_id":"1282028","long":73.5729099999999931469574221409857273101806640625},"11":{"id":"1282096","label":"Lhaviyani Atholhu","value":"1282096","lat":5.2805499999999998550492819049395620822906494140625,"lon":73.5841599999999971259967423975467681884765625,"poi_name":"Lhaviyani Atholhu","parent_id":"1282028","long":73.5841599999999971259967423975467681884765625},"12":{"id":"1281985","label":"Meemu Atholhu","value":"1281985","lat":2.775279999999999969162445268011651933193206787109375,"lon":73.3519399999999990313881426118314266204833984375,"poi_name":"Meemu Atholhu","parent_id":"1282028","long":73.3519399999999990313881426118314266204833984375},"13":{"id":"1281937","label":"Noonu Atoll","value":"1281937","lat":5.9648599999999998289013092289678752422332763671875,"lon":73.3887299999999953570295474492013454437255859375,"poi_name":"Noonu Atoll","parent_id":"1282028","long":73.3887299999999953570295474492013454437255859375},"14":{"id":"1281918","label":"Raa Atholhu","value":"1281918","lat":5.7634699999999998709654391859658062458038330078125,"lon":72.984949999999997771737980656325817108154296875,"poi_name":"Raa Atholhu","parent_id":"1282028","long":72.984949999999997771737980656325817108154296875},"15":{"id":"1281893","label":"Seenu Atholhu","value":"1281893","lat":-0.68693999999999999506172798646730370819568634033203125,"lon":73.168409999999994397512637078762054443359375,"poi_name":"Seenu Atholhu","parent_id":"1282028","long":73.168409999999994397512637078762054443359375},"16":{"id":"1281892","label":"Shaviyani Atholhu","value":"1281892","lat":6.32125000000000003552713678800500929355621337890625,"lon":73.1976300000000037471181713044643402099609375,"poi_name":"Shaviyani Atholhu","parent_id":"1282028","long":73.1976300000000037471181713044643402099609375},"17":{"id":"10346475","label":"Southern Ari Atoll","value":"10346475","lat":3.649999999999999911182158029987476766109466552734375,"lon":72.8299999999999982946974341757595539093017578125,"poi_name":"Southern Ari Atoll","parent_id":"1282028","long":72.8299999999999982946974341757595539093017578125},"18":{"id":"1281881","label":"Thaa Atholhu","value":"1281881","lat":2.1943000000000001392663762089796364307403564453125,"lon":73.11790999999999485225998796522617340087890625,"poi_name":"Thaa Atholhu","parent_id":"1282028","long":73.11790999999999485225998796522617340087890625},"19":{"id":"1281843","label":"Vaavu Atholhu","value":"1281843","lat":3.37014000000000013557155398302711546421051025390625,"lon":73.58535000000000536601874046027660369873046875,"poi_name":"Vaavu Atholhu","parent_id":"1282028","long":73.58535000000000536601874046027660369873046875}}