{"success":true,"remaining_lookups":8371,"0":{"id":"2756631","label":"Provincie Drenthe","value":"2756631","lat":52.83332999999999657347871107049286365509033203125,"lon":6.583330000000000126192389870993793010711669921875,"poi_name":"Provincie Drenthe","parent_id":"2750405","long":6.583330000000000126192389870993793010711669921875},"1":{"id":"3319179","label":"Provincie Flevoland","value":"3319179","lat":52.53332999999999941564965411089360713958740234375,"lon":5.666669999999999873807610129006206989288330078125,"poi_name":"Provincie Flevoland","parent_id":"2750405","long":5.666669999999999873807610129006206989288330078125},"2":{"id":"2755812","label":"Provincie Friesland","value":"2755812","lat":53.16667000000000342652128892950713634490966796875,"lon":5.833330000000000126192389870993793010711669921875,"poi_name":"Provincie Friesland","parent_id":"2750405","long":5.833330000000000126192389870993793010711669921875},"3":{"id":"2755634","label":"Provincie Gelderland","value":"2755634","lat":52,"lon":5.833330000000000126192389870993793010711669921875,"poi_name":"Provincie Gelderland","parent_id":"2750405","long":5.833330000000000126192389870993793010711669921875},"4":{"id":"2755249","label":"Provincie Groningen","value":"2755249","lat":53.25,"lon":6.75,"poi_name":"Provincie Groningen","parent_id":"2750405","long":6.75},"5":{"id":"2751596","label":"Provincie Limburg","value":"2751596","lat":51.25,"lon":6,"poi_name":"Provincie Limburg","parent_id":"2750405","long":6},"6":{"id":"2749990","label":"Provincie Noord-Brabant","value":"2749990","lat":51.66667000000000342652128892950713634490966796875,"lon":5,"poi_name":"Provincie Noord-Brabant","parent_id":"2750405","long":5},"7":{"id":"2749879","label":"Provincie Noord-Holland","value":"2749879","lat":52.58332999999999657347871107049286365509033203125,"lon":4.916669999999999873807610129006206989288330078125,"poi_name":"Provincie Noord-Holland","parent_id":"2750405","long":4.916669999999999873807610129006206989288330078125},"8":{"id":"2748838","label":"Provincie Overijssel","value":"2748838","lat":52.41667000000000342652128892950713634490966796875,"lon":6.5,"poi_name":"Provincie Overijssel","parent_id":"2750405","long":6.5},"9":{"id":"2745909","label":"Provincie Utrecht","value":"2745909","lat":52,"lon":5.25,"poi_name":"Provincie Utrecht","parent_id":"2750405","long":5.25},"10":{"id":"2744011","label":"Provincie Zeeland","value":"2744011","lat":51.41667000000000342652128892950713634490966796875,"lon":3.75,"poi_name":"Provincie Zeeland","parent_id":"2750405","long":3.75},"11":{"id":"2743698","label":"Provincie Zuid-Holland","value":"2743698","lat":52,"lon":4.666669999999999873807610129006206989288330078125,"poi_name":"Provincie Zuid-Holland","parent_id":"2750405","long":4.666669999999999873807610129006206989288330078125}}