{"success":true,"remaining_lookups":8108,"0":{"id":"3411865","label":"Azores","value":"3411865","lat":37.80846999999999979991116560995578765869140625,"lon":-25.474660000000000081854523159563541412353515625,"poi_name":"Azores","parent_id":"2264397","long":-25.474660000000000081854523159563541412353515625},"1":{"id":"2738782","label":"Distrito da Guarda","value":"2738782","lat":40.6422299999999978581399773247539997100830078125,"lon":-7.21849999999999969446662362315692007541656494140625,"poi_name":"Distrito da Guarda","parent_id":"2264397","long":-7.21849999999999969446662362315692007541656494140625},"2":{"id":"2742610","label":"Distrito de Aveiro","value":"2742610","lat":40.72973999999999961119101499207317829132080078125,"lon":-8.481500000000000483169060316868126392364501953125,"poi_name":"Distrito de Aveiro","parent_id":"2264397","long":-8.481500000000000483169060316868126392364501953125},"3":{"id":"2270984","label":"Distrito de Beja","value":"2270984","lat":37.84203999999999723513610661029815673828125,"lon":-7.918549999999999755573298898525536060333251953125,"poi_name":"Distrito de Beja","parent_id":"2264397","long":-7.918549999999999755573298898525536060333251953125},"4":{"id":"2742031","label":"Distrito de Braga","value":"2742031","lat":41.5482099999999974215825204737484455108642578125,"lon":-8.4254499999999996617816577781923115253448486328125,"poi_name":"Distrito de Braga","parent_id":"2264397","long":-8.4254499999999996617816577781923115253448486328125},"5":{"id":"2742026","label":"Distrito de Bragan\u00e7a","value":"2742026","lat":41.836150000000003501554601825773715972900390625,"lon":-6.7634600000000002495426087989471852779388427734375,"poi_name":"Distrito de Bragan\u00e7a","parent_id":"2264397","long":-6.7634600000000002495426087989471852779388427734375},"6":{"id":"2269513","label":"Distrito de Castelo Branco","value":"2269513","lat":39.956580000000002428350853733718395233154296875,"lon":-7.5232299999999998618704921682365238666534423828125,"poi_name":"Distrito de Castelo Branco","parent_id":"2264397","long":-7.5232299999999998618704921682365238666534423828125},"7":{"id":"2740636","label":"Distrito de Coimbra","value":"2740636","lat":40.19250000000000255795384873636066913604736328125,"lon":-8.3296299999999998675548340543173253536224365234375,"poi_name":"Distrito de Coimbra","parent_id":"2264397","long":-8.3296299999999998675548340543173253536224365234375},"8":{"id":"2268337","label":"Distrito de Faro","value":"2268337","lat":37.2000000000000028421709430404007434844970703125,"lon":-8.166669999999999873807610129006206989288330078125,"poi_name":"Distrito de Faro","parent_id":"2264397","long":-8.166669999999999873807610129006206989288330078125},"9":{"id":"2267094","label":"Distrito de Leiria","value":"2267094","lat":39.7205000000000012505552149377763271331787109375,"lon":-8.8140300000000006974687494221143424510955810546875,"poi_name":"Distrito de Leiria","parent_id":"2264397","long":-8.8140300000000006974687494221143424510955810546875},"10":{"id":"2267056","label":"Distrito de Lisboa","value":"2267056","lat":39,"lon":-9.1333300000000008367351256310939788818359375,"poi_name":"Distrito de Lisboa","parent_id":"2264397","long":-9.1333300000000008367351256310939788818359375},"11":{"id":"2264507","label":"Distrito de Portalegre","value":"2264507","lat":39.25,"lon":-7.583330000000000126192389870993793010711669921875,"poi_name":"Distrito de Portalegre","parent_id":"2264397","long":-7.583330000000000126192389870993793010711669921875},"12":{"id":"2263478","label":"Distrito de Santar\u00e9m","value":"2263478","lat":39.2888099999999980127540766261518001556396484375,"lon":-8.5019200000000001438138497178442776203155517578125,"poi_name":"Distrito de Santar\u00e9m","parent_id":"2264397","long":-8.5019200000000001438138497178442776203155517578125},"13":{"id":"2262961","label":"Distrito de Set\u00fabal","value":"2262961","lat":38.349569999999999936335370875895023345947265625,"lon":-8.586510000000000530917532159946858882904052734375,"poi_name":"Distrito de Set\u00fabal","parent_id":"2264397","long":-8.586510000000000530917532159946858882904052734375},"14":{"id":"2732772","label":"Distrito de Viana do Castelo","value":"2732772","lat":41.896490000000000009094947017729282379150390625,"lon":-8.506299999999999528199623455293476581573486328125,"poi_name":"Distrito de Viana do Castelo","parent_id":"2264397","long":-8.506299999999999528199623455293476581573486328125},"15":{"id":"2732437","label":"Distrito de Vila Real","value":"2732437","lat":41.54355000000000330828697769902646541595458984375,"lon":-7.5991499999999998493649400188587605953216552734375,"poi_name":"Distrito de Vila Real","parent_id":"2264397","long":-7.5991499999999998493649400188587605953216552734375},"16":{"id":"2732264","label":"Distrito de Viseu","value":"2732264","lat":40.82746999999999815145201864652335643768310546875,"lon":-7.79816000000000020264678823878057301044464111328125,"poi_name":"Distrito de Viseu","parent_id":"2264397","long":-7.79816000000000020264678823878057301044464111328125},"17":{"id":"2268404","label":"Distrito de \u00c9vora","value":"2268404","lat":38.58332999999999657347871107049286365509033203125,"lon":-7.833330000000000126192389870993793010711669921875,"poi_name":"Distrito de \u00c9vora","parent_id":"2264397","long":-7.833330000000000126192389870993793010711669921875},"18":{"id":"2735941","label":"Distrito do Porto","value":"2735941","lat":41.2285200000000031650415621697902679443359375,"lon":-8.3269099999999998118482835707254707813262939453125,"poi_name":"Distrito do Porto","parent_id":"2264397","long":-8.3269099999999998118482835707254707813262939453125},"19":{"id":"2593105","label":"Madeira","value":"2593105","lat":32.767369999999999663486960344016551971435546875,"lon":-16.946989999999999554347596131265163421630859375,"poi_name":"Madeira","parent_id":"2264397","long":-16.946989999999999554347596131265163421630859375}}