{"success":true,"remaining_lookups":8171,"0":{"id":"3474570","label":"Asunci\u00f3n","value":"3474570","lat":-25.282070000000000931095200940035283565521240234375,"lon":-57.635390000000001009539118967950344085693359375,"poi_name":"Asunci\u00f3n","parent_id":"3437598","long":-57.635390000000001009539118967950344085693359375},"1":{"id":"3439137","label":"Departamento Central","value":"3439137","lat":-25.53332999999999941564965411089360713958740234375,"lon":-57.46667000000000058435034588910639286041259765625,"poi_name":"Departamento Central","parent_id":"3437598","long":-57.46667000000000058435034588910639286041259765625},"2":{"id":"3439441","label":"Departamento de Alto Paraguay","value":"3439441","lat":-20.5,"lon":-59.16667000000000342652128892950713634490966796875,"poi_name":"Departamento de Alto Paraguay","parent_id":"3437598","long":-59.16667000000000342652128892950713634490966796875},"3":{"id":"3867442","label":"Departamento de Boquer\u00f3n","value":"3867442","lat":-22.64104999999999989768184605054557323455810546875,"lon":-61.07381000000000170757630257867276668548583984375,"poi_name":"Departamento de Boquer\u00f3n","parent_id":"3437598","long":-61.07381000000000170757630257867276668548583984375},"4":{"id":"3439312","label":"Departamento de Caaguaz\u00fa","value":"3439312","lat":-25.199999999999999289457264239899814128875732421875,"lon":-55.83332999999999657347871107049286365509033203125,"poi_name":"Departamento de Caaguaz\u00fa","parent_id":"3437598","long":-55.83332999999999657347871107049286365509033203125},"5":{"id":"3439296","label":"Departamento de Caazap\u00e1","value":"3439296","lat":-26.25,"lon":-56.0666700000000020054358174093067646026611328125,"poi_name":"Departamento de Caazap\u00e1","parent_id":"3437598","long":-56.0666700000000020054358174093067646026611328125},"6":{"id":"3439216","label":"Departamento de Canindey\u00fa","value":"3439216","lat":-24.25,"lon":-55.25,"poi_name":"Departamento de Canindey\u00fa","parent_id":"3437598","long":-55.25},"7":{"id":"3438833","label":"Departamento de Concepci\u00f3n","value":"3438833","lat":-22.833330000000000126192389870993793010711669921875,"lon":-57.16667000000000342652128892950713634490966796875,"poi_name":"Departamento de Concepci\u00f3n","parent_id":"3437598","long":-57.16667000000000342652128892950713634490966796875},"8":{"id":"3437923","label":"Departamento de Itap\u00faa","value":"3437923","lat":-26.833330000000000126192389870993793010711669921875,"lon":-55.66667000000000342652128892950713634490966796875,"poi_name":"Departamento de Itap\u00faa","parent_id":"3437598","long":-55.66667000000000342652128892950713634490966796875},"9":{"id":"3437727","label":"Departamento de Misiones","value":"3437727","lat":-27,"lon":-57,"poi_name":"Departamento de Misiones","parent_id":"3437598","long":-57},"10":{"id":"3437599","label":"Departamento de Paraguar\u00ed","value":"3437599","lat":-26,"lon":-57.16667000000000342652128892950713634490966796875,"poi_name":"Departamento de Paraguar\u00ed","parent_id":"3437598","long":-57.16667000000000342652128892950713634490966796875},"11":{"id":"3437443","label":"Departamento de Presidente Hayes","value":"3437443","lat":-23.5,"lon":-58.83332999999999657347871107049286365509033203125,"poi_name":"Departamento de Presidente Hayes","parent_id":"3437598","long":-58.83332999999999657347871107049286365509033203125},"12":{"id":"3437027","label":"Departamento de San Pedro","value":"3437027","lat":-24.1333300000000008367351256310939788818359375,"lon":-56.66667000000000342652128892950713634490966796875,"poi_name":"Departamento de San Pedro","parent_id":"3437598","long":-56.66667000000000342652128892950713634490966796875},"13":{"id":"3438827","label":"Departamento de la Cordillera","value":"3438827","lat":-25.25,"lon":-57,"poi_name":"Departamento de la Cordillera","parent_id":"3437598","long":-57},"14":{"id":"3437677","label":"Departamento de \u00d1eembuc\u00fa","value":"3437677","lat":-26.666669999999999873807610129006206989288330078125,"lon":-57.91667000000000342652128892950713634490966796875,"poi_name":"Departamento de \u00d1eembuc\u00fa","parent_id":"3437598","long":-57.91667000000000342652128892950713634490966796875},"15":{"id":"3439440","label":"Departamento del Alto Paran\u00e1","value":"3439440","lat":-25.5,"lon":-54.83332999999999657347871107049286365509033203125,"poi_name":"Departamento del Alto Paran\u00e1","parent_id":"3437598","long":-54.83332999999999657347871107049286365509033203125},"16":{"id":"3439433","label":"Departamento del Amambay","value":"3439433","lat":-22.833330000000000126192389870993793010711669921875,"lon":-55.9500000000000028421709430404007434844970703125,"poi_name":"Departamento del Amambay","parent_id":"3437598","long":-55.9500000000000028421709430404007434844970703125},"17":{"id":"3438049","label":"Departamento del Guair\u00e1","value":"3438049","lat":-25.800000000000000710542735760100185871124267578125,"lon":-56.26666999999999774217940284870564937591552734375,"poi_name":"Departamento del Guair\u00e1","parent_id":"3437598","long":-56.26666999999999774217940284870564937591552734375}}