{"success":true,"remaining_lookups":7680,"0":{"id":"2721357","label":"Blekinge","value":"2721357","lat":56.33332999999999657347871107049286365509033203125,"lon":15.333330000000000126192389870993793010711669921875,"poi_name":"Blekinge","parent_id":"2661886","long":15.333330000000000126192389870993793010711669921875},"1":{"id":"2699767","label":"Dalarna","value":"2699767","lat":61,"lon":14.5,"poi_name":"Dalarna","parent_id":"2661886","long":14.5},"2":{"id":"2711508","label":"Gotland","value":"2711508","lat":57.5,"lon":18.5,"poi_name":"Gotland","parent_id":"2661886","long":18.5},"3":{"id":"2712411","label":"G\u00e4vleborgs l\u00e4n","value":"2712411","lat":61.5,"lon":16.25,"poi_name":"G\u00e4vleborgs l\u00e4n","parent_id":"2661886","long":16.25},"4":{"id":"2708794","label":"Halland","value":"2708794","lat":56.75,"lon":13,"poi_name":"Halland","parent_id":"2661886","long":13},"5":{"id":"2703330","label":"J\u00e4mtlands l\u00e4n","value":"2703330","lat":63,"lon":14.666669999999999873807610129006206989288330078125,"poi_name":"J\u00e4mtlands l\u00e4n","parent_id":"2661886","long":14.666669999999999873807610129006206989288330078125},"6":{"id":"2702976","label":"J\u00f6nk\u00f6pings l\u00e4n","value":"2702976","lat":57.5,"lon":14.5,"poi_name":"J\u00f6nk\u00f6pings l\u00e4n","parent_id":"2661886","long":14.5},"7":{"id":"2702259","label":"Kalmar","value":"2702259","lat":57.33332999999999657347871107049286365509033203125,"lon":16,"poi_name":"Kalmar","parent_id":"2661886","long":16},"8":{"id":"2699050","label":"Kronoberg","value":"2699050","lat":56.66667000000000342652128892950713634490966796875,"lon":14.666669999999999873807610129006206989288330078125,"poi_name":"Kronoberg","parent_id":"2661886","long":14.666669999999999873807610129006206989288330078125},"9":{"id":"604010","label":"Norrbotten","value":"604010","lat":67,"lon":20,"poi_name":"Norrbotten","parent_id":"2661886","long":20},"10":{"id":"3337385","label":"Sk\u00e5ne l\u00e4n","value":"3337385","lat":55.98333000000000225782059715129435062408447265625,"lon":13.5,"poi_name":"Sk\u00e5ne l\u00e4n","parent_id":"2661886","long":13.5},"11":{"id":"2673722","label":"Stockholm","value":"2673722","lat":59.5,"lon":18,"poi_name":"Stockholm","parent_id":"2661886","long":18},"12":{"id":"2676207","label":"S\u00f6dermanlands l\u00e4n","value":"2676207","lat":59.25,"lon":16.666669999999999873807610129006206989288330078125,"poi_name":"S\u00f6dermanlands l\u00e4n","parent_id":"2661886","long":16.666669999999999873807610129006206989288330078125},"13":{"id":"2666218","label":"Uppsala","value":"2666218","lat":60,"lon":17.75,"poi_name":"Uppsala","parent_id":"2661886","long":17.75},"14":{"id":"2664870","label":"V\u00e4rmlands l\u00e4n","value":"2664870","lat":59.75,"lon":13.25,"poi_name":"V\u00e4rmlands l\u00e4n","parent_id":"2661886","long":13.25},"15":{"id":"2664415","label":"V\u00e4sterbottens l\u00e4n","value":"2664415","lat":65,"lon":17.5,"poi_name":"V\u00e4sterbottens l\u00e4n","parent_id":"2661886","long":17.5},"16":{"id":"2664292","label":"V\u00e4sternorrlands l\u00e4n","value":"2664292","lat":63,"lon":17.5,"poi_name":"V\u00e4sternorrlands l\u00e4n","parent_id":"2661886","long":17.5},"17":{"id":"2664179","label":"V\u00e4stmanlands l\u00e4n","value":"2664179","lat":59.75,"lon":16.333330000000000126192389870993793010711669921875,"poi_name":"V\u00e4stmanlands l\u00e4n","parent_id":"2661886","long":16.333330000000000126192389870993793010711669921875},"18":{"id":"3337386","label":"V\u00e4stra G\u00f6talands l\u00e4n","value":"3337386","lat":58,"lon":13,"poi_name":"V\u00e4stra G\u00f6talands l\u00e4n","parent_id":"2661886","long":13},"19":{"id":"2686655","label":"\u00d6rebro l\u00e4n","value":"2686655","lat":59.5,"lon":15,"poi_name":"\u00d6rebro l\u00e4n","parent_id":"2661886","long":15},"20":{"id":"2685867","label":"\u00d6sterg\u00f6tlands l\u00e4n","value":"2685867","lat":58.41667000000000342652128892950713634490966796875,"lon":15.75,"poi_name":"\u00d6sterg\u00f6tlands l\u00e4n","parent_id":"2661886","long":15.75}}