{"success":true,"remaining_lookups":7684,"0":{"id":"3384481","label":"Distrikt Brokopondo","value":"3384481","lat":4.75,"lon":-55.16667000000000342652128892950713634490966796875,"poi_name":"Distrikt Brokopondo","parent_id":"3382998","long":-55.16667000000000342652128892950713634490966796875},"1":{"id":"3384418","label":"Distrikt Commewijne","value":"3384418","lat":5.75,"lon":-54.91667000000000342652128892950713634490966796875,"poi_name":"Distrikt Commewijne","parent_id":"3382998","long":-54.91667000000000342652128892950713634490966796875},"2":{"id":"3384397","label":"Distrikt Coronie","value":"3384397","lat":5.583330000000000126192389870993793010711669921875,"lon":-56.25,"poi_name":"Distrikt Coronie","parent_id":"3382998","long":-56.25},"3":{"id":"3383560","label":"Distrikt Marowijne","value":"3383560","lat":5.583330000000000126192389870993793010711669921875,"lon":-54.33332999999999657347871107049286365509033203125,"poi_name":"Distrikt Marowijne","parent_id":"3382998","long":-54.33332999999999657347871107049286365509033203125},"4":{"id":"3383438","label":"Distrikt Nickerie","value":"3383438","lat":5.666669999999999873807610129006206989288330078125,"lon":-56.83332999999999657347871107049286365509033203125,"poi_name":"Distrikt Nickerie","parent_id":"3382998","long":-56.83332999999999657347871107049286365509033203125},"5":{"id":"3383337","label":"Distrikt Para","value":"3383337","lat":5.416669999999999873807610129006206989288330078125,"lon":-55.33332999999999657347871107049286365509033203125,"poi_name":"Distrikt Para","parent_id":"3382998","long":-55.33332999999999657347871107049286365509033203125},"6":{"id":"3383329","label":"Distrikt Paramaribo","value":"3383329","lat":5.86667000000000005144329406903125345706939697265625,"lon":-55.16667000000000342652128892950713634490966796875,"poi_name":"Distrikt Paramaribo","parent_id":"3382998","long":-55.16667000000000342652128892950713634490966796875},"7":{"id":"3383110","label":"Distrikt Saramacca","value":"3383110","lat":5.666669999999999873807610129006206989288330078125,"lon":-55.58332999999999657347871107049286365509033203125,"poi_name":"Distrikt Saramacca","parent_id":"3382998","long":-55.58332999999999657347871107049286365509033203125},"8":{"id":"3383062","label":"Distrikt Sipaliwini","value":"3383062","lat":4,"lon":-56,"poi_name":"Distrikt Sipaliwini","parent_id":"3382998","long":-56},"9":{"id":"3382761","label":"Distrikt Wanica","value":"3382761","lat":5.75,"lon":-55.25,"poi_name":"Distrikt Wanica","parent_id":"3382998","long":-55.25}}