{"success":true,"remaining_lookups":7475,"0":{"id":"3575052","label":"Arima","value":"3575052","lat":10.625,"lon":-61.27917000000000058435034588910639286041259765625,"poi_name":"Arima","parent_id":"3573591","long":-61.27917000000000058435034588910639286041259765625},"1":{"id":"7521937","label":"Chaguanas","value":"7521937","lat":10.517179999999999751025825389660894870758056640625,"lon":-61.4150300000000015643308870494365692138671875,"poi_name":"Chaguanas","parent_id":"3573591","long":-61.4150300000000015643308870494365692138671875},"2":{"id":"3573891","label":"City of Port of Spain","value":"3573891","lat":10.6638900000000003132072379230521619319915771484375,"lon":-61.51666999999999774217940284870564937591552734375,"poi_name":"City of Port of Spain","parent_id":"3573591","long":-61.51666999999999774217940284870564937591552734375},"3":{"id":"7521938","label":"Couva-Tabaquite-Talparo","value":"7521938","lat":10.4179200000000005132960723130963742733001708984375,"lon":-61.45116999999999762849256512708961963653564453125,"poi_name":"Couva-Tabaquite-Talparo","parent_id":"3573591","long":-61.45116999999999762849256512708961963653564453125},"4":{"id":"7521939","label":"Diego Martin","value":"7521939","lat":10.7004999999999999005240169935859739780426025390625,"lon":-61.5341700000000031423041946254670619964599609375,"poi_name":"Diego Martin","parent_id":"3573591","long":-61.5341700000000031423041946254670619964599609375},"5":{"id":"3574155","label":"Mayaro","value":"3574155","lat":10.166669999999999873807610129006206989288330078125,"lon":-61.08332999999999657347871107049286365509033203125,"poi_name":"Mayaro","parent_id":"3573591","long":-61.08332999999999657347871107049286365509033203125},"6":{"id":"7521941","label":"Penal\/Debe","value":"7521941","lat":10.16778000000000048430592869408428668975830078125,"lon":-61.46524000000000143018041853792965412139892578125,"poi_name":"Penal\/Debe","parent_id":"3573591","long":-61.46524000000000143018041853792965412139892578125},"7":{"id":"7521943","label":"Point Fortin","value":"7521943","lat":10.1839999999999992752464095246978104114532470703125,"lon":-61.68196999999999974306774674914777278900146484375,"poi_name":"Point Fortin","parent_id":"3573591","long":-61.68196999999999974306774674914777278900146484375},"8":{"id":"7521942","label":"Princes Town","value":"7521942","lat":10.267459999999999809006112627685070037841796875,"lon":-61.38181999999999760575519758276641368865966796875,"poi_name":"Princes Town","parent_id":"3573591","long":-61.38181999999999760575519758276641368865966796875},"9":{"id":"3573739","label":"San Fernando","value":"3573739","lat":10.28126999999999924284566077403724193572998046875,"lon":-61.45036999999999949295670376159250736236572265625,"poi_name":"San Fernando","parent_id":"3573591","long":-61.45036999999999949295670376159250736236572265625},"10":{"id":"7521946","label":"San Juan\/Laventille","value":"7521946","lat":10.6496399999999997731947587453760206699371337890625,"lon":-61.49752000000000151658241520635783672332763671875,"poi_name":"San Juan\/Laventille","parent_id":"3573591","long":-61.49752000000000151658241520635783672332763671875},"11":{"id":"7521944","label":"Sangre Grande","value":"7521944","lat":10.5835000000000007958078640513122081756591796875,"lon":-61.11771999999999849251253181137144565582275390625,"poi_name":"Sangre Grande","parent_id":"3573591","long":-61.11771999999999849251253181137144565582275390625},"12":{"id":"7521945","label":"Siparia","value":"7521945","lat":10.1338200000000000500222085975110530853271484375,"lon":-61.5012100000000003774403012357652187347412109375,"poi_name":"Siparia","parent_id":"3573591","long":-61.5012100000000003774403012357652187347412109375},"13":{"id":"3573606","label":"Tobago","value":"3573606","lat":11.25,"lon":-60.66667000000000342652128892950713634490966796875,"poi_name":"Tobago","parent_id":"3573591","long":-60.66667000000000342652128892950713634490966796875},"14":{"id":"7521947","label":"Tunapuna\/Piarco","value":"7521947","lat":10.6338699999999999334931999328546226024627685546875,"lon":-61.38181999999999760575519758276641368865966796875,"poi_name":"Tunapuna\/Piarco","parent_id":"3573591","long":-61.38181999999999760575519758276641368865966796875}}