{"success":true,"remaining_lookups":7850,"0":{"id":"3577892","label":"Grenadines","value":"3577892","lat":12.833330000000000126192389870993793010711669921875,"lon":-61.25,"poi_name":"Grenadines","parent_id":"3577815","long":-61.25},"1":{"id":"3577934","label":"Parish of Charlotte","value":"3577934","lat":13.250640000000000640056896372698247432708740234375,"lon":-61.151960000000002537490217946469783782958984375,"poi_name":"Parish of Charlotte","parent_id":"3577815","long":-61.151960000000002537490217946469783782958984375},"2":{"id":"3577822","label":"Parish of Saint Andrew","value":"3577822","lat":13.2039299999999997226041159592568874359130859375,"lon":-61.23015000000000185309545486234128475189208984375,"poi_name":"Parish of Saint Andrew","parent_id":"3577815","long":-61.23015000000000185309545486234128475189208984375},"3":{"id":"3577821","label":"Parish of Saint David","value":"3577821","lat":13.300000000000000710542735760100185871124267578125,"lon":-61.2000000000000028421709430404007434844970703125,"poi_name":"Parish of Saint David","parent_id":"3577815","long":-61.2000000000000028421709430404007434844970703125},"4":{"id":"3577819","label":"Parish of Saint George","value":"3577819","lat":13.165240000000000719637682777829468250274658203125,"lon":-61.1928199999999975489117787219583988189697265625,"poi_name":"Parish of Saint George","parent_id":"3577815","long":-61.1928199999999975489117787219583988189697265625},"5":{"id":"3577818","label":"Parish of Saint Patrick","value":"3577818","lat":13.2399000000000004462208380573429167270660400390625,"lon":-61.23449000000000097543306765146553516387939453125,"poi_name":"Parish of Saint Patrick","parent_id":"3577815","long":-61.23449000000000097543306765146553516387939453125}}