{"success":true,"remaining_lookups":7217,"0":{"id":"3644541","label":"Delta Amacuro","value":"3644541","lat":8.75,"lon":-61.33332999999999657347871107049286365509033203125,"poi_name":"Delta Amacuro","parent_id":"3625428","long":-61.33332999999999657347871107049286365509033203125},"1":{"id":"3640846","label":"Dependencias Federales","value":"3640846","lat":10.9234600000000003916511559509672224521636962890625,"lon":-65.3088900000000052159521146677434444427490234375,"poi_name":"Dependencias Federales","parent_id":"3625428","long":-65.3088900000000052159521146677434444427490234375},"2":{"id":"3640847","label":"Distrito Capital","value":"3640847","lat":10.4763900000000003132072379230521619319915771484375,"lon":-66.983329999999995152393239550292491912841796875,"poi_name":"Distrito Capital","parent_id":"3625428","long":-66.983329999999995152393239550292491912841796875},"3":{"id":"3649302","label":"Estado Amazonas","value":"3649302","lat":3.5,"lon":-66,"poi_name":"Estado Amazonas","parent_id":"3625428","long":-66},"4":{"id":"3649198","label":"Estado Anzo\u00e1tegui","value":"3649198","lat":9,"lon":-64.3333300000000036789060686714947223663330078125,"poi_name":"Estado Anzo\u00e1tegui","parent_id":"3625428","long":-64.3333300000000036789060686714947223663330078125},"5":{"id":"3649151","label":"Estado Apure","value":"3649151","lat":7.166669999999999873807610129006206989288330078125,"lon":-68.8333300000000036789060686714947223663330078125,"poi_name":"Estado Apure","parent_id":"3625428","long":-68.8333300000000036789060686714947223663330078125},"6":{"id":"3649110","label":"Estado Aragua","value":"3649110","lat":10,"lon":-67.1666699999999963210939313285052776336669921875,"poi_name":"Estado Aragua","parent_id":"3625428","long":-67.1666699999999963210939313285052776336669921875},"7":{"id":"3648544","label":"Estado Barinas","value":"3648544","lat":8.166669999999999873807610129006206989288330078125,"lon":-69.8333300000000036789060686714947223663330078125,"poi_name":"Estado Barinas","parent_id":"3625428","long":-69.8333300000000036789060686714947223663330078125},"8":{"id":"3648106","label":"Estado Bol\u00edvar","value":"3648106","lat":6.333330000000000126192389870993793010711669921875,"lon":-63.5,"poi_name":"Estado Bol\u00edvar","parent_id":"3625428","long":-63.5},"9":{"id":"3646751","label":"Estado Carabobo","value":"3646751","lat":10.166669999999999873807610129006206989288330078125,"lon":-68.0833300000000036789060686714947223663330078125,"poi_name":"Estado Carabobo","parent_id":"3625428","long":-68.0833300000000036789060686714947223663330078125},"10":{"id":"3645386","label":"Estado Cojedes","value":"3645386","lat":9.333330000000000126192389870993793010711669921875,"lon":-68.3333300000000036789060686714947223663330078125,"poi_name":"Estado Cojedes","parent_id":"3625428","long":-68.3333300000000036789060686714947223663330078125},"11":{"id":"3640873","label":"Estado Falc\u00f3n","value":"3640873","lat":11,"lon":-69.8333300000000036789060686714947223663330078125,"poi_name":"Estado Falc\u00f3n","parent_id":"3625428","long":-69.8333300000000036789060686714947223663330078125},"12":{"id":"3640017","label":"Estado Gu\u00e1rico","value":"3640017","lat":8.666669999999999873807610129006206989288330078125,"lon":-66.5833300000000036789060686714947223663330078125,"poi_name":"Estado Gu\u00e1rico","parent_id":"3625428","long":-66.5833300000000036789060686714947223663330078125},"13":{"id":"3636539","label":"Estado Lara","value":"3636539","lat":10.166669999999999873807610129006206989288330078125,"lon":-69.8333300000000036789060686714947223663330078125,"poi_name":"Estado Lara","parent_id":"3625428","long":-69.8333300000000036789060686714947223663330078125},"14":{"id":"3632100","label":"Estado Monagas","value":"3632100","lat":9.333330000000000126192389870993793010711669921875,"lon":-63,"poi_name":"Estado Monagas","parent_id":"3625428","long":-63},"15":{"id":"3632306","label":"Estado M\u00e9rida","value":"3632306","lat":8.5,"lon":-71.1666699999999963210939313285052776336669921875,"poi_name":"Estado M\u00e9rida","parent_id":"3625428","long":-71.1666699999999963210939313285052776336669921875},"16":{"id":"3631462","label":"Estado Nueva Esparta","value":"3631462","lat":11,"lon":-64,"poi_name":"Estado Nueva Esparta","parent_id":"3625428","long":-64},"17":{"id":"3629941","label":"Estado Portuguesa","value":"3629941","lat":9.166669999999999873807610129006206989288330078125,"lon":-69.25,"poi_name":"Estado Portuguesa","parent_id":"3625428","long":-69.25},"18":{"id":"3626655","label":"Estado Sucre","value":"3626655","lat":10.416669999999999873807610129006206989288330078125,"lon":-63.5,"poi_name":"Estado Sucre","parent_id":"3625428","long":-63.5},"19":{"id":"3625974","label":"Estado Trujillo","value":"3625974","lat":9.4385600000000007270273272297345101833343505859375,"lon":-70.508880000000004883986548520624637603759765625,"poi_name":"Estado Trujillo","parent_id":"3625428","long":-70.508880000000004883986548520624637603759765625},"20":{"id":"3626553","label":"Estado T\u00e1chira","value":"3626553","lat":7.833330000000000126192389870993793010711669921875,"lon":-72.0833300000000036789060686714947223663330078125,"poi_name":"Estado T\u00e1chira","parent_id":"3625428","long":-72.0833300000000036789060686714947223663330078125},"21":{"id":"3830309","label":"Estado Vargas","value":"3830309","lat":10.5666700000000002290789780090562999248504638671875,"lon":-66.900000000000005684341886080801486968994140625,"poi_name":"Estado Vargas","parent_id":"3625428","long":-66.900000000000005684341886080801486968994140625},"22":{"id":"3625210","label":"Estado Yaracuy","value":"3625210","lat":10.3397400000000008191136657842434942722320556640625,"lon":-68.7373400000000032150637707673013210296630859375,"poi_name":"Estado Yaracuy","parent_id":"3625428","long":-68.7373400000000032150637707673013210296630859375},"23":{"id":"3625035","label":"Estado Zulia","value":"3625035","lat":10,"lon":-72.1666699999999963210939313285052776336669921875,"poi_name":"Estado Zulia","parent_id":"3625428","long":-72.1666699999999963210939313285052776336669921875},"24":{"id":"3632191","label":"Miranda","value":"3632191","lat":10.25,"lon":-66.4166699999999963210939313285052776336669921875,"poi_name":"Miranda","parent_id":"3625428","long":-66.4166699999999963210939313285052776336669921875}}