{"success":true,"remaining_lookups":8500,"0":{"id":"7521421","label":"Acoua","value":"7521421","lat":-12.72214999999999918145476840436458587646484375,"lon":45.05810999999999921783455647528171539306640625,"poi_name":"Acoua","parent_id":"1024031","long":45.05810999999999921783455647528171539306640625},"1":{"id":"7521422","label":"Bandraboua","value":"7521422","lat":-12.702220000000000510453901370055973529815673828125,"lon":45.12196999999999746933099231682717800140380859375,"poi_name":"Bandraboua","parent_id":"1024031","long":45.12196999999999746933099231682717800140380859375},"2":{"id":"7521423","label":"Bandrele","value":"7521423","lat":-12.9111299999999999954525264911353588104248046875,"lon":45.19389000000000322643245453946292400360107421875,"poi_name":"Bandrele","parent_id":"1024031","long":45.19389000000000322643245453946292400360107421875},"3":{"id":"7521424","label":"Bou\u00e9ni","value":"7521424","lat":-12.9092000000000002302158463862724602222442626953125,"lon":45.07999000000000222598828258924186229705810546875,"poi_name":"Bou\u00e9ni","parent_id":"1024031","long":45.07999000000000222598828258924186229705810546875},"4":{"id":"7521425","label":"Chiconi","value":"7521425","lat":-12.8307199999999994588506524451076984405517578125,"lon":45.114069999999998117345967330038547515869140625,"poi_name":"Chiconi","parent_id":"1024031","long":45.114069999999998117345967330038547515869140625},"5":{"id":"7521426","label":"Chirongui","value":"7521426","lat":-12.93496999999999985675458447076380252838134765625,"lon":45.151060000000001082298695109784603118896484375,"poi_name":"Chirongui","parent_id":"1024031","long":45.151060000000001082298695109784603118896484375},"6":{"id":"7521427","label":"Dembeni","value":"7521427","lat":-12.843019999999999214423951343633234500885009765625,"lon":45.1854799999999983128873282112181186676025390625,"poi_name":"Dembeni","parent_id":"1024031","long":45.1854799999999983128873282112181186676025390625},"7":{"id":"7521428","label":"Dzaoudzi","value":"7521428","lat":-12.77832000000000078898665378801524639129638671875,"lon":45.283670000000000754880602471530437469482421875,"poi_name":"Dzaoudzi","parent_id":"1024031","long":45.283670000000000754880602471530437469482421875},"8":{"id":"7521429","label":"Kani-K\u00e9li","value":"7521429","lat":-12.9547100000000003916511559509672224521636962890625,"lon":45.10600000000000164845914696343243122100830078125,"poi_name":"Kani-K\u00e9li","parent_id":"1024031","long":45.10600000000000164845914696343243122100830078125},"9":{"id":"7521430","label":"Koungou","value":"7521430","lat":-12.7351299999999998391331246239133179187774658203125,"lon":45.2059100000000029240254661999642848968505859375,"poi_name":"Koungou","parent_id":"1024031","long":45.2059100000000029240254661999642848968505859375},"10":{"id":"7521433","label":"M'Tsangamouji","value":"7521433","lat":-12.7598199999999994957988747046329081058502197265625,"lon":45.08453999999999695091901230625808238983154296875,"poi_name":"M'Tsangamouji","parent_id":"1024031","long":45.08453999999999695091901230625808238983154296875},"11":{"id":"7521431","label":"Mamoudzou","value":"7521431","lat":-12.77965999999999979763742885552346706390380859375,"lon":45.22831000000000045702108764089643955230712890625,"poi_name":"Mamoudzou","parent_id":"1024031","long":45.22831000000000045702108764089643955230712890625},"12":{"id":"7521432","label":"Mtsamboro","value":"7521432","lat":-12.7001299999999996970245774718932807445526123046875,"lon":45.0691800000000029058355721645057201385498046875,"poi_name":"Mtsamboro","parent_id":"1024031","long":45.0691800000000029058355721645057201385498046875},"13":{"id":"7521434","label":"Ouangani","value":"7521434","lat":-12.8472799999999995890220816363580524921417236328125,"lon":45.136899999999997135091689415276050567626953125,"poi_name":"Ouangani","parent_id":"1024031","long":45.136899999999997135091689415276050567626953125},"14":{"id":"7521435","label":"Pamandzi","value":"7521435","lat":-12.7948900000000005405809133662842214107513427734375,"lon":45.28195000000000192130755749531090259552001953125,"poi_name":"Pamandzi","parent_id":"1024031","long":45.28195000000000192130755749531090259552001953125},"15":{"id":"7521436","label":"Sada","value":"7521436","lat":-12.8504599999999999937472239253111183643341064453125,"lon":45.10291000000000138925315695814788341522216796875,"poi_name":"Sada","parent_id":"1024031","long":45.10291000000000138925315695814788341522216796875},"16":{"id":"7521437","label":"Tsingoni","value":"7521437","lat":-12.7884499999999992070343068917281925678253173828125,"lon":45.1046300000000002228262019343674182891845703125,"poi_name":"Tsingoni","parent_id":"1024031","long":45.1046300000000002228262019343674182891845703125}}