{"success":true,"remaining_lookups":7093,"0":{"id":"1105843","label":"Bulawayo Province","value":"1105843","lat":-20.141670000000001294893081649206578731536865234375,"lon":28.550000000000000710542735760100185871124267578125,"poi_name":"Bulawayo Province","parent_id":"878675","long":28.550000000000000710542735760100185871124267578125},"1":{"id":"1105844","label":"Harare Province","value":"1105844","lat":-17.854169999999999873807610129006206989288330078125,"lon":31.058330000000001547277861391194164752960205078125,"poi_name":"Harare Province","parent_id":"878675","long":31.058330000000001547277861391194164752960205078125},"2":{"id":"887358","label":"Manicaland Province","value":"887358","lat":-19,"lon":32.41667000000000342652128892950713634490966796875,"poi_name":"Manicaland Province","parent_id":"878675","long":32.41667000000000342652128892950713634490966796875},"3":{"id":"886843","label":"Mashonaland Central Province","value":"886843","lat":-16.699999999999999289457264239899814128875732421875,"lon":31.199999999999999289457264239899814128875732421875,"poi_name":"Mashonaland Central Province","parent_id":"878675","long":31.199999999999999289457264239899814128875732421875},"4":{"id":"886842","label":"Mashonaland East Province","value":"886842","lat":-17.96667000000000058435034588910639286041259765625,"lon":31.666669999999999873807610129006206989288330078125,"poi_name":"Mashonaland East Province","parent_id":"878675","long":31.666669999999999873807610129006206989288330078125},"5":{"id":"886841","label":"Mashonaland West Province","value":"886841","lat":-17.166669999999999873807610129006206989288330078125,"lon":29.75,"poi_name":"Mashonaland West Province","parent_id":"878675","long":29.75},"6":{"id":"886761","label":"Masvingo Province","value":"886761","lat":-20.60000000000000142108547152020037174224853515625,"lon":31.39999999999999857891452847979962825775146484375,"poi_name":"Masvingo Province","parent_id":"878675","long":31.39999999999999857891452847979962825775146484375},"7":{"id":"886748","label":"Matabeleland North Province","value":"886748","lat":-18.833330000000000126192389870993793010711669921875,"lon":27.416669999999999873807610129006206989288330078125,"poi_name":"Matabeleland North Province","parent_id":"878675","long":27.416669999999999873807610129006206989288330078125},"8":{"id":"886747","label":"Matabeleland South Province","value":"886747","lat":-20.89999999999999857891452847979962825775146484375,"lon":28.800000000000000710542735760100185871124267578125,"poi_name":"Matabeleland South Province","parent_id":"878675","long":28.800000000000000710542735760100185871124267578125},"9":{"id":"886119","label":"Midlands Province","value":"886119","lat":-19.199999999999999289457264239899814128875732421875,"lon":29.800000000000000710542735760100185871124267578125,"poi_name":"Midlands Province","parent_id":"878675","long":29.800000000000000710542735760100185871124267578125}}