{"success":true,"remaining_lookups":7096,"0":{"id":"10800890","label":"Chilubi","value":"10800890","lat":-11.03808000000000077989170677028596401214599609375,"lon":30.262989999999998502744347206316888332366943359375,"poi_name":"Chilubi","parent_id":"900601","long":30.262989999999998502744347206316888332366943359375},"1":{"id":"176756","label":"Kaputa District","value":"176756","lat":-8.7505000000000006110667527536861598491668701171875,"lon":29.435230000000000671889210934750735759735107421875,"poi_name":"Kaputa District","parent_id":"900601","long":29.435230000000000671889210934750735759735107421875},"2":{"id":"912763","label":"Kasama District","value":"912763","lat":-10.35782999999999987039700499735772609710693359375,"lon":30.989830000000001319904185947962105274200439453125,"poi_name":"Kasama District","parent_id":"900601","long":30.989830000000001319904185947962105274200439453125},"3":{"id":"908911","label":"Luwingu District","value":"908911","lat":-10.48828999999999922465576673857867717742919921875,"lon":29.9181999999999987949195201508700847625732421875,"poi_name":"Luwingu District","parent_id":"900601","long":29.9181999999999987949195201508700847625732421875},"4":{"id":"176143","label":"Mbala District","value":"176143","lat":-9.19500000000000028421709430404007434844970703125,"lon":31.6219999999999998863131622783839702606201171875,"poi_name":"Mbala District","parent_id":"900601","long":31.6219999999999998863131622783839702606201171875},"5":{"id":"175966","label":"Mporokoso District","value":"175966","lat":-9.6868999999999996219912645756267011165618896484375,"lon":30.197759999999998825614966335706412792205810546875,"poi_name":"Mporokoso District","parent_id":"900601","long":30.197759999999998825614966335706412792205810546875},"6":{"id":"8260556","label":"Mpulungu District","value":"8260556","lat":-8.981999999999999317878973670303821563720703125,"lon":30.794000000000000483169060316868126392364501953125,"poi_name":"Mpulungu District","parent_id":"900601","long":30.794000000000000483169060316868126392364501953125},"7":{"id":"8260557","label":"Mungwi District","value":"8260557","lat":-9.92999999999999971578290569595992565155029296875,"lon":31.7349999999999994315658113919198513031005859375,"poi_name":"Mungwi District","parent_id":"900601","long":31.7349999999999994315658113919198513031005859375},"8":{"id":"10815866","label":"Nsama District","value":"10815866","lat":-8.756119999999999237161318887956440448760986328125,"lon":29.971669999999999589590515824966132640838623046875,"poi_name":"Nsama District","parent_id":"900601","long":29.971669999999999589590515824966132640838623046875}}