{"success":true,"remaining_lookups":7101,"0":{"id":"921026","label":"Chadiza District","value":"921026","lat":-14.097390000000000753743734094314277172088623046875,"lon":32.48707999999999884721546550281345844268798828125,"poi_name":"Chadiza District","parent_id":"917388","long":32.48707999999999884721546550281345844268798828125},"1":{"id":"918699","label":"Chipata District","value":"918699","lat":-13.6029999999999997584154698415659368038177490234375,"lon":32.4971000000000032059688237495720386505126953125,"poi_name":"Chipata District","parent_id":"917388","long":32.4971000000000032059688237495720386505126953125},"2":{"id":"912053","label":"Katete District","value":"912053","lat":-14.040739999999999554347596131265163421630859375,"lon":32.0432899999999989404386724345386028289794921875,"poi_name":"Katete District","parent_id":"917388","long":32.0432899999999989404386724345386028289794921875},"3":{"id":"909296","label":"Lundazi District","value":"909296","lat":-12.5010899999999995912958183907903730869293212890625,"lon":32.72073999999999927013050182722508907318115234375,"poi_name":"Lundazi District","parent_id":"917388","long":32.72073999999999927013050182722508907318115234375},"4":{"id":"10800895","label":"Mambwe","value":"10800895","lat":-13.342079999999999273541106958873569965362548828125,"lon":31.928670000000000328554961015470325946807861328125,"poi_name":"Mambwe","parent_id":"917388","long":31.928670000000000328554961015470325946807861328125},"5":{"id":"7732619","label":"Nyimba District","value":"7732619","lat":-14.34628000000000014324541552923619747161865234375,"lon":30.597049999999999414512785733677446842193603515625,"poi_name":"Nyimba District","parent_id":"917388","long":30.597049999999999414512785733677446842193603515625},"6":{"id":"899821","label":"Petauke District","value":"899821","lat":-14.1263699999999996492761056288145482540130615234375,"lon":31.4050399999999996225596987642347812652587890625,"poi_name":"Petauke District","parent_id":"917388","long":31.4050399999999996225596987642347812652587890625},"7":{"id":"10815860","label":"Sinda District","value":"10815860","lat":-14.2295800000000003393552105990238487720489501953125,"lon":31.709669999999999134843164938502013683319091796875,"poi_name":"Sinda District","parent_id":"917388","long":31.709669999999999134843164938502013683319091796875},"8":{"id":"10815861","label":"Vubwi District","value":"10815861","lat":-14.006119999999999237161318887956440448760986328125,"lon":32.9025400000000018962964531965553760528564453125,"poi_name":"Vubwi District","parent_id":"917388","long":32.9025400000000018962964531965553760528564453125}}