{"success":true,"remaining_lookups":7467,"0":{"id":"3574201","label":"Ward of Manzanilla","value":"3574201","lat":10.6166699999999991632648743689060211181640625,"lon":-61.1333300000000008367351256310939788818359375,"poi_name":"Ward of Manzanilla","parent_id":"7521944","long":-61.1333300000000008367351256310939788818359375},"1":{"id":"3574167","label":"Ward of Matura","value":"3574167","lat":10.699999999999999289457264239899814128875732421875,"lon":-61.0666700000000020054358174093067646026611328125,"poi_name":"Ward of Matura","parent_id":"7521944","long":-61.0666700000000020054358174093067646026611328125},"2":{"id":"3573635","label":"Ward of Tamana","value":"3573635","lat":10.53332999999999941564965411089360713958740234375,"lon":-61.1833299999999979945641825906932353973388671875,"poi_name":"Ward of Tamana","parent_id":"7521944","long":-61.1833299999999979945641825906932353973388671875},"3":{"id":"3573603","label":"Ward of Toco","value":"3573603","lat":10.78332999999999941564965411089360713958740234375,"lon":-61.0499999999999971578290569595992565155029296875,"poi_name":"Ward of Toco","parent_id":"7521944","long":-61.0499999999999971578290569595992565155029296875},"4":{"id":"3573575","label":"Ward of Turure","value":"3573575","lat":10.5,"lon":-61.1166699999999991632648743689060211181640625,"poi_name":"Ward of Turure","parent_id":"7521944","long":-61.1166699999999991632648743689060211181640625},"5":{"id":"3573559","label":"Ward of Valencia","value":"3573559","lat":10.68233000000000032514435588382184505462646484375,"lon":-61.16680000000000205773176276125013828277587890625,"poi_name":"Ward of Valencia","parent_id":"7521944","long":-61.16680000000000205773176276125013828277587890625}}