{"success":true,"remaining_lookups":9514,"0":{"id":"8531824","label":"Gradska cetvrt Novi Zagreb - istok","value":"8531824","lat":45.7836300000000022691892809234559535980224609375,"lon":15.9859700000000000130739863379858434200286865234375,"poi_name":"Gradska cetvrt Novi Zagreb - istok","parent_id":"3337532","long":15.9859700000000000130739863379858434200286865234375},"1":{"id":"8531823","label":"Gradska cetvrt Pescenica - Zitnjak","value":"8531823","lat":45.80525999999999697820385335944592952728271484375,"lon":16.0227399999999988722265698015689849853515625,"poi_name":"Gradska cetvrt Pescenica - Zitnjak","parent_id":"3337532","long":16.0227399999999988722265698015689849853515625},"2":{"id":"8531834","label":"Gradska \u010detvrt Brezovica","value":"8531834","lat":45.72894999999999754436430521309375762939453125,"lon":15.9006500000000006167510946397669613361358642578125,"poi_name":"Gradska \u010detvrt Brezovica","parent_id":"3337532","long":15.9006500000000006167510946397669613361358642578125},"3":{"id":"8531830","label":"Gradska \u010detvrt Donja Dubrava","value":"8531830","lat":45.82336000000000097998054116033017635345458984375,"lon":16.052569999999999339479472837410867214202880859375,"poi_name":"Gradska \u010detvrt Donja Dubrava","parent_id":"3337532","long":16.052569999999999339479472837410867214202880859375},"4":{"id":"8531816","label":"Gradska \u010detvrt Donji grad","value":"8531816","lat":45.8083400000000011687006917782127857208251953125,"lon":15.96949000000000040699887904338538646697998046875,"poi_name":"Gradska \u010detvrt Donji grad","parent_id":"3337532","long":15.96949000000000040699887904338538646697998046875},"5":{"id":"8531829","label":"Gradska \u010detvrt Gornja Dubrava","value":"8531829","lat":45.84183999999999770125214126892387866973876953125,"lon":16.0538600000000002410160959698259830474853515625,"poi_name":"Gradska \u010detvrt Gornja Dubrava","parent_id":"3337532","long":16.0538600000000002410160959698259830474853515625},"6":{"id":"8531817","label":"Gradska \u010detvrt Gornji Grad - Medvescak","value":"8531817","lat":45.82820000000000248974174610339105129241943359375,"lon":15.9793800000000008054712452576495707035064697265625,"poi_name":"Gradska \u010detvrt Gornji Grad - Medvescak","parent_id":"3337532","long":15.9793800000000008054712452576495707035064697265625},"7":{"id":"8531822","label":"Gradska \u010detvrt Maksimir","value":"8531822","lat":45.8368999999999999772626324556767940521240234375,"lon":16.011289999999998912016963004134595394134521484375,"poi_name":"Gradska \u010detvrt Maksimir","parent_id":"3337532","long":16.011289999999998912016963004134595394134521484375},"8":{"id":"8531825","label":"Gradska \u010detvrt Novi Zagreb - zapad","value":"8531825","lat":45.77830000000000154614099301397800445556640625,"lon":15.95900999999999925194060779176652431488037109375,"poi_name":"Gradska \u010detvrt Novi Zagreb - zapad","parent_id":"3337532","long":15.95900999999999925194060779176652431488037109375},"9":{"id":"8531833","label":"Gradska \u010detvrt Podsljeme","value":"8531833","lat":45.86097000000000178943082573823630809783935546875,"lon":15.9799600000000001642774805077351629734039306640625,"poi_name":"Gradska \u010detvrt Podsljeme","parent_id":"3337532","long":15.9799600000000001642774805077351629734039306640625},"10":{"id":"8531831","label":"Gradska \u010detvrt Stenjevec","value":"8531831","lat":45.80570999999999770579961477778851985931396484375,"lon":15.8716399999999993042365531437098979949951171875,"poi_name":"Gradska \u010detvrt Stenjevec","parent_id":"3337532","long":15.8716399999999993042365531437098979949951171875},"11":{"id":"8531827","label":"Gradska \u010detvrt Tresnjevka - jug","value":"8531827","lat":45.79063000000000016598278307355940341949462890625,"lon":15.9067399999999992132870829664170742034912109375,"poi_name":"Gradska \u010detvrt Tresnjevka - jug","parent_id":"3337532","long":15.9067399999999992132870829664170742034912109375},"12":{"id":"8531826","label":"Gradska \u010detvrt Tresnjevka - sjever","value":"8531826","lat":45.7978700000000031877789297141134738922119140625,"lon":15.9369599999999991268850862979888916015625,"poi_name":"Gradska \u010detvrt Tresnjevka - sjever","parent_id":"3337532","long":15.9369599999999991268850862979888916015625},"13":{"id":"8531820","label":"Gradska \u010detvrt Trnje","value":"8531820","lat":45.7969700000000017325874068774282932281494140625,"lon":15.9796099999999992036237017600797116756439208984375,"poi_name":"Gradska \u010detvrt Trnje","parent_id":"3337532","long":15.9796099999999992036237017600797116756439208984375},"14":{"id":"8531828","label":"Gradska \u010detvrt \u010crnomerec","value":"8531828","lat":45.82652999999999821056917426176369190216064453125,"lon":15.9386700000000001153921402874402701854705810546875,"poi_name":"Gradska \u010detvrt \u010crnomerec","parent_id":"3337532","long":15.9386700000000001153921402874402701854705810546875},"15":{"id":"8531832","label":"Podsused - Vrapce","value":"8531832","lat":45.81660000000000110276232589967548847198486328125,"lon":15.872669999999999390638549812138080596923828125,"poi_name":"Podsused - Vrapce","parent_id":"3337532","long":15.872669999999999390638549812138080596923828125},"16":{"id":"3190965","label":"Sesvete","value":"3190965","lat":45.83332999999999657347871107049286365509033203125,"lon":16.1333300000000008367351256310939788818359375,"poi_name":"Sesvete","parent_id":"3337532","long":16.1333300000000008367351256310939788818359375}}