{"success":true,"remaining_lookups":9503,"0":{"id":"11054557","label":"Ba\u0161ka Voda","value":"11054557","lat":43.358879999999999199644662439823150634765625,"lon":16.95018999999999920191839919425547122955322265625,"poi_name":"Ba\u0161ka Voda","parent_id":"3337527","long":16.95018999999999920191839919425547122955322265625},"1":{"id":"11054558","label":"Bol","value":"11054558","lat":43.26384999999999791953086969442665576934814453125,"lon":16.6523600000000016052581486292183399200439453125,"poi_name":"Bol","parent_id":"3337527","long":16.6523600000000016052581486292183399200439453125},"2":{"id":"11054559","label":"Brela","value":"11054559","lat":43.36901999999999901547198533080518245697021484375,"lon":16.931180000000001228954715770669281482696533203125,"poi_name":"Brela","parent_id":"3337527","long":16.931180000000001228954715770669281482696533203125},"3":{"id":"11054560","label":"Cista Provo","value":"11054560","lat":43.51198000000000121190169011242687702178955078125,"lon":16.94275999999999982037479639984667301177978515625,"poi_name":"Cista Provo","parent_id":"3337527","long":16.94275999999999982037479639984667301177978515625},"4":{"id":"11054601","label":"Dicmo","value":"11054601","lat":43.6367800000000016780177247710525989532470703125,"lon":16.589780000000001081161826732568442821502685546875,"poi_name":"Dicmo","parent_id":"3337527","long":16.589780000000001081161826732568442821502685546875},"5":{"id":"9076752","label":"Dugi Rat Op\u0107ina","value":"9076752","lat":43.44923000000000001818989403545856475830078125,"lon":16.6473799999999982901499606668949127197265625,"poi_name":"Dugi Rat Op\u0107ina","parent_id":"3337527","long":16.6473799999999982901499606668949127197265625},"6":{"id":"11054602","label":"Dugopolje","value":"11054602","lat":43.58158999999999849706000532023608684539794921875,"lon":16.5994400000000013051248970441520214080810546875,"poi_name":"Dugopolje","parent_id":"3337527","long":16.5994400000000013051248970441520214080810546875},"7":{"id":"3199178","label":"Grad Hvar","value":"3199178","lat":43.172629999999998062776285223662853240966796875,"lon":16.445499999999999118927007657475769519805908203125,"poi_name":"Grad Hvar","parent_id":"3337527","long":16.445499999999999118927007657475769519805908203125},"8":{"id":"3199110","label":"Grad Imotski","value":"3199110","lat":43.4333299999999979945641825906932353973388671875,"lon":17.166669999999999873807610129006206989288330078125,"poi_name":"Grad Imotski","parent_id":"3337527","long":17.166669999999999873807610129006206989288330078125},"9":{"id":"3195888","label":"Grad Makarska","value":"3195888","lat":43.2999999999999971578290569595992565155029296875,"lon":17.03332999999999941564965411089360713958740234375,"poi_name":"Grad Makarska","parent_id":"3337527","long":17.03332999999999941564965411089360713958740234375},"10":{"id":"3194113","label":"Grad Omi\u0161","value":"3194113","lat":43.46667000000000058435034588910639286041259765625,"lon":16.699999999999999289457264239899814128875732421875,"poi_name":"Grad Omi\u0161","parent_id":"3337527","long":16.699999999999999289457264239899814128875732421875},"11":{"id":"3190864","label":"Grad Sinj","value":"3190864","lat":43.72285000000000110276232589967548847198486328125,"lon":16.658190000000001163016349892131984233856201171875,"poi_name":"Grad Sinj","parent_id":"3337527","long":16.658190000000001163016349892131984233856201171875},"12":{"id":"3190259","label":"Grad Split","value":"3190259","lat":43.5,"lon":16.5,"poi_name":"Grad Split","parent_id":"3337527","long":16.5},"13":{"id":"3203595","label":"Grad Supetar","value":"3203595","lat":43.3844399999999978945197653956711292266845703125,"lon":16.555279999999999773763192933984100818634033203125,"poi_name":"Grad Supetar","parent_id":"3337527","long":16.555279999999999773763192933984100818634033203125},"14":{"id":"3188762","label":"Grad Trogir","value":"3188762","lat":43.52060999999999779674908495508134365081787109375,"lon":16.251439999999998775592757738195359706878662109375,"poi_name":"Grad Trogir","parent_id":"3337527","long":16.251439999999998775592757738195359706878662109375},"15":{"id":"3187684","label":"Grad Vis","value":"3187684","lat":43.0531500000000022509993868879973888397216796875,"lon":16.18697999999999836973074707202613353729248046875,"poi_name":"Grad Vis","parent_id":"3337527","long":16.18697999999999836973074707202613353729248046875},"16":{"id":"3187229","label":"Grad Vrgorac","value":"3187229","lat":43.2000000000000028421709430404007434844970703125,"lon":17.3666699999999991632648743689060211181640625,"poi_name":"Grad Vrgorac","parent_id":"3337527","long":17.3666699999999991632648743689060211181640625},"17":{"id":"11054603","label":"Gradac","value":"11054603","lat":43.10795999999999850160747882910072803497314453125,"lon":17.342690000000001049329512170515954494476318359375,"poi_name":"Gradac","parent_id":"3337527","long":17.342690000000001049329512170515954494476318359375},"18":{"id":"11054604","label":"Hrvace","value":"11054604","lat":43.75652000000000185764292837120592594146728515625,"lon":16.620470000000000965201252256520092487335205078125,"poi_name":"Hrvace","parent_id":"3337527","long":16.620470000000000965201252256520092487335205078125},"19":{"id":"11054605","label":"Jelsa","value":"11054605","lat":43.16091999999999728743205196224153041839599609375,"lon":16.693039999999999878355083637870848178863525390625,"poi_name":"Jelsa","parent_id":"3337527","long":16.693039999999999878355083637870848178863525390625},"20":{"id":"11054606","label":"Ka\u0161tela","value":"11054606","lat":43.53864999999999696456143283285200595855712890625,"lon":16.307400000000001227817847393453121185302734375,"poi_name":"Ka\u0161tela","parent_id":"3337527","long":16.307400000000001227817847393453121185302734375},"21":{"id":"11054607","label":"Klis","value":"11054607","lat":43.560699999999997089616954326629638671875,"lon":16.5209100000000006502887117676436901092529296875,"poi_name":"Klis","parent_id":"3337527","long":16.5209100000000006502887117676436901092529296875},"22":{"id":"11054608","label":"Komi\u017ea","value":"11054608","lat":43.04491999999999762849256512708961963653564453125,"lon":16.091539999999998400426193256862461566925048828125,"poi_name":"Komi\u017ea","parent_id":"3337527","long":16.091539999999998400426193256862461566925048828125},"23":{"id":"11054609","label":"Le\u0107evica","value":"11054609","lat":43.64258000000000237150743487291038036346435546875,"lon":16.345600000000001017497197608463466167449951171875,"poi_name":"Le\u0107evica","parent_id":"3337527","long":16.345600000000001017497197608463466167449951171875},"24":{"id":"11054610","label":"Lokvi\u010di\u0107i","value":"11054610","lat":43.464280000000002246451913379132747650146484375,"lon":17.091419999999999390638549812138080596923828125,"poi_name":"Lokvi\u010di\u0107i","parent_id":"3337527","long":17.091419999999999390638549812138080596923828125},"25":{"id":"11054611","label":"Lovre\u0107","value":"11054611","lat":43.4885900000000020781953935511410236358642578125,"lon":16.985890000000001265334503841586410999298095703125,"poi_name":"Lovre\u0107","parent_id":"3337527","long":16.985890000000001265334503841586410999298095703125},"26":{"id":"11054612","label":"Marina","value":"11054612","lat":43.51424999999999698729880037717521190643310546875,"lon":16.1076699999999988222043612040579319000244140625,"poi_name":"Marina","parent_id":"3337527","long":16.1076699999999988222043612040579319000244140625},"27":{"id":"11054613","label":"Milna","value":"11054613","lat":43.32706999999999908368408796377480030059814453125,"lon":16.449490000000000833324520499445497989654541015625,"poi_name":"Milna","parent_id":"3337527","long":16.449490000000000833324520499445497989654541015625},"28":{"id":"11054614","label":"Mu\u0107","value":"11054614","lat":43.6932800000000014506440493278205394744873046875,"lon":16.47267000000000081172402133233845233917236328125,"poi_name":"Mu\u0107","parent_id":"3337527","long":16.47267000000000081172402133233845233917236328125},"29":{"id":"11054615","label":"Nere\u017ei\u0161\u0107a","value":"11054615","lat":43.32959000000000315822035190649330615997314453125,"lon":16.57742999999999966576069709844887256622314453125,"poi_name":"Nere\u017ei\u0161\u0107a","parent_id":"3337527","long":16.57742999999999966576069709844887256622314453125},"30":{"id":"11054616","label":"Okrug","value":"11054616","lat":43.4963800000000020418156054802238941192626953125,"lon":16.267320000000001556372808408923447132110595703125,"poi_name":"Okrug","parent_id":"3337527","long":16.267320000000001556372808408923447132110595703125},"31":{"id":"11054954","label":"Otok","value":"11054954","lat":43.686610000000001718944986350834369659423828125,"lon":16.734880000000000421778167947195470333099365234375,"poi_name":"Otok","parent_id":"3337527","long":16.734880000000000421778167947195470333099365234375},"32":{"id":"11054617","label":"Podbablje","value":"11054617","lat":43.3935000000000030695446184836328029632568359375,"lon":17.18455000000000154614099301397800445556640625,"poi_name":"Podbablje","parent_id":"3337527","long":17.18455000000000154614099301397800445556640625},"33":{"id":"11054618","label":"Podgora","value":"11054618","lat":43.23984999999999701003616792149841785430908203125,"lon":17.078160000000000451336745754815638065338134765625,"poi_name":"Podgora","parent_id":"3337527","long":17.078160000000000451336745754815638065338134765625},"34":{"id":"11054619","label":"Podstrana","value":"11054619","lat":43.48651000000000266254573944024741649627685546875,"lon":16.551069999999999282636053976602852344512939453125,"poi_name":"Podstrana","parent_id":"3337527","long":16.551069999999999282636053976602852344512939453125},"35":{"id":"11054620","label":"Postira","value":"11054620","lat":43.37525000000000119371179607696831226348876953125,"lon":16.631409999999998916564436512999236583709716796875,"poi_name":"Postira","parent_id":"3337527","long":16.631409999999998916564436512999236583709716796875},"36":{"id":"11054621","label":"Prgomet","value":"11054621","lat":43.60710000000000263753463514149188995361328125,"lon":16.231269999999998532302925013937056064605712890625,"poi_name":"Prgomet","parent_id":"3337527","long":16.231269999999998532302925013937056064605712890625},"37":{"id":"11054622","label":"Primorski Dolac","value":"11054622","lat":43.640749999999997044142219237983226776123046875,"lon":16.166550000000000864019966684281826019287109375,"poi_name":"Primorski Dolac","parent_id":"3337527","long":16.166550000000000864019966684281826019287109375},"38":{"id":"11054623","label":"Prolo\u017eac","value":"11054623","lat":43.46690000000000253521648119203746318817138671875,"lon":17.155069999999998486828189925290644168853759765625,"poi_name":"Prolo\u017eac","parent_id":"3337527","long":17.155069999999998486828189925290644168853759765625},"39":{"id":"11054624","label":"Pu\u010di\u0161\u0107a","value":"11054624","lat":43.3463899999999995316102285869419574737548828125,"lon":16.732949999999998880184648442082107067108154296875,"poi_name":"Pu\u010di\u0161\u0107a","parent_id":"3337527","long":16.732949999999998880184648442082107067108154296875},"40":{"id":"11054625","label":"Runovi\u0107i","value":"11054625","lat":43.3870399999999989404386724345386028289794921875,"lon":17.23892000000000024328983272425830364227294921875,"poi_name":"Runovi\u0107i","parent_id":"3337527","long":17.23892000000000024328983272425830364227294921875},"41":{"id":"11054627","label":"Seget","value":"11054627","lat":43.54305000000000092086338554508984088897705078125,"lon":16.212219999999998520934241241775453090667724609375,"poi_name":"Seget","parent_id":"3337527","long":16.212219999999998520934241241775453090667724609375},"42":{"id":"11054631","label":"Selca","value":"11054631","lat":43.29444000000000158934199134819209575653076171875,"lon":16.846329999999998250359567464329302310943603515625,"poi_name":"Selca","parent_id":"3337527","long":16.846329999999998250359567464329302310943603515625},"43":{"id":"11054720","label":"Solin","value":"11054720","lat":43.54330999999999818328433320857584476470947265625,"lon":16.490649999999998698285708087496459484100341796875,"poi_name":"Solin","parent_id":"3337527","long":16.490649999999998698285708087496459484100341796875},"44":{"id":"11054721","label":"Stari Grad","value":"11054721","lat":43.1861099999999993315213941968977451324462890625,"lon":16.596869999999999123474481166340410709381103515625,"poi_name":"Stari Grad","parent_id":"3337527","long":16.596869999999999123474481166340410709381103515625},"45":{"id":"11054727","label":"Sutivan","value":"11054727","lat":43.38461000000000211684891837649047374725341796875,"lon":16.478509999999999990905052982270717620849609375,"poi_name":"Sutivan","parent_id":"3337527","long":16.478509999999999990905052982270717620849609375},"46":{"id":"11054722","label":"Su\u0107uraj","value":"11054722","lat":43.12725999999999970668795867823064327239990234375,"lon":17.187290000000000844693204271607100963592529296875,"poi_name":"Su\u0107uraj","parent_id":"3337527","long":17.187290000000000844693204271607100963592529296875},"47":{"id":"11054739","label":"Trilj","value":"11054739","lat":43.617739999999997735358192585408687591552734375,"lon":16.72346999999999894725988269783556461334228515625,"poi_name":"Trilj","parent_id":"3337527","long":16.72346999999999894725988269783556461334228515625},"48":{"id":"11054740","label":"Tu\u010depi","value":"11054740","lat":43.26485000000000269437805400229990482330322265625,"lon":17.05978999999999956571627990342676639556884765625,"poi_name":"Tu\u010depi","parent_id":"3337527","long":17.05978999999999956571627990342676639556884765625},"49":{"id":"11054741","label":"Vrlika","value":"11054741","lat":43.91098000000000212139639188535511493682861328125,"lon":16.39932999999999907458914094604551792144775390625,"poi_name":"Vrlika","parent_id":"3337527","long":16.39932999999999907458914094604551792144775390625},"50":{"id":"11054742","label":"Zadvarje","value":"11054742","lat":43.43084999999999951114659779705107212066650390625,"lon":16.89101000000000141199052450247108936309814453125,"poi_name":"Zadvarje","parent_id":"3337527","long":16.89101000000000141199052450247108936309814453125},"51":{"id":"11054743","label":"Zagvozd","value":"11054743","lat":43.39726999999999890178514760918915271759033203125,"lon":17.05257999999999896090230322442948818206787109375,"poi_name":"Zagvozd","parent_id":"3337527","long":17.05257999999999896090230322442948818206787109375},"52":{"id":"11054744","label":"Zmijavci","value":"11054744","lat":43.41123999999999938381733954884111881256103515625,"lon":17.206990000000001117541614803485572338104248046875,"poi_name":"Zmijavci","parent_id":"3337527","long":17.206990000000001117541614803485572338104248046875},"53":{"id":"11054733","label":"\u0160estanovac","value":"11054733","lat":43.45396000000000213958628592081367969512939453125,"lon":16.913450000000000983391146291978657245635986328125,"poi_name":"\u0160estanovac","parent_id":"3337527","long":16.913450000000000983391146291978657245635986328125},"54":{"id":"11054737","label":"\u0160olta","value":"11054737","lat":43.3871400000000022600943339057266712188720703125,"lon":16.288650000000000517275111633352935314178466796875,"poi_name":"\u0160olta","parent_id":"3337527","long":16.288650000000000517275111633352935314178466796875}}