{"success":true,"remaining_lookups":9510,"0":{"id":"11049007","label":"Bedekov\u010dina","value":"11049007","lat":46.04424000000000205545802600681781768798828125,"lon":15.9948099999999993059418557095341384410858154296875,"poi_name":"Bedekov\u010dina","parent_id":"3337519","long":15.9948099999999993059418557095341384410858154296875},"1":{"id":"11049008","label":"Budin\u0161\u010dina","value":"11049008","lat":46.12785000000000223963070311583578586578369140625,"lon":16.204149999999998499333742074668407440185546875,"poi_name":"Budin\u0161\u010dina","parent_id":"3337519","long":16.204149999999998499333742074668407440185546875},"2":{"id":"11049009","label":"Desini\u0107","value":"11049009","lat":46.1459899999999976216713548637926578521728515625,"lon":15.66770999999999958163243718445301055908203125,"poi_name":"Desini\u0107","parent_id":"3337519","long":15.66770999999999958163243718445301055908203125},"3":{"id":"11049010","label":"Gornja Stubica","value":"11049010","lat":45.97554000000000229420038522221148014068603515625,"lon":16.018319999999999225792635115794837474822998046875,"poi_name":"Gornja Stubica","parent_id":"3337519","long":16.018319999999999225792635115794837474822998046875},"4":{"id":"3201620","label":"Grad Donja Stubica","value":"3201620","lat":45.9795500000000032514435588382184505462646484375,"lon":15.9706899999999993866595104918815195560455322265625,"poi_name":"Grad Donja Stubica","parent_id":"3337519","long":15.9706899999999993866595104918815195560455322265625},"5":{"id":"3198102","label":"Grad Klanjec","value":"3198102","lat":46.04977000000000231239027925767004489898681640625,"lon":15.74615000000000009094947017729282379150390625,"poi_name":"Grad Klanjec","parent_id":"3337519","long":15.74615000000000009094947017729282379150390625},"6":{"id":"3197366","label":"Grad Krapina","value":"3197366","lat":46.15968000000000159843693836592137813568115234375,"lon":15.872579999999999245119397528469562530517578125,"poi_name":"Grad Krapina","parent_id":"3337519","long":15.872579999999999245119397528469562530517578125},"7":{"id":"3186983","label":"Grad Zabok","value":"3186983","lat":46.0280800000000027694113668985664844512939453125,"lon":15.9085499999999999687361196265555918216705322265625,"poi_name":"Grad Zabok","parent_id":"3337519","long":15.9085499999999999687361196265555918216705322265625},"8":{"id":"3186405","label":"Grad Zlatar","value":"3186405","lat":46.09197999999999950659912428818643093109130859375,"lon":16.076950000000000073896444519050419330596923828125,"poi_name":"Grad Zlatar","parent_id":"3337519","long":16.076950000000000073896444519050419330596923828125},"9":{"id":"11049011","label":"Hra\u0161\u0107ina","value":"11049011","lat":46.11113999999999890633262111805379390716552734375,"lon":16.2257800000000003137756721116602420806884765625,"poi_name":"Hra\u0161\u0107ina","parent_id":"3337519","long":16.2257800000000003137756721116602420806884765625},"10":{"id":"11049012","label":"Hum na Sutli","value":"11049012","lat":46.2117700000000013460521586239337921142578125,"lon":15.6886500000000008725464795134030282497406005859375,"poi_name":"Hum na Sutli","parent_id":"3337519","long":15.6886500000000008725464795134030282497406005859375},"11":{"id":"11049013","label":"Jesenje","value":"11049013","lat":46.2072399999999987585397320799529552459716796875,"lon":15.8819400000000001682565198279917240142822265625,"poi_name":"Jesenje","parent_id":"3337519","long":15.8819400000000001682565198279917240142822265625},"12":{"id":"11049014","label":"Konj\u0161\u010dina","value":"11049014","lat":46.0543499999999994543031789362430572509765625,"lon":16.17763000000000062073013396002352237701416015625,"poi_name":"Konj\u0161\u010dina","parent_id":"3337519","long":16.17763000000000062073013396002352237701416015625},"13":{"id":"11049188","label":"Kraljevec na Sutli","value":"11049188","lat":45.992109999999996716724126599729061126708984375,"lon":15.723150000000000403588273911736905574798583984375,"poi_name":"Kraljevec na Sutli","parent_id":"3337519","long":15.723150000000000403588273911736905574798583984375},"14":{"id":"11049189","label":"Krapinske Toplice","value":"11049189","lat":46.09346000000000032059688237495720386505126953125,"lon":15.8381699999999998595967554138042032718658447265625,"poi_name":"Krapinske Toplice","parent_id":"3337519","long":15.8381699999999998595967554138042032718658447265625},"15":{"id":"11049190","label":"Kumrovec","value":"11049190","lat":46.076290000000000190993887372314929962158203125,"lon":15.6799800000000004729372449219226837158203125,"poi_name":"Kumrovec","parent_id":"3337519","long":15.6799800000000004729372449219226837158203125},"16":{"id":"11049191","label":"Lobor","value":"11049191","lat":46.15028000000000218960849451832473278045654296875,"lon":16.065439999999998832436176599003374576568603515625,"poi_name":"Lobor","parent_id":"3337519","long":16.065439999999998832436176599003374576568603515625},"17":{"id":"11054890","label":"Marija Bistrica","value":"11054890","lat":46.0057199999999966166797094047069549560546875,"lon":16.1178400000000010550138540565967559814453125,"poi_name":"Marija Bistrica","parent_id":"3337519","long":16.1178400000000010550138540565967559814453125},"18":{"id":"11049192","label":"Ma\u010de","value":"11049192","lat":46.09337000000000017507773009128868579864501953125,"lon":16.042010000000001213038558489643037319183349609375,"poi_name":"Ma\u010de","parent_id":"3337519","long":16.042010000000001213038558489643037319183349609375},"19":{"id":"11049193","label":"Mihovljan","value":"11049193","lat":46.1335100000000011277734301984310150146484375,"lon":15.97034000000000020236257114447653293609619140625,"poi_name":"Mihovljan","parent_id":"3337519","long":15.97034000000000020236257114447653293609619140625},"20":{"id":"11049194","label":"Novi Golubovec","value":"11049194","lat":46.17166999999999887904778006486594676971435546875,"lon":15.983129999999999171222953009419143199920654296875,"poi_name":"Novi Golubovec","parent_id":"3337519","long":15.983129999999999171222953009419143199920654296875},"21":{"id":"11054895","label":"Oroslavje","value":"11054895","lat":45.99633000000000038198777474462985992431640625,"lon":15.9154999999999997584154698415659368038177490234375,"poi_name":"Oroslavje","parent_id":"3337519","long":15.9154999999999997584154698415659368038177490234375},"22":{"id":"11049195","label":"Petrovsko","value":"11049195","lat":46.16778000000000048430592869408428668975830078125,"lon":15.84206999999999965211827657185494899749755859375,"poi_name":"Petrovsko","parent_id":"3337519","long":15.84206999999999965211827657185494899749755859375},"23":{"id":"11054900","label":"Pregrada","value":"11054900","lat":46.16478000000000037061909097246825695037841796875,"lon":15.7483400000000006713207767461426556110382080078125,"poi_name":"Pregrada","parent_id":"3337519","long":15.7483400000000006713207767461426556110382080078125},"24":{"id":"11049212","label":"Radoboj","value":"11049212","lat":46.16543999999999670080796931870281696319580078125,"lon":15.9214199999999994616928233881480991840362548828125,"poi_name":"Radoboj","parent_id":"3337519","long":15.9214199999999994616928233881480991840362548828125},"25":{"id":"11049214","label":"Stubi\u010dke Toplice","value":"11049214","lat":45.97536000000000200316208065487444400787353515625,"lon":15.9326200000000000045474735088646411895751953125,"poi_name":"Stubi\u010dke Toplice","parent_id":"3337519","long":15.9326200000000000045474735088646411895751953125},"26":{"id":"11049213","label":"Sveti Kri\u017e Za\u010dretje","value":"11049213","lat":46.0822399999999987585397320799529552459716796875,"lon":15.9070400000000002904698703787289559841156005859375,"poi_name":"Sveti Kri\u017e Za\u010dretje","parent_id":"3337519","long":15.9070400000000002904698703787289559841156005859375},"27":{"id":"11049218","label":"Tuhelj","value":"11049218","lat":46.076290000000000190993887372314929962158203125,"lon":15.7480899999999994776089806691743433475494384765625,"poi_name":"Tuhelj","parent_id":"3337519","long":15.7480899999999994776089806691743433475494384765625},"28":{"id":"11049219","label":"Veliko Trgovi\u0161\u0107e","value":"11049219","lat":46.00377999999999900637703831307590007781982421875,"lon":15.8438700000000007861444828449748456478118896484375,"poi_name":"Veliko Trgovi\u0161\u0107e","parent_id":"3337519","long":15.8438700000000007861444828449748456478118896484375},"29":{"id":"11049220","label":"Zagorska Sela","value":"11049220","lat":46.09438000000000101863406598567962646484375,"lon":15.635300000000000864019966684281826019287109375,"poi_name":"Zagorska Sela","parent_id":"3337519","long":15.635300000000000864019966684281826019287109375},"30":{"id":"11049222","label":"Zlatar Bistrica","value":"11049222","lat":46.04787999999999925648808130063116550445556640625,"lon":16.08527000000000128920873976312577724456787109375,"poi_name":"Zlatar Bistrica","parent_id":"3337519","long":16.08527000000000128920873976312577724456787109375},"31":{"id":"11055011","label":"\u0110urmanec","value":"11055011","lat":46.197079999999999699866748414933681488037109375,"lon":15.83785999999999916099113761447370052337646484375,"poi_name":"\u0110urmanec","parent_id":"3337519","long":15.83785999999999916099113761447370052337646484375}}