{"success":true,"remaining_lookups":9500,"0":{"id":"11054526","label":"Andrija\u0161evci","value":"11054526","lat":45.2251499999999992951416061259806156158447265625,"lon":18.74052999999999968849806464277207851409912109375,"poi_name":"Andrija\u0161evci","parent_id":"3337529","long":18.74052999999999968849806464277207851409912109375},"1":{"id":"11054527","label":"Babina Greda","value":"11054527","lat":45.1162599999999969213604344986379146575927734375,"lon":18.5381000000000000227373675443232059478759765625,"poi_name":"Babina Greda","parent_id":"3337529","long":18.5381000000000000227373675443232059478759765625},"2":{"id":"11054529","label":"Bogdanovci","value":"11054529","lat":45.33722999999999814235707162879407405853271484375,"lon":18.929700000000000414956957683898508548736572265625,"poi_name":"Bogdanovci","parent_id":"3337529","long":18.929700000000000414956957683898508548736572265625},"3":{"id":"11054530","label":"Borovo","value":"11054530","lat":45.40129999999999910187398199923336505889892578125,"lon":18.971669999999999589590515824966132640838623046875,"poi_name":"Borovo","parent_id":"3337529","long":18.971669999999999589590515824966132640838623046875},"4":{"id":"11054531","label":"Bo\u0161njaci","value":"11054531","lat":45.0491099999999988767740433104336261749267578125,"lon":18.757220000000000226236807066015899181365966796875,"poi_name":"Bo\u0161njaci","parent_id":"3337529","long":18.757220000000000226236807066015899181365966796875},"5":{"id":"11054533","label":"Cerna","value":"11054533","lat":45.18874000000000279442247119732201099395751953125,"lon":18.68722999999999956344254314899444580078125,"poi_name":"Cerna","parent_id":"3337529","long":18.68722999999999956344254314899444580078125},"6":{"id":"11054534","label":"Drenovci","value":"11054534","lat":44.91944000000000158934199134819209575653076171875,"lon":18.902840000000001197122401208616793155670166015625,"poi_name":"Drenovci","parent_id":"3337529","long":18.902840000000001197122401208616793155670166015625},"7":{"id":"3187718","label":"Grad Vinkovci","value":"3187718","lat":45.28043999999999869032762944698333740234375,"lon":18.80481999999999942474460112862288951873779296875,"poi_name":"Grad Vinkovci","parent_id":"3337529","long":18.80481999999999942474460112862288951873779296875},"8":{"id":"3187046","label":"Grad Vukovar","value":"3187046","lat":45.33332999999999657347871107049286365509033203125,"lon":19,"poi_name":"Grad Vukovar","parent_id":"3337529","long":19},"9":{"id":"3186293","label":"Grad \u017dupanja","value":"3186293","lat":45.0723100000000016507328837178647518157958984375,"lon":18.69512999999999891542756813578307628631591796875,"poi_name":"Grad \u017dupanja","parent_id":"3337529","long":18.69512999999999891542756813578307628631591796875},"10":{"id":"11054535","label":"Gradi\u0161te","value":"11054535","lat":45.14938000000000073441697168163955211639404296875,"lon":18.706109999999998905195752740837633609771728515625,"poi_name":"Gradi\u0161te","parent_id":"3337529","long":18.706109999999998905195752740837633609771728515625},"11":{"id":"11054536","label":"Gunja","value":"11054536","lat":44.88710999999999984311216394416987895965576171875,"lon":18.825500000000001676880856393836438655853271484375,"poi_name":"Gunja","parent_id":"3337529","long":18.825500000000001676880856393836438655853271484375},"12":{"id":"11054537","label":"Ilok","value":"11054537","lat":45.2219300000000004047251422889530658721923828125,"lon":19.374900000000000233058017329312860965728759765625,"poi_name":"Ilok","parent_id":"3337529","long":19.374900000000000233058017329312860965728759765625},"13":{"id":"11054538","label":"Ivankovo","value":"11054538","lat":45.28849000000000302179614664055407047271728515625,"lon":18.68410000000000081854523159563541412353515625,"poi_name":"Ivankovo","parent_id":"3337529","long":18.68410000000000081854523159563541412353515625},"14":{"id":"11054539","label":"Jarmina","value":"11054539","lat":45.31716999999999728743205196224153041839599609375,"lon":18.73066000000000030922819860279560089111328125,"poi_name":"Jarmina","parent_id":"3337529","long":18.73066000000000030922819860279560089111328125},"15":{"id":"11054540","label":"Lovas","value":"11054540","lat":45.22617000000000331283445120789110660552978515625,"lon":19.168009999999998882458385196514427661895751953125,"poi_name":"Lovas","parent_id":"3337529","long":19.168009999999998882458385196514427661895751953125},"16":{"id":"11054541","label":"Marku\u0161ica","value":"11054541","lat":45.37308999999999770125214126892387866973876953125,"lon":18.705169999999998964312908356077969074249267578125,"poi_name":"Marku\u0161ica","parent_id":"3337529","long":18.705169999999998964312908356077969074249267578125},"17":{"id":"11054542","label":"Negoslavci","value":"11054542","lat":45.278019999999997935447026975452899932861328125,"lon":18.99716000000000093450580607168376445770263671875,"poi_name":"Negoslavci","parent_id":"3337529","long":18.99716000000000093450580607168376445770263671875},"18":{"id":"11054543","label":"Nijemci","value":"11054543","lat":45.13902999999999821056917426176369190216064453125,"lon":19.03519000000000005456968210637569427490234375,"poi_name":"Nijemci","parent_id":"3337529","long":19.03519000000000005456968210637569427490234375},"19":{"id":"11054545","label":"Nu\u0161tar","value":"11054545","lat":45.33216999999999785586624057032167911529541015625,"lon":18.840090000000000003410605131648480892181396484375,"poi_name":"Nu\u0161tar","parent_id":"3337529","long":18.840090000000000003410605131648480892181396484375},"20":{"id":"11054955","label":"Otok","value":"11054955","lat":45.14587000000000216459739021956920623779296875,"lon":18.88331000000000159388946485705673694610595703125,"poi_name":"Otok","parent_id":"3337529","long":18.88331000000000159388946485705673694610595703125},"21":{"id":"11072232","label":"Privlaka","value":"11072232","lat":45.1970299999999980400389176793396472930908203125,"lon":18.8372600000000005593392415903508663177490234375,"poi_name":"Privlaka","parent_id":"3337529","long":18.8372600000000005593392415903508663177490234375},"22":{"id":"11054546","label":"Stari Jankovci","value":"11054546","lat":45.259039999999998826751834712922573089599609375,"lon":18.910219999999998918838173267431557178497314453125,"poi_name":"Stari Jankovci","parent_id":"3337529","long":18.910219999999998918838173267431557178497314453125},"23":{"id":"11054547","label":"Stari Mikanovci","value":"11054547","lat":45.285629999999997608028934337198734283447265625,"lon":18.55827000000000026602720026858150959014892578125,"poi_name":"Stari Mikanovci","parent_id":"3337529","long":18.55827000000000026602720026858150959014892578125},"24":{"id":"11054550","label":"Tompojevci","value":"11054550","lat":45.23147999999999768760972074232995510101318359375,"lon":19.093289999999999650981408194638788700103759765625,"poi_name":"Tompojevci","parent_id":"3337529","long":19.093289999999999650981408194638788700103759765625},"25":{"id":"11054551","label":"Tordinci","value":"11054551","lat":45.36965000000000003410605131648480892181396484375,"lon":18.793869999999998299244907684624195098876953125,"poi_name":"Tordinci","parent_id":"3337529","long":18.793869999999998299244907684624195098876953125},"26":{"id":"11054552","label":"Tovarnik","value":"11054552","lat":45.16375000000000028421709430404007434844970703125,"lon":19.152049999999999130295691429637372493743896484375,"poi_name":"Tovarnik","parent_id":"3337529","long":19.152049999999999130295691429637372493743896484375},"27":{"id":"11054553","label":"Trpinja","value":"11054553","lat":45.418509999999997717168298549950122833251953125,"lon":18.899529999999998608473106287419795989990234375,"poi_name":"Trpinja","parent_id":"3337529","long":18.899529999999998608473106287419795989990234375},"28":{"id":"11054554","label":"Vo\u0111inci","value":"11054554","lat":45.27488000000000312184056383557617664337158203125,"lon":18.610369999999999635065250913612544536590576171875,"poi_name":"Vo\u0111inci","parent_id":"3337529","long":18.610369999999999635065250913612544536590576171875},"29":{"id":"11054556","label":"Vrbanja","value":"11054556","lat":44.9807899999999989404386724345386028289794921875,"lon":18.927170000000000271711542154662311077117919921875,"poi_name":"Vrbanja","parent_id":"3337529","long":18.927170000000000271711542154662311077117919921875},"30":{"id":"11054549","label":"\u0160titar","value":"11054549","lat":45.09624000000000165755409398116171360015869140625,"lon":18.638429999999999608917278237640857696533203125,"poi_name":"\u0160titar","parent_id":"3337529","long":18.638429999999999608917278237640857696533203125}}