{"success":true,"remaining_lookups":9505,"0":{"id":"11049429","label":"Bakar","value":"11049429","lat":45.30684999999999718056642450392246246337890625,"lon":14.533580000000000609361450187861919403076171875,"poi_name":"Bakar","parent_id":"3337524","long":14.533580000000000609361450187861919403076171875},"1":{"id":"11049430","label":"Ba\u0161ka","value":"11049430","lat":44.97158999999999906549419392831623554229736328125,"lon":14.7516300000000004644107320928014814853668212890625,"poi_name":"Ba\u0161ka","parent_id":"3337524","long":14.7516300000000004644107320928014814853668212890625},"2":{"id":"11049431","label":"Brod Moravice","value":"11049431","lat":45.46312999999999959754859446547925472259521484375,"lon":14.9702900000000003188915798091329634189605712890625,"poi_name":"Brod Moravice","parent_id":"3337524","long":14.9702900000000003188915798091329634189605712890625},"3":{"id":"11054902","label":"Cres","value":"11054902","lat":44.96110999999999791043592267669737339019775390625,"lon":14.408400000000000318323145620524883270263671875,"poi_name":"Cres","parent_id":"3337524","long":14.408400000000000318323145620524883270263671875},"4":{"id":"11049433","label":"Dobrinj","value":"11049433","lat":45.12948999999999699639374739490449428558349609375,"lon":14.6049500000000005428546501207165420055389404296875,"poi_name":"Dobrinj","parent_id":"3337524","long":14.6049500000000005428546501207165420055389404296875},"5":{"id":"11049434","label":"Fu\u017eine","value":"11049434","lat":45.3048000000000001818989403545856475830078125,"lon":14.714130000000000819682099972851574420928955078125,"poi_name":"Fu\u017eine","parent_id":"3337524","long":14.714130000000000819682099972851574420928955078125},"6":{"id":"3202506","label":"Grad Crikvenica","value":"3202506","lat":45.16667000000000342652128892950713634490966796875,"lon":14.699999999999999289457264239899814128875732421875,"poi_name":"Grad Crikvenica","parent_id":"3337524","long":14.699999999999999289457264239899814128875732421875},"7":{"id":"3202102","label":"Grad Delnice","value":"3202102","lat":45.3980600000000009686118573881685733795166015625,"lon":14.8011099999999995446842149249278008937835693359375,"poi_name":"Grad Delnice","parent_id":"3337524","long":14.8011099999999995446842149249278008937835693359375},"8":{"id":"3197207","label":"Grad Krk","value":"3197207","lat":45.028289999999998372004483826458454132080078125,"lon":14.5723299999999991172217050916515290737152099609375,"poi_name":"Grad Krk","parent_id":"3337524","long":14.5723299999999991172217050916515290737152099609375},"9":{"id":"3194097","label":"Grad Opatija","value":"3194097","lat":45.33332999999999657347871107049286365509033203125,"lon":14.2666699999999995185362422489561140537261962890625,"poi_name":"Grad Opatija","parent_id":"3337524","long":14.2666699999999995185362422489561140537261962890625},"10":{"id":"3191647","label":"Grad Rijeka","value":"3191647","lat":45.32692999999999727833710494451224803924560546875,"lon":14.437580000000000524096321896649897098541259765625,"poi_name":"Grad Rijeka","parent_id":"3337524","long":14.437580000000000524096321896649897098541259765625},"11":{"id":"3187256","label":"Grad Vrbovsko","value":"3187256","lat":45.37541999999999831061359145678579807281494140625,"lon":15.078559999999999519104676437564194202423095703125,"poi_name":"Grad Vrbovsko","parent_id":"3337524","long":15.078559999999999519104676437564194202423095703125},"12":{"id":"3202931","label":"Grad \u010cabar","value":"3202931","lat":45.58332999999999657347871107049286365509033203125,"lon":14.583330000000000126192389870993793010711669921875,"poi_name":"Grad \u010cabar","parent_id":"3337524","long":14.583330000000000126192389870993793010711669921875},"13":{"id":"11049435","label":"Jelenje","value":"11049435","lat":45.38828000000000173486114363186061382293701171875,"lon":14.45036999999999949295670376159250736236572265625,"poi_name":"Jelenje","parent_id":"3337524","long":14.45036999999999949295670376159250736236572265625},"14":{"id":"11049436","label":"Kastav","value":"11049436","lat":45.3713699999999988676790962927043437957763671875,"lon":14.350030000000000285353962681256234645843505859375,"poi_name":"Kastav","parent_id":"3337524","long":14.350030000000000285353962681256234645843505859375},"15":{"id":"11049437","label":"Klana","value":"11049437","lat":45.446179999999998244675225578248500823974609375,"lon":14.3764699999999994162180882995016872882843017578125,"poi_name":"Klana","parent_id":"3337524","long":14.3764699999999994162180882995016872882843017578125},"16":{"id":"11049438","label":"Kostrena","value":"11049438","lat":45.29923999999999750798451714217662811279296875,"lon":14.510059999999999291731000994332134723663330078125,"poi_name":"Kostrena","parent_id":"3337524","long":14.510059999999999291731000994332134723663330078125},"17":{"id":"11054903","label":"Kraljevica","value":"11054903","lat":45.2740900000000010550138540565967559814453125,"lon":14.5690299999999997027089193579740822315216064453125,"poi_name":"Kraljevica","parent_id":"3337524","long":14.5690299999999997027089193579740822315216064453125},"18":{"id":"11049439","label":"Lokve","value":"11049439","lat":45.357900000000000773070496506989002227783203125,"lon":14.7514599999999997947952579124830663204193115234375,"poi_name":"Lokve","parent_id":"3337524","long":14.7514599999999997947952579124830663204193115234375},"19":{"id":"11049440","label":"Lopar","value":"11049440","lat":44.83106000000000079808160080574452877044677734375,"lon":14.730779999999999319015842047519981861114501953125,"poi_name":"Lopar","parent_id":"3337524","long":14.730779999999999319015842047519981861114501953125},"20":{"id":"11049441","label":"Lovran","value":"11049441","lat":45.2963400000000007139533408917486667633056640625,"lon":14.272529999999999716919774073176085948944091796875,"poi_name":"Lovran","parent_id":"3337524","long":14.272529999999999716919774073176085948944091796875},"21":{"id":"11049442","label":"Mali Lo\u0161inj","value":"11049442","lat":44.5312899999999984856913215480744838714599609375,"lon":14.4729399999999994719246387830935418605804443359375,"poi_name":"Mali Lo\u0161inj","parent_id":"3337524","long":14.4729399999999994719246387830935418605804443359375},"22":{"id":"11072236","label":"Malinska-Duba\u0161nica","value":"11072236","lat":45.12277000000000271029421128332614898681640625,"lon":14.528729999999999478177414857782423496246337890625,"poi_name":"Malinska-Duba\u0161nica","parent_id":"3337524","long":14.528729999999999478177414857782423496246337890625},"23":{"id":"11049443","label":"Matulji","value":"11049443","lat":45.36417000000000143700162880122661590576171875,"lon":14.325829999999999841975295566953718662261962890625,"poi_name":"Matulji","parent_id":"3337524","long":14.325829999999999841975295566953718662261962890625},"24":{"id":"11049445","label":"Mo\u0161\u0107eni\u010dka Draga","value":"11049445","lat":45.23995000000000032969182939268648624420166015625,"lon":14.25356000000000022964741219766438007354736328125,"poi_name":"Mo\u0161\u0107eni\u010dka Draga","parent_id":"3337524","long":14.25356000000000022964741219766438007354736328125},"25":{"id":"11049446","label":"Mrkopalj","value":"11049446","lat":45.31421000000000276486389338970184326171875,"lon":14.851800000000000778754838393069803714752197265625,"poi_name":"Mrkopalj","parent_id":"3337524","long":14.851800000000000778754838393069803714752197265625},"26":{"id":"11049447","label":"Novi Vinodolski","value":"11049447","lat":45.12866999999999961801222525537014007568359375,"lon":14.79008999999999929286786937154829502105712890625,"poi_name":"Novi Vinodolski","parent_id":"3337524","long":14.79008999999999929286786937154829502105712890625},"27":{"id":"11049448","label":"Omi\u0161alj","value":"11049448","lat":45.211060000000003356035449542105197906494140625,"lon":14.5572700000000008202505341614596545696258544921875,"poi_name":"Omi\u0161alj","parent_id":"3337524","long":14.5572700000000008202505341614596545696258544921875},"28":{"id":"11049449","label":"Punat","value":"11049449","lat":45.02018000000000341742634191177785396575927734375,"lon":14.6321200000000004592948243953287601470947265625,"poi_name":"Punat","parent_id":"3337524","long":14.6321200000000004592948243953287601470947265625},"29":{"id":"11049450","label":"Rab","value":"11049450","lat":44.757689999999996643964550457894802093505859375,"lon":14.7590599999999998459543348872102797031402587890625,"poi_name":"Rab","parent_id":"3337524","long":14.7590599999999998459543348872102797031402587890625},"30":{"id":"11049451","label":"Ravna Gora","value":"11049451","lat":45.37445000000000305817593471147119998931884765625,"lon":14.937239999999999184865373536013066768646240234375,"poi_name":"Ravna Gora","parent_id":"3337524","long":14.937239999999999184865373536013066768646240234375},"31":{"id":"11049452","label":"Skrad","value":"11049452","lat":45.43124999999999857891452847979962825775146484375,"lon":14.9052699999999997970689946669153869152069091796875,"poi_name":"Skrad","parent_id":"3337524","long":14.9052699999999997970689946669153869152069091796875},"32":{"id":"11072235","label":"Vinodolska op\u0107ina","value":"11072235","lat":45.2221899999999976671460899524390697479248046875,"lon":14.6894100000000005223910193308256566524505615234375,"poi_name":"Vinodolska op\u0107ina","parent_id":"3337524","long":14.6894100000000005223910193308256566524505615234375},"33":{"id":"11049453","label":"Vi\u0161kovo","value":"11049453","lat":45.3753200000000020963852875865995883941650390625,"lon":14.3841499999999999914734871708787977695465087890625,"poi_name":"Vi\u0161kovo","parent_id":"3337524","long":14.3841499999999999914734871708787977695465087890625},"34":{"id":"11049454","label":"Vrbnik","value":"11049454","lat":45.075479999999998881321516819298267364501953125,"lon":14.6751599999999999823785401531495153903961181640625,"poi_name":"Vrbnik","parent_id":"3337524","long":14.6751599999999999823785401531495153903961181640625},"35":{"id":"11049432","label":"\u010cavle","value":"11049432","lat":45.3573200000000014142642612569034099578857421875,"lon":14.4876599999999999823785401531495153903961181640625,"poi_name":"\u010cavle","parent_id":"3337524","long":14.4876599999999999823785401531495153903961181640625}}