{"success":true,"remaining_lookups":9517,"0":{"id":"11049398","label":"Berek","value":"11049398","lat":45.73660000000000280806489172391593456268310546875,"lon":16.829080000000001149373929365538060665130615234375,"poi_name":"Berek","parent_id":"3337511","long":16.829080000000001149373929365538060665130615234375},"1":{"id":"11049399","label":"De\u017eanovac","value":"11049399","lat":45.5730099999999964666130836121737957000732421875,"lon":17.087520000000001374473868054337799549102783203125,"poi_name":"De\u017eanovac","parent_id":"3337511","long":17.087520000000001374473868054337799549102783203125},"2":{"id":"3203981","label":"Grad Bjelovar","value":"3203981","lat":45.9017199999999974124875734560191631317138671875,"lon":16.845220000000001192574927699752151966094970703125,"poi_name":"Grad Bjelovar","parent_id":"3337511","long":16.845220000000001192574927699752151966094970703125},"3":{"id":"3202183","label":"Grad Daruvar","value":"3202183","lat":45.60000000000000142108547152020037174224853515625,"lon":17.233329999999998705106918350793421268463134765625,"poi_name":"Grad Daruvar","parent_id":"3337511","long":17.233329999999998705106918350793421268463134765625},"4":{"id":"3200709","label":"Grad Gare\u0161nica","value":"3200709","lat":45.5666700000000020054358174093067646026611328125,"lon":16.933330000000001547277861391194164752960205078125,"poi_name":"Grad Gare\u0161nica","parent_id":"3337511","long":16.933330000000001547277861391194164752960205078125},"5":{"id":"3199514","label":"Grad Grubi\u0161no Polje","value":"3199514","lat":45.7000000000000028421709430404007434844970703125,"lon":17.166669999999999873807610129006206989288330078125,"poi_name":"Grad Grubi\u0161no Polje","parent_id":"3337511","long":17.166669999999999873807610129006206989288330078125},"6":{"id":"3202819","label":"Grad \u010cazma","value":"3202819","lat":45.75,"lon":16.6166699999999991632648743689060211181640625,"poi_name":"Grad \u010cazma","parent_id":"3337511","long":16.6166699999999991632648743689060211181640625},"7":{"id":"11049403","label":"Hercegovac","value":"11049403","lat":45.65664000000000299905877909623086452484130859375,"lon":17.0118599999999986494003678672015666961669921875,"poi_name":"Hercegovac","parent_id":"3337511","long":17.0118599999999986494003678672015666961669921875},"8":{"id":"11049406","label":"Ivanska","value":"11049406","lat":45.78173000000000314457793137989938259124755859375,"lon":16.8068099999999986948751029558479785919189453125,"poi_name":"Ivanska","parent_id":"3337511","long":16.8068099999999986948751029558479785919189453125},"9":{"id":"11049413","label":"Kapela","value":"11049413","lat":45.98543000000000091631591203622519969940185546875,"lon":16.85173999999999949750417727045714855194091796875,"poi_name":"Kapela","parent_id":"3337511","long":16.85173999999999949750417727045714855194091796875},"10":{"id":"11049414","label":"Kon\u010danica","value":"11049414","lat":45.638069999999999026840669102966785430908203125,"lon":17.164590000000000458157956018112599849700927734375,"poi_name":"Kon\u010danica","parent_id":"3337511","long":17.164590000000000458157956018112599849700927734375},"11":{"id":"11049415","label":"Nova Ra\u010da","value":"11049415","lat":45.80051999999999878809830988757312297821044921875,"lon":16.952890000000000014779288903810083866119384765625,"poi_name":"Nova Ra\u010da","parent_id":"3337511","long":16.952890000000000014779288903810083866119384765625},"12":{"id":"11049416","label":"Rovi\u0161\u0107e","value":"11049416","lat":45.94471999999999667352312826551496982574462890625,"lon":16.7311499999999995225152815692126750946044921875,"poi_name":"Rovi\u0161\u0107e","parent_id":"3337511","long":16.7311499999999995225152815692126750946044921875},"13":{"id":"11049417","label":"Severin","value":"11049417","lat":45.84152000000000271029421128332614898681640625,"lon":16.969500000000000028421709430404007434844970703125,"poi_name":"Severin","parent_id":"3337511","long":16.969500000000000028421709430404007434844970703125},"14":{"id":"11049418","label":"Sira\u010d","value":"11049418","lat":45.525790000000000645741238258779048919677734375,"lon":17.255320000000001101625457522459328174591064453125,"poi_name":"Sira\u010d","parent_id":"3337511","long":17.255320000000001101625457522459328174591064453125},"15":{"id":"11049421","label":"Velika Pisanica","value":"11049421","lat":45.8001799999999974488673615269362926483154296875,"lon":17.06409000000000020236257114447653293609619140625,"poi_name":"Velika Pisanica","parent_id":"3337511","long":17.06409000000000020236257114447653293609619140625},"16":{"id":"11049422","label":"Velika Trnovitica","value":"11049422","lat":45.6862100000000026511770556680858135223388671875,"lon":16.954010000000000246700437855906784534454345703125,"poi_name":"Velika Trnovitica","parent_id":"3337511","long":16.954010000000000246700437855906784534454345703125},"17":{"id":"11049424","label":"Veliki Gr\u0111evac","value":"11049424","lat":45.75473000000000212139639188535511493682861328125,"lon":17.04829000000000149839252117089927196502685546875,"poi_name":"Veliki Gr\u0111evac","parent_id":"3337511","long":17.04829000000000149839252117089927196502685546875},"18":{"id":"11049426","label":"Veliko Trojstvo","value":"11049426","lat":45.93359000000000236241248785518109798431396484375,"lon":16.9340499999999991587174008600413799285888671875,"poi_name":"Veliko Trojstvo","parent_id":"3337511","long":16.9340499999999991587174008600413799285888671875},"19":{"id":"11049428","label":"Zrinski Topolovac","value":"11049428","lat":46.02120000000000032969182939268648624420166015625,"lon":16.755089999999999150759322219528257846832275390625,"poi_name":"Zrinski Topolovac","parent_id":"3337511","long":16.755089999999999150759322219528257846832275390625},"20":{"id":"11055019","label":"\u0110ulovac","value":"11055019","lat":45.6658800000000013596945791505277156829833984375,"lon":17.429809999999999803321770741604268550872802734375,"poi_name":"\u0110ulovac","parent_id":"3337511","long":17.429809999999999803321770741604268550872802734375},"21":{"id":"11049419","label":"\u0160androvac","value":"11049419","lat":45.90406999999999726469468441791832447052001953125,"lon":17.028980000000000671889210934750735759735107421875,"poi_name":"\u0160androvac","parent_id":"3337511","long":17.028980000000000671889210934750735759735107421875},"22":{"id":"11049420","label":"\u0160tefanje","value":"11049420","lat":45.80221999999999837882569408975541591644287109375,"lon":16.714929999999998955217961338348686695098876953125,"poi_name":"\u0160tefanje","parent_id":"3337511","long":16.714929999999998955217961338348686695098876953125}}