{"success":true,"remaining_lookups":7509,"0":{"id":"7510622","label":"Amphoe Ban Na Doem","value":"7510622","lat":8.9061000000000003495870259939692914485931396484375,"lon":99.28136000000000649379217065870761871337890625,"poi_name":"Amphoe Ban Na Doem","parent_id":"1150514","long":99.28136000000000649379217065870761871337890625},"1":{"id":"1156045","label":"Amphoe Ban Na San","value":"1156045","lat":8.8006299999999999528199623455293476581573486328125,"lon":99.4020100000000041973180486820638179779052734375,"poi_name":"Amphoe Ban Na San","parent_id":"1150514","long":99.4020100000000041973180486820638179779052734375},"2":{"id":"7510611","label":"Amphoe Ban Takhun","value":"7510611","lat":9.1042299999999993787014318513683974742889404296875,"lon":98.6722199999999958208718453533947467803955078125,"poi_name":"Amphoe Ban Takhun","parent_id":"1150514","long":98.6722199999999958208718453533947467803955078125},"3":{"id":"7510621","label":"Amphoe Chai Buri","value":"7510621","lat":8.438829999999999387227944680489599704742431640625,"lon":99.0772099999999937836037133820354938507080078125,"poi_name":"Amphoe Chai Buri","parent_id":"1150514","long":99.0772099999999937836037133820354938507080078125},"4":{"id":"1153782","label":"Amphoe Chaiya","value":"1153782","lat":9.4914100000000001244870873051695525646209716796875,"lon":98.9956799999999930150806903839111328125,"poi_name":"Amphoe Chaiya","parent_id":"1150514","long":98.9956799999999930150806903839111328125},"5":{"id":"7510650","label":"Amphoe Don Sak","value":"7510650","lat":9.2106300000000000949285094975493848323822021484375,"lon":99.6888699999999943202055874280631542205810546875,"poi_name":"Amphoe Don Sak","parent_id":"1150514","long":99.6888699999999943202055874280631542205810546875},"6":{"id":"1153078","label":"Amphoe Kanchanadit","value":"1153078","lat":9.072559999999999291731000994332134723663330078125,"lon":99.5438999999999936107997200451791286468505859375,"poi_name":"Amphoe Kanchanadit","parent_id":"1150514","long":99.5438999999999936107997200451791286468505859375},"7":{"id":"7511047","label":"Amphoe Khian Sa","value":"7511047","lat":8.7276600000000001955413608811795711517333984375,"lon":99.1324000000000040699887904338538646697998046875,"poi_name":"Amphoe Khian Sa","parent_id":"1150514","long":99.1324000000000040699887904338538646697998046875},"8":{"id":"1152874","label":"Amphoe Khiri Rat Nikhom","value":"1152874","lat":9.005900000000000460431692772544920444488525390625,"lon":98.944040000000001100488589145243167877197265625,"poi_name":"Amphoe Khiri Rat Nikhom","parent_id":"1150514","long":98.944040000000001100488589145243167877197265625},"9":{"id":"7603493","label":"Amphoe Ko Pha-ngan","value":"7603493","lat":9.7493900000000000005684341886080801486968994140625,"lon":100.026489999999995461621438153088092803955078125,"poi_name":"Amphoe Ko Pha-ngan","parent_id":"1150514","long":100.026489999999995461621438153088092803955078125},"10":{"id":"1152646","label":"Amphoe Ko Samui","value":"1152646","lat":9.5084099999999995844746081274934113025665283203125,"lon":99.9964400000000068757799454033374786376953125,"poi_name":"Amphoe Ko Samui","parent_id":"1150514","long":99.9964400000000068757799454033374786376953125},"11":{"id":"1151977","label":"Amphoe Mueang Surat Thani","value":"1151977","lat":9.1013199999999994105337464134208858013153076171875,"lon":99.3261399999999952115103951655328273773193359375,"poi_name":"Amphoe Mueang Surat Thani","parent_id":"1150514","long":99.3261399999999952115103951655328273773193359375},"12":{"id":"1151448","label":"Amphoe Phanom","value":"1151448","lat":8.822540000000000048885340220294892787933349609375,"lon":98.7170899999999988949639373458921909332275390625,"poi_name":"Amphoe Phanom","parent_id":"1150514","long":98.7170899999999988949639373458921909332275390625},"13":{"id":"1151295","label":"Amphoe Phrasaeng","value":"1151295","lat":8.55123999999999995225152815692126750946044921875,"lon":99.105199999999996407495927996933460235595703125,"poi_name":"Amphoe Phrasaeng","parent_id":"1150514","long":99.105199999999996407495927996933460235595703125},"14":{"id":"1151210","label":"Amphoe Phunphin","value":"1151210","lat":9.0247200000000002972910806420259177684783935546875,"lon":99.1430399999999991678123478777706623077392578125,"poi_name":"Amphoe Phunphin","parent_id":"1150514","long":99.1430399999999991678123478777706623077392578125},"15":{"id":"1150339","label":"Amphoe Tha Chana","value":"1150339","lat":9.6114200000000007406697477563284337520599365234375,"lon":99.0361099999999936471795081160962581634521484375,"poi_name":"Amphoe Tha Chana","parent_id":"1150514","long":99.0361099999999936471795081160962581634521484375},"16":{"id":"1150337","label":"Amphoe Tha Chang","value":"1150337","lat":9.3347499999999996589394868351519107818603515625,"lon":98.9561900000000065347194322384893894195556640625,"poi_name":"Amphoe Tha Chang","parent_id":"1150514","long":98.9561900000000065347194322384893894195556640625},"17":{"id":"7511035","label":"Amphoe Wiang Sa","value":"7511035","lat":8.5981299999999993843857737374491989612579345703125,"lon":99.3527700000000066893335315398871898651123046875,"poi_name":"Amphoe Wiang Sa","parent_id":"1150514","long":99.3527700000000066893335315398871898651123046875},"18":{"id":"7510613","label":"Amphoe Wiphawadi","value":"7510613","lat":9.2197200000000005815081749460659921169281005859375,"lon":98.8702799999999939473127597011625766754150390625,"poi_name":"Amphoe Wiphawadi","parent_id":"1150514","long":98.8702799999999939473127597011625766754150390625}}