{"success":true,"remaining_lookups":7511,"0":{"id":"1157968","label":"Amphoe Ban Dan Lan Hoi","value":"1157968","lat":17.0527799999999984947862685658037662506103515625,"lon":99.491479999999995698090060614049434661865234375,"poi_name":"Amphoe Ban Dan Lan Hoi","parent_id":"1150532","long":99.491479999999995698090060614049434661865234375},"1":{"id":"1152875","label":"Amphoe Khiri Mat","value":"1152875","lat":16.829229999999999023430063971318304538726806640625,"lon":99.7397600000000039699443732388317584991455078125,"poi_name":"Amphoe Khiri Mat","parent_id":"1150532","long":99.7397600000000039699443732388317584991455078125},"2":{"id":"1609501","label":"Amphoe Kong Krailat","value":"1609501","lat":16.931149999999998811972545809112489223480224609375,"lon":99.974140000000005557012627832591533660888671875,"poi_name":"Amphoe Kong Krailat","parent_id":"1150532","long":99.974140000000005557012627832591533660888671875},"3":{"id":"1151979","label":"Amphoe Mueang Sukhothai","value":"1151979","lat":17.023179999999999978399500832892954349517822265625,"lon":99.77863999999999577994458377361297607421875,"poi_name":"Amphoe Mueang Sukhothai","parent_id":"1150532","long":99.77863999999999577994458377361297607421875},"4":{"id":"1150680","label":"Amphoe Sawankhalok","value":"1150680","lat":17.298989999999999866986399865709245204925537109375,"lon":99.853960000000000718500814400613307952880859375,"poi_name":"Amphoe Sawankhalok","parent_id":"1150532","long":99.853960000000000718500814400613307952880859375},"5":{"id":"7510667","label":"Amphoe Si Nakhon","value":"7510667","lat":17.39274999999999948840923025272786617279052734375,"lon":99.9766599999999954206941765733063220977783203125,"poi_name":"Amphoe Si Nakhon","parent_id":"1150532","long":99.9766599999999954206941765733063220977783203125},"6":{"id":"1150625","label":"Amphoe Si Samrong","value":"1150625","lat":17.16396999999999906094672041945159435272216796875,"lon":99.7467199999999962756191962398588657379150390625,"poi_name":"Amphoe Si Samrong","parent_id":"1150532","long":99.7467199999999962756191962398588657379150390625},"7":{"id":"1150623","label":"Amphoe Si Satchanalai","value":"1150623","lat":17.599270000000000635509422863833606243133544921875,"lon":99.7059100000000029240254661999642848968505859375,"poi_name":"Amphoe Si Satchanalai","parent_id":"1150532","long":99.7059100000000029240254661999642848968505859375},"8":{"id":"1150088","label":"Amphoe Thung Saliam","value":"1150088","lat":17.370819999999998373141352203674614429473876953125,"lon":99.552649999999999863575794734060764312744140625,"poi_name":"Amphoe Thung Saliam","parent_id":"1150532","long":99.552649999999999863575794734060764312744140625}}