{"success":true,"remaining_lookups":7525,"0":{"id":"1153060","label":"Amphoe Kapoe","value":"1153060","lat":9.5302799999999994184918250539340078830718994140625,"lon":98.6236899999999963029040372930467128753662109375,"poi_name":"Amphoe Kapoe","parent_id":"1150964","long":98.6236899999999963029040372930467128753662109375},"1":{"id":"1152624","label":"Amphoe Kra Buri","value":"1152624","lat":10.4589499999999997470467860694043338298797607421875,"lon":98.84372999999999365172698162496089935302734375,"poi_name":"Amphoe Kra Buri","parent_id":"1150964","long":98.84372999999999365172698162496089935302734375},"2":{"id":"1152373","label":"Amphoe La-un","value":"1152373","lat":10.0969099999999993855226421146653592586517333984375,"lon":98.7849800000000044519765651784837245941162109375,"poi_name":"Amphoe La-un","parent_id":"1150964","long":98.7849800000000044519765651784837245941162109375},"3":{"id":"1151982","label":"Amphoe Mueang Ranong","value":"1151982","lat":9.8623799999999999243982529151253402233123779296875,"lon":98.6222900000000066711436375044286251068115234375,"poi_name":"Amphoe Mueang Ranong","parent_id":"1150964","long":98.6222900000000066711436375044286251068115234375},"4":{"id":"7510608","label":"Amphoe Suk Samran","value":"7510608","lat":9.4156999999999992922994351829402148723602294921875,"lon":98.4911699999999967758412822149693965911865234375,"poi_name":"Amphoe Suk Samran","parent_id":"1150964","long":98.4911699999999967758412822149693965911865234375}}