{"success":true,"remaining_lookups":7555,"0":{"id":"1157549","label":"Amphoe Ban Hong","value":"1157549","lat":18.2742199999999996862243278883397579193115234375,"lon":98.8379400000000032378011383116245269775390625,"poi_name":"Amphoe Ban Hong","parent_id":"1152467","long":98.8379400000000032378011383116245269775390625},"1":{"id":"7510636","label":"Amphoe Ban Thi","value":"7510636","lat":18.658940000000001191438059322535991668701171875,"lon":99.158829999999994697645888663828372955322265625,"poi_name":"Amphoe Ban Thi","parent_id":"1152467","long":99.158829999999994697645888663828372955322265625},"2":{"id":"1152356","label":"Amphoe Li","value":"1152356","lat":17.786390000000000810587152955122292041778564453125,"lon":98.886740000000003192326403222978115081787109375,"poi_name":"Amphoe Li","parent_id":"1152467","long":98.886740000000003192326403222978115081787109375},"3":{"id":"1152178","label":"Amphoe Mae Tha","value":"1152178","lat":18.395399999999998641442289226688444614410400390625,"lon":99.09233000000000401996658183634281158447265625,"poi_name":"Amphoe Mae Tha","parent_id":"1152467","long":99.09233000000000401996658183634281158447265625},"4":{"id":"1151990","label":"Amphoe Mueang Lamphun","value":"1151990","lat":18.552170000000000271711542154662311077117919921875,"lon":99.0590499999999991587174008600413799285888671875,"poi_name":"Amphoe Mueang Lamphun","parent_id":"1152467","long":99.0590499999999991587174008600413799285888671875},"5":{"id":"1151527","label":"Amphoe Pa Sang","value":"1151527","lat":18.41396999999999906094672041945159435272216796875,"lon":98.88281000000000631189323030412197113037109375,"poi_name":"Amphoe Pa Sang","parent_id":"1152467","long":98.88281000000000631189323030412197113037109375},"6":{"id":"7510634","label":"Amphoe Thung Hua Chang","value":"7510634","lat":17.983329999999998705106918350793421268463134765625,"lon":99.0499999999999971578290569595992565155029296875,"poi_name":"Amphoe Thung Hua Chang","parent_id":"1152467","long":99.0499999999999971578290569595992565155029296875},"7":{"id":"7510617","label":"Amphoe Wiang Nong Long","value":"7510617","lat":18.418440000000000367208485840819776058197021484375,"lon":98.7585600000000027876012609340250492095947265625,"poi_name":"Amphoe Wiang Nong Long","parent_id":"1152467","long":98.7585600000000027876012609340250492095947265625}}