{"success":true,"remaining_lookups":7557,"0":{"id":"6957696","label":"Amphoe Ao Luek","value":"6957696","lat":8.3852600000000006019718057359568774700164794921875,"lon":98.7537800000000061118043959140777587890625,"poi_name":"Amphoe Ao Luek","parent_id":"1152631","long":98.7537800000000061118043959140777587890625},"1":{"id":"7511032","label":"Amphoe Khao Phanom","value":"7511032","lat":8.269529999999999603232936351560056209564208984375,"lon":99.1181299999999936289896140806376934051513671875,"poi_name":"Amphoe Khao Phanom","parent_id":"1152631","long":99.1181299999999936289896140806376934051513671875},"2":{"id":"1152842","label":"Amphoe Khlong Thom","value":"1152842","lat":7.914699999999999846522769075818359851837158203125,"lon":99.1993499999999954752638586796820163726806640625,"poi_name":"Amphoe Khlong Thom","parent_id":"1152631","long":99.1993499999999954752638586796820163726806640625},"3":{"id":"1152669","label":"Amphoe Ko Lanta","value":"1152669","lat":7.71267000000000013670842236024327576160430908203125,"lon":99.0781300000000015870682545937597751617431640625,"poi_name":"Amphoe Ko Lanta","parent_id":"1152631","long":99.0781300000000015870682545937597751617431640625},"4":{"id":"7510620","label":"Amphoe Lam Thap","value":"7510620","lat":8.0479900000000004212097337585873901844024658203125,"lon":99.335430000000002337401383556425571441650390625,"poi_name":"Amphoe Lam Thap","parent_id":"1152631","long":99.335430000000002337401383556425571441650390625},"5":{"id":"1151992","label":"Amphoe Mueang Krabi","value":"1151992","lat":8.1594700000000006667733032372780144214630126953125,"lon":98.8666099999999943293005344457924365997314453125,"poi_name":"Amphoe Mueang Krabi","parent_id":"1152631","long":98.8666099999999943293005344457924365997314453125},"6":{"id":"7511034","label":"Amphoe Nuea Khlong","value":"7511034","lat":8.0605799999999998561861502821557223796844482421875,"lon":99.0403900000000021464074961841106414794921875,"poi_name":"Amphoe Nuea Khlong","parent_id":"1152631","long":99.0403900000000021464074961841106414794921875},"7":{"id":"7510612","label":"Amphoe Plai Phraya","value":"7510612","lat":8.5408699999999999619149093632586300373077392578125,"lon":98.8367099999999965120878187008202075958251953125,"poi_name":"Amphoe Plai Phraya","parent_id":"1152631","long":98.8367099999999965120878187008202075958251953125}}