{"success":true,"remaining_lookups":7498,"0":{"id":"7505711","label":"Amphoe Chai Prakan","value":"7505711","lat":19.67399999999999948840923025272786617279052734375,"lon":99.17477999999999838109943084418773651123046875,"poi_name":"Amphoe Chai Prakan","parent_id":"1153670","long":99.17477999999999838109943084418773651123046875},"1":{"id":"1153672","label":"Amphoe Chiang Dao","value":"1153672","lat":19.512789999999998968860381864942610263824462890625,"lon":98.94180000000000063664629124104976654052734375,"poi_name":"Amphoe Chiang Dao","parent_id":"1153670","long":98.94180000000000063664629124104976654052734375},"2":{"id":"1153633","label":"Amphoe Chom Thong","value":"1153633","lat":18.3924200000000013233147910796105861663818359375,"lon":98.597610000000003083187039010226726531982421875,"poi_name":"Amphoe Chom Thong","parent_id":"1153670","long":98.597610000000003083187039010226726531982421875},"3":{"id":"7510616","label":"Amphoe Doi Lo","value":"7510616","lat":18.533300000000000551381162949837744235992431640625,"lon":98.768429999999995061443769372999668121337890625,"poi_name":"Amphoe Doi Lo","parent_id":"1153670","long":98.768429999999995061443769372999668121337890625},"4":{"id":"1153468","label":"Amphoe Doi Saket","value":"1153468","lat":18.923719999999999430428943014703691005706787109375,"lon":99.2127200000000044610715121962130069732666015625,"poi_name":"Amphoe Doi Saket","parent_id":"1153670","long":99.2127200000000044610715121962130069732666015625},"5":{"id":"7510615","label":"Amphoe Doi Tao","value":"7510615","lat":17.897030000000000882209860719740390777587890625,"lon":98.6629199999999997316990629769861698150634765625,"poi_name":"Amphoe Doi Tao","parent_id":"1153670","long":98.6629199999999997316990629769861698150634765625},"6":{"id":"1153426","label":"Amphoe Fang","value":"1153426","lat":19.875499999999998834709913353435695171356201171875,"lon":99.1634499999999974306774674914777278900146484375,"poi_name":"Amphoe Fang","parent_id":"1153670","long":99.1634499999999974306774674914777278900146484375},"7":{"id":"7524616","label":"Amphoe Galyani Vadhana","value":"7524616","lat":18.9443899999999985084286890923976898193359375,"lon":98.30329000000000405634636990725994110107421875,"poi_name":"Amphoe Galyani Vadhana","parent_id":"1153670","long":98.30329000000000405634636990725994110107421875},"8":{"id":"1153385","label":"Amphoe Hang Dong","value":"1153385","lat":18.73868999999999829242369742132723331451416015625,"lon":98.88438999999999623469193466007709503173828125,"poi_name":"Amphoe Hang Dong","parent_id":"1153670","long":98.88438999999999623469193466007709503173828125},"9":{"id":"1153277","label":"Amphoe Hot","value":"1153277","lat":18.115809999999999746478351880796253681182861328125,"lon":98.4637699999999966848918120376765727996826171875,"poi_name":"Amphoe Hot","parent_id":"1153670","long":98.4637699999999966848918120376765727996826171875},"10":{"id":"1152233","label":"Amphoe Mae Ai","value":"1152233","lat":19.9913600000000002410160959698259830474853515625,"lon":99.3397599999999982856024871580302715301513671875,"poi_name":"Amphoe Mae Ai","parent_id":"1153670","long":99.3397599999999982856024871580302715301513671875},"11":{"id":"1152229","label":"Amphoe Mae Chaem","value":"1152229","lat":18.666940000000000310365066980011761188507080078125,"lon":98.32450000000000045474735088646411895751953125,"poi_name":"Amphoe Mae Chaem","parent_id":"1153670","long":98.32450000000000045474735088646411895751953125},"12":{"id":"7420875","label":"Amphoe Mae On","value":"7420875","lat":18.734960000000000945874489843845367431640625,"lon":99.3037800000000032696334528736770153045654296875,"poi_name":"Amphoe Mae On","parent_id":"1153670","long":99.3037800000000032696334528736770153045654296875},"13":{"id":"1152195","label":"Amphoe Mae Rim","value":"1152195","lat":18.9413899999999983947418513707816600799560546875,"lon":98.8866699999999951842255541123449802398681640625,"poi_name":"Amphoe Mae Rim","parent_id":"1153670","long":98.8866699999999951842255541123449802398681640625},"14":{"id":"1152182","label":"Amphoe Mae Taeng","value":"1152182","lat":19.166669999999999873807610129006206989288330078125,"lon":98.8333300000000036789060686714947223663330078125,"poi_name":"Amphoe Mae Taeng","parent_id":"1153670","long":98.8333300000000036789060686714947223663330078125},"15":{"id":"7510635","label":"Amphoe Mae Wang","value":"7510635","lat":18.674569999999999225792635115794837474822998046875,"lon":98.687139999999999417923390865325927734375,"poi_name":"Amphoe Mae Wang","parent_id":"1153670","long":98.687139999999999417923390865325927734375},"16":{"id":"1152000","label":"Amphoe Mueang Chiang Mai","value":"1152000","lat":18.790079999999999671445038984529674053192138671875,"lon":98.9686899999999951660356600768864154815673828125,"poi_name":"Amphoe Mueang Chiang Mai","parent_id":"1153670","long":98.9686899999999951660356600768864154815673828125},"17":{"id":"1151633","label":"Amphoe Om Koi","value":"1151633","lat":17.69841999999999870851752348244190216064453125,"lon":98.3543300000000044747139327228069305419921875,"poi_name":"Amphoe Om Koi","parent_id":"1153670","long":98.3543300000000044747139327228069305419921875},"18":{"id":"1151302","label":"Amphoe Phrao","value":"1151302","lat":19.284600000000001074340616469271481037139892578125,"lon":99.222769999999997025952325202524662017822265625,"poi_name":"Amphoe Phrao","parent_id":"1153670","long":99.222769999999997025952325202524662017822265625},"19":{"id":"1150782","label":"Amphoe Samoeng","value":"1150782","lat":18.90026999999999901547198533080518245697021484375,"lon":98.65649999999999408828443847596645355224609375,"poi_name":"Amphoe Samoeng","parent_id":"1153670","long":98.65649999999999408828443847596645355224609375},"20":{"id":"1150731","label":"Amphoe San Kamphaeng","value":"1150731","lat":18.734970000000000567297320230863988399505615234375,"lon":99.1860899999999929832483758218586444854736328125,"poi_name":"Amphoe San Kamphaeng","parent_id":"1153670","long":99.1860899999999929832483758218586444854736328125},"21":{"id":"1150727","label":"Amphoe San Pa Tong","value":"1150727","lat":18.605669999999999930651028989814221858978271484375,"lon":98.8853100000000040381564758718013763427734375,"poi_name":"Amphoe San Pa Tong","parent_id":"1153670","long":98.8853100000000040381564758718013763427734375},"22":{"id":"1150725","label":"Amphoe San Sai","value":"1150725","lat":18.94100999999999856981958146207034587860107421875,"lon":99.0404800000000022919266484677791595458984375,"poi_name":"Amphoe San Sai","parent_id":"1153670","long":99.0404800000000022919266484677791595458984375},"23":{"id":"1150699","label":"Amphoe Saraphi","value":"1150699","lat":18.705110000000001235775926033966243267059326171875,"lon":99.029889999999994643076206557452678680419921875,"poi_name":"Amphoe Saraphi","parent_id":"1153670","long":99.029889999999994643076206557452678680419921875},"24":{"id":"7509793","label":"Amphoe Wiang Haeng","value":"7509793","lat":19.591879999999999739657141617499291896820068359375,"lon":98.6584500000000019781509763561189174652099609375,"poi_name":"Amphoe Wiang Haeng","parent_id":"1153670","long":98.6584500000000019781509763561189174652099609375}}