{"success":true,"remaining_lookups":7560,"0":{"id":"7510665","label":"Amphoe Bueng Samakkhi","value":"7510665","lat":16.2126200000000011414158507250249385833740234375,"lon":99.9672000000000053887561080045998096466064453125,"poi_name":"Amphoe Bueng Samakkhi","parent_id":"1153089","long":99.9672000000000053887561080045998096466064453125},"1":{"id":"1152952","label":"Amphoe Khanu Woralaksaburi","value":"1152952","lat":16.002330000000000609361450187861919403076171875,"lon":99.6761800000000022237145458348095417022705078125,"poi_name":"Amphoe Khanu Woralaksaburi","parent_id":"1153089","long":99.6761800000000022237145458348095417022705078125},"2":{"id":"1152853","label":"Amphoe Khlong Khlung","value":"1152853","lat":16.22191000000000116187948151491582393646240234375,"lon":99.6765400000000028057911549694836139678955078125,"poi_name":"Amphoe Khlong Khlung","parent_id":"1153089","long":99.6765400000000028057911549694836139678955078125},"3":{"id":"7510630","label":"Amphoe Khlong Lan","value":"7510630","lat":16.25992000000000103909769677557051181793212890625,"lon":99.2180599999999941474015940912067890167236328125,"poi_name":"Amphoe Khlong Lan","parent_id":"1153089","long":99.2180599999999941474015940912067890167236328125},"4":{"id":"7510632","label":"Amphoe Kosamphi Nakhon","value":"7510632","lat":16.60701999999999856072463444434106349945068359375,"lon":99.347949999999997316990629769861698150634765625,"poi_name":"Amphoe Kosamphi Nakhon","parent_id":"1153089","long":99.347949999999997316990629769861698150634765625},"5":{"id":"7510666","label":"Amphoe Lan Krabue","value":"7510666","lat":16.603480000000001126636561821214854717254638671875,"lon":99.8652100000000046975401346571743488311767578125,"poi_name":"Amphoe Lan Krabue","parent_id":"1153089","long":99.8652100000000046975401346571743488311767578125},"6":{"id":"1151997","label":"Amphoe Mueang Kamphaeng Phet","value":"1151997","lat":16.432539999999999480451151612214744091033935546875,"lon":99.4883099999999984675014275126159191131591796875,"poi_name":"Amphoe Mueang Kamphaeng Phet","parent_id":"1153089","long":99.4883099999999984675014275126159191131591796875},"7":{"id":"7510631","label":"Amphoe Pang Sila Thong","value":"7510631","lat":16.025249999999999772626324556767940521240234375,"lon":99.35593000000000074578565545380115509033203125,"poi_name":"Amphoe Pang Sila Thong","parent_id":"1153089","long":99.35593000000000074578565545380115509033203125},"8":{"id":"1151307","label":"Amphoe Phran Kratai","value":"1151307","lat":16.705410000000000536601874046027660369873046875,"lon":99.5370400000000046247805585153400897979736328125,"poi_name":"Amphoe Phran Kratai","parent_id":"1153089","long":99.5370400000000046247805585153400897979736328125},"9":{"id":"8534567","label":"Amphoe Sai Ngam","value":"8534567","lat":16.439560000000000172803993336856365203857421875,"lon":99.87457000000000562067725695669651031494140625,"poi_name":"Amphoe Sai Ngam","parent_id":"1153089","long":99.87457000000000562067725695669651031494140625},"10":{"id":"7510664","label":"Amphoe Sai Thong Watthana","value":"7510664","lat":16.308589999999998809698809054680168628692626953125,"lon":99.8785400000000009868017514236271381378173828125,"poi_name":"Amphoe Sai Thong Watthana","parent_id":"1153089","long":99.8785400000000009868017514236271381378173828125}}