{"success":true,"remaining_lookups":7500,"0":{"id":"1616197","label":"Amphoe Bannang Sata","value":"1616197","lat":6.2564299999999999357669366872869431972503662109375,"lon":101.2785200000000003228706191293895244598388671875,"poi_name":"Amphoe Bannang Sata","parent_id":"1604869","long":101.2785200000000003228706191293895244598388671875},"1":{"id":"8305286","label":"Amphoe Betong","value":"8305286","lat":5.86362000000000005428546501207165420055389404296875,"lon":101.2273699999999934107108856551349163055419921875,"poi_name":"Amphoe Betong","parent_id":"1604869","long":101.2273699999999934107108856551349163055419921875},"2":{"id":"6976014","label":"Amphoe Kabang","value":"6976014","lat":6.37922999999999973397279973141849040985107421875,"lon":100.9834800000000001318767317570745944976806640625,"poi_name":"Amphoe Kabang","parent_id":"1604869","long":100.9834800000000001318767317570745944976806640625},"3":{"id":"7013560","label":"Amphoe Krong Pinang","value":"7013560","lat":6.39932000000000034134473025915212929248809814453125,"lon":101.2570999999999941110218060202896595001220703125,"poi_name":"Amphoe Krong Pinang","parent_id":"1604869","long":101.2570999999999941110218060202896595001220703125},"4":{"id":"1608605","label":"Amphoe Mueang Yala","value":"1608605","lat":6.5437799999999999300825948012061417102813720703125,"lon":101.2510500000000064346750150434672832489013671875,"poi_name":"Amphoe Mueang Yala","parent_id":"1604869","long":101.2510500000000064346750150434672832489013671875},"5":{"id":"1607096","label":"Amphoe Raman","value":"1607096","lat":6.48984999999999967457142702187411487102508544921875,"lon":101.4344200000000029149305191822350025177001953125,"poi_name":"Amphoe Raman","parent_id":"1604869","long":101.4344200000000029149305191822350025177001953125},"6":{"id":"6975772","label":"Amphoe Than To","value":"6975772","lat":6.080420000000000158024704433046281337738037109375,"lon":101.2594100000000025829649530351161956787109375,"poi_name":"Amphoe Than To","parent_id":"1604869","long":101.2594100000000025829649530351161956787109375},"7":{"id":"1604978","label":"Amphoe Yaha","value":"1604978","lat":6.40528999999999992809307514107786118984222412109375,"lon":101.126789999999999736246536485850811004638671875,"poi_name":"Amphoe Yaha","parent_id":"1604869","long":101.126789999999999736246536485850811004638671875}}