{"success":true,"remaining_lookups":7505,"0":{"id":"1949480","label":"Amphoe Bo Rai","value":"1949480","lat":12.5581600000000008776623872108757495880126953125,"lon":102.5656599999999940564521239139139652252197265625,"poi_name":"Amphoe Bo Rai","parent_id":"1605277","long":102.5656599999999940564521239139139652252197265625},"1":{"id":"1609996","label":"Amphoe Khao Saming","value":"1609996","lat":12.428850000000000619593265582807362079620361328125,"lon":102.4178399999999982128429110161960124969482421875,"poi_name":"Amphoe Khao Saming","parent_id":"1605277","long":102.4178399999999982128429110161960124969482421875},"2":{"id":"1609862","label":"Amphoe Khlong Yai","value":"1609862","lat":11.855399999999999494093572138808667659759521484375,"lon":102.8259599999999949204720905981957912445068359375,"poi_name":"Amphoe Khlong Yai","parent_id":"1605277","long":102.8259599999999949204720905981957912445068359375},"3":{"id":"6692475","label":"Amphoe Ko Chang","value":"6692475","lat":12.0594699999999992456878317170776426792144775390625,"lon":102.32940999999999576175468973815441131591796875,"poi_name":"Amphoe Ko Chang","parent_id":"1605277","long":102.32940999999999576175468973815441131591796875},"4":{"id":"7603492","label":"Amphoe Ko Kut","value":"7603492","lat":11.6571400000000000574118530494160950183868408203125,"lon":102.5669400000000024419932742603123188018798828125,"poi_name":"Amphoe Ko Kut","parent_id":"1605277","long":102.5669400000000024419932742603123188018798828125},"5":{"id":"1609282","label":"Amphoe Laem Ngop","value":"1609282","lat":12.2202800000000006974687494221143424510955810546875,"lon":102.365579999999994242898537777364253997802734375,"poi_name":"Amphoe Laem Ngop","parent_id":"1605277","long":102.365579999999994242898537777364253997802734375},"6":{"id":"1608610","label":"Amphoe Mueang Trat","value":"1608610","lat":12.2666699999999995185362422489561140537261962890625,"lon":102.6094499999999953843143885023891925811767578125,"poi_name":"Amphoe Mueang Trat","parent_id":"1605277","long":102.6094499999999953843143885023891925811767578125}}