{"success":true,"remaining_lookups":7501,"0":{"id":"7510718","label":"Amphoe Ban Khok","value":"7510718","lat":18.1467999999999989313437254168093204498291015625,"lon":101.06610000000000582076609134674072265625,"poi_name":"Amphoe Ban Khok","parent_id":"1605214","long":101.06610000000000582076609134674072265625},"1":{"id":"1610840","label":"Amphoe Fak Tha","value":"1610840","lat":18.00077999999999889269020059145987033843994140625,"lon":100.8888500000000050249582272954285144805908203125,"poi_name":"Amphoe Fak Tha","parent_id":"1605214","long":100.8888500000000050249582272954285144805908203125},"2":{"id":"1609162","label":"Amphoe Lap Lae","value":"1609162","lat":17.657409999999998717612470500171184539794921875,"lon":100.0148400000000066256689024157822132110595703125,"poi_name":"Amphoe Lap Lae","parent_id":"1605214","long":100.0148400000000066256689024157822132110595703125},"3":{"id":"1608606","label":"Amphoe Mueang Uttaradit","value":"1608606","lat":17.681380000000000762838681112043559551239013671875,"lon":100.1996299999999990859578247182071208953857421875,"poi_name":"Amphoe Mueang Uttaradit","parent_id":"1605214","long":100.1996299999999990859578247182071208953857421875},"4":{"id":"1608482","label":"Amphoe Nam Pat","value":"1608482","lat":17.700250000000000483169060316868126392364501953125,"lon":100.7273799999999965848473948426544666290283203125,"poi_name":"Amphoe Nam Pat","parent_id":"1605214","long":100.7273799999999965848473948426544666290283203125},"5":{"id":"1607727","label":"Amphoe Phichai","value":"1607727","lat":17.301880000000000592308424529619514942169189453125,"lon":100.112809999999996080077835358679294586181640625,"poi_name":"Amphoe Phichai","parent_id":"1605214","long":100.112809999999996080077835358679294586181640625},"6":{"id":"1605528","label":"Amphoe Tha Pla","value":"1605528","lat":17.85867999999999966576069709844887256622314453125,"lon":100.470609999999993533492670394480228424072265625,"poi_name":"Amphoe Tha Pla","parent_id":"1605214","long":100.470609999999993533492670394480228424072265625},"7":{"id":"7510682","label":"Amphoe Thong Saen Khan","value":"7510682","lat":17.499300000000001631406121305190026760101318359375,"lon":100.396580000000000154614099301397800445556640625,"poi_name":"Amphoe Thong Saen Khan","parent_id":"1605214","long":100.396580000000000154614099301397800445556640625},"8":{"id":"1605267","label":"Amphoe Tron","value":"1605267","lat":17.47231000000000022964741219766438007354736328125,"lon":100.134669999999999845385900698602199554443359375,"poi_name":"Amphoe Tron","parent_id":"1605214","long":100.134669999999999845385900698602199554443359375}}