{"success":true,"remaining_lookups":7520,"0":{"id":"1621065","label":"Amphoe Akat Amnuai","value":"1621065","lat":17.635889999999999844249032321386039257049560546875,"lon":103.975899999999995770849636755883693695068359375,"poi_name":"Amphoe Akat Amnuai","parent_id":"1606789","long":103.975899999999995770849636755883693695068359375},"1":{"id":"8534570","label":"Amphoe Ban Muang","value":"8534570","lat":17.895689999999998320845406851731240749359130859375,"lon":103.527929999999997789927874691784381866455078125,"poi_name":"Amphoe Ban Muang","parent_id":"1606789","long":103.527929999999997789927874691784381866455078125},"2":{"id":"7510820","label":"Amphoe Charoen Sin","value":"7510820","lat":17.633269999999999555484464508481323719024658203125,"lon":103.5221800000000058616933529265224933624267578125,"poi_name":"Amphoe Charoen Sin","parent_id":"1606789","long":103.5221800000000058616933529265224933624267578125},"3":{"id":"7510819","label":"Amphoe Kham Ta Kla","value":"7510819","lat":17.825469999999999259898686432279646396636962890625,"lon":103.7859799999999950159690342843532562255859375,"poi_name":"Amphoe Kham Ta Kla","parent_id":"1606789","long":103.7859799999999950159690342843532562255859375},"4":{"id":"7510843","label":"Amphoe Khok Si Suphan","value":"7510843","lat":17.0229700000000008230927051045000553131103515625,"lon":104.303460000000001173248165287077426910400390625,"poi_name":"Amphoe Khok Si Suphan","parent_id":"1606789","long":104.303460000000001173248165287077426910400390625},"5":{"id":"1609331","label":"Amphoe Kusuman","value":"1609331","lat":17.35401999999999844703779672272503376007080078125,"lon":104.2667699999999939564077067188918590545654296875,"poi_name":"Amphoe Kusuman","parent_id":"1606789","long":104.2667699999999939564077067188918590545654296875},"6":{"id":"1609326","label":"Amphoe Kut Bak","value":"1609326","lat":17.082049999999998846078597125597298145294189453125,"lon":103.8146899999999988040144671685993671417236328125,"poi_name":"Amphoe Kut Bak","parent_id":"1606789","long":103.8146899999999988040144671685993671417236328125},"7":{"id":"1608626","label":"Amphoe Mueang Sakon Nakhon","value":"1608626","lat":17.161629999999998830162439844571053981781005859375,"lon":104.105189999999993233359418809413909912109375,"poi_name":"Amphoe Mueang Sakon Nakhon","parent_id":"1606789","long":104.105189999999993233359418809413909912109375},"8":{"id":"7510818","label":"Amphoe Nikhom Nam Un","value":"7510818","lat":17.1734900000000010322764865122735500335693359375,"lon":103.7351100000000059253579820506274700164794921875,"poi_name":"Amphoe Nikhom Nam Un","parent_id":"1606789","long":103.7351100000000059253579820506274700164794921875},"9":{"id":"8304642","label":"Amphoe Phang Khon","value":"8304642","lat":17.382670000000000953832568484358489513397216796875,"lon":103.7514599999999944657247397117316722869873046875,"poi_name":"Amphoe Phang Khon","parent_id":"1606789","long":103.7514599999999944657247397117316722869873046875},"10":{"id":"1607811","label":"Amphoe Phanna Nikhom","value":"1607811","lat":17.31369000000000113459464046172797679901123046875,"lon":103.897909999999995989128365181386470794677734375,"poi_name":"Amphoe Phanna Nikhom","parent_id":"1606789","long":103.897909999999995989128365181386470794677734375},"11":{"id":"7510842","label":"Amphoe Phon Na Kaeo","value":"7510842","lat":17.212479999999999336068867705762386322021484375,"lon":104.3070000000000021600499167107045650482177734375,"poi_name":"Amphoe Phon Na Kaeo","parent_id":"1606789","long":104.3070000000000021600499167107045650482177734375},"12":{"id":"7510816","label":"Amphoe Phu Phan","value":"7510816","lat":16.928619999999998668727130279876291751861572265625,"lon":103.924000000000006593836587853729724884033203125,"poi_name":"Amphoe Phu Phan","parent_id":"1606789","long":103.924000000000006593836587853729724884033203125},"13":{"id":"1606349","label":"Amphoe Sawang Daen Din","value":"1606349","lat":17.4558999999999997498889570124447345733642578125,"lon":103.44950000000000045474735088646411895751953125,"poi_name":"Amphoe Sawang Daen Din","parent_id":"1606789","long":103.44950000000000045474735088646411895751953125},"14":{"id":"8304640","label":"Amphoe Song Dao","value":"8304640","lat":17.30883000000000038198777474462985992431640625,"lon":103.449870000000004210960469208657741546630859375,"poi_name":"Amphoe Song Dao","parent_id":"1606789","long":103.449870000000004210960469208657741546630859375},"15":{"id":"7510839","label":"Amphoe Tao Ngoi","value":"7510839","lat":16.940220000000000055706550483591854572296142578125,"lon":104.1586300000000022691892809234559535980224609375,"poi_name":"Amphoe Tao Ngoi","parent_id":"1606789","long":104.1586300000000022691892809234559535980224609375},"16":{"id":"1605075","label":"Amphoe Wanon Niwat","value":"1605075","lat":17.615159999999999484998625121079385280609130859375,"lon":103.7653600000000011505107977427542209625244140625,"poi_name":"Amphoe Wanon Niwat","parent_id":"1606789","long":103.7653600000000011505107977427542209625244140625},"17":{"id":"1605066","label":"Amphoe Waritchaphum","value":"1605066","lat":17.25692000000000092541085905395448207855224609375,"lon":103.622829999999993333403836004436016082763671875,"poi_name":"Amphoe Waritchaphum","parent_id":"1606789","long":103.622829999999993333403836004436016082763671875}}