{"success":true,"remaining_lookups":7516,"0":{"id":"1616653","label":"Amphoe Ban Mo","value":"1616653","lat":14.6080400000000008020606401260010898113250732421875,"lon":100.72404000000000223735696636140346527099609375,"poi_name":"Amphoe Ban Mo","parent_id":"1606417","long":100.72404000000000223735696636140346527099609375},"1":{"id":"7510685","label":"Amphoe Chaloem Phra Kiat","value":"7510685","lat":14.656710000000000349018591805361211299896240234375,"lon":100.908379999999993970050127245485782623291015625,"poi_name":"Amphoe Chaloem Phra Kiat","parent_id":"1606417","long":100.908379999999993970050127245485782623291015625},"2":{"id":"7510687","label":"Amphoe Don Phut","value":"7510687","lat":14.6075800000000004530420483206398785114288330078125,"lon":100.615780000000000882209860719740390777587890625,"poi_name":"Amphoe Don Phut","parent_id":"1606417","long":100.615780000000000882209860719740390777587890625},"3":{"id":"1610502","label":"Amphoe Kaeng Khoi","value":"1610502","lat":14.58165999999999939973349682986736297607421875,"lon":101.0529700000000019599610823206603527069091796875,"poi_name":"Amphoe Kaeng Khoi","parent_id":"1606417","long":101.0529700000000019599610823206603527069091796875},"4":{"id":"7510710","label":"Amphoe Muak Lek","value":"7510710","lat":14.7770600000000005280753612169064581394195556640625,"lon":101.271510000000006357367965392768383026123046875,"poi_name":"Amphoe Muak Lek","parent_id":"1606417","long":101.271510000000006357367965392768383026123046875},"5":{"id":"1608620","label":"Amphoe Mueang Sara Buri","value":"1608620","lat":14.4972100000000008179767974070273339748382568359375,"lon":100.93828999999999496139935217797756195068359375,"poi_name":"Amphoe Mueang Sara Buri","parent_id":"1606417","long":100.93828999999999496139935217797756195068359375},"6":{"id":"7510686","label":"Amphoe Nong Don","value":"7510686","lat":14.6888000000000005229594535194337368011474609375,"lon":100.68527000000000271029421128332614898681640625,"poi_name":"Amphoe Nong Don","parent_id":"1606417","long":100.68527000000000271029421128332614898681640625},"7":{"id":"1608238","label":"Amphoe Nong Khae","value":"1608238","lat":14.3812499999999996447286321199499070644378662109375,"lon":100.8645099999999956708052195608615875244140625,"poi_name":"Amphoe Nong Khae","parent_id":"1606417","long":100.8645099999999956708052195608615875244140625},"8":{"id":"1608172","label":"Amphoe Nong Saeng","value":"1608172","lat":14.48282999999999987039700499735772609710693359375,"lon":100.804630000000003064997144974768161773681640625,"poi_name":"Amphoe Nong Saeng","parent_id":"1606417","long":100.804630000000003064997144974768161773681640625},"9":{"id":"1607511","label":"Amphoe Phra Phutthabat","value":"1607511","lat":14.719120000000000203499439521692693233489990234375,"lon":100.80621999999999616193235851824283599853515625,"poi_name":"Amphoe Phra Phutthabat","parent_id":"1606417","long":100.80621999999999616193235851824283599853515625},"10":{"id":"1606488","label":"Amphoe Sao Hai","value":"1606488","lat":14.5754900000000002791011866065673530101776123046875,"lon":100.8439000000000049794834922067821025848388671875,"poi_name":"Amphoe Sao Hai","parent_id":"1606417","long":100.8439000000000049794834922067821025848388671875},"11":{"id":"7510711","label":"Amphoe Wang Muang","value":"7510711","lat":14.8228699999999999903366187936626374721527099609375,"lon":101.1334599999999994679455994628369808197021484375,"poi_name":"Amphoe Wang Muang","parent_id":"1606417","long":101.1334599999999994679455994628369808197021484375},"12":{"id":"1605021","label":"Amphoe Wihan Daeng","value":"1605021","lat":14.334350000000000591171556152403354644775390625,"lon":100.9645799999999979945641825906932353973388671875,"poi_name":"Amphoe Wihan Daeng","parent_id":"1606417","long":100.9645799999999979945641825906932353973388671875}}