{"success":true,"remaining_lookups":7510,"0":{"id":"1619297","label":"Amphoe Bang Pla Ma","value":"1619297","lat":14.349849999999999994315658113919198513031005859375,"lon":100.14479000000000041836756281554698944091796875,"poi_name":"Amphoe Bang Pla Ma","parent_id":"1606032","long":100.14479000000000041836756281554698944091796875},"1":{"id":"7510658","label":"Amphoe Dan Chang","value":"7510658","lat":14.8838799999999995549160303198732435703277587890625,"lon":99.5164199999999965484676067717373371124267578125,"poi_name":"Amphoe Dan Chang","parent_id":"1606032","long":99.5164199999999965484676067717373371124267578125},"2":{"id":"1610910","label":"Amphoe Doembang Nangbuat","value":"1610910","lat":14.8739399999999992729726727702654898166656494140625,"lon":100.0466899999999981218934408389031887054443359375,"poi_name":"Amphoe Doembang Nangbuat","parent_id":"1606032","long":100.0466899999999981218934408389031887054443359375},"3":{"id":"1610899","label":"Amphoe Don Chedi","value":"1610899","lat":14.6480399999999999494093572138808667659759521484375,"lon":99.94733999999999696228769607841968536376953125,"poi_name":"Amphoe Don Chedi","parent_id":"1606032","long":99.94733999999999696228769607841968536376953125},"4":{"id":"1608613","label":"Amphoe Mueang Suphan Buri","value":"1608613","lat":14.4918899999999997163513398845680058002471923828125,"lon":100.074579999999997426129993982613086700439453125,"poi_name":"Amphoe Mueang Suphan Buri","parent_id":"1606032","long":100.074579999999997426129993982613086700439453125},"5":{"id":"7510655","label":"Amphoe Nong Yasai","value":"7510655","lat":14.7764399999999991308641256182454526424407958984375,"lon":99.8575100000000048794390750117599964141845703125,"poi_name":"Amphoe Nong Yasai","parent_id":"1606032","long":99.8575100000000048794390750117599964141845703125},"6":{"id":"1150807","label":"Amphoe Sam Chuk","value":"1150807","lat":14.7559799999999992081711752689443528652191162109375,"lon":100.0648000000000052978066378273069858551025390625,"poi_name":"Amphoe Sam Chuk","parent_id":"1606032","long":100.0648000000000052978066378273069858551025390625},"7":{"id":"1606256","label":"Amphoe Si Prachan","value":"1606256","lat":14.6380999999999996674659996642731130123138427734375,"lon":100.150499999999993860910763032734394073486328125,"poi_name":"Amphoe Si Prachan","parent_id":"1606032","long":100.150499999999993860910763032734394073486328125},"8":{"id":"1606138","label":"Amphoe Song Phi Nong","value":"1606138","lat":14.1889500000000001733724275254644453525543212890625,"lon":99.9758000000000066620486904866993427276611328125,"poi_name":"Amphoe Song Phi Nong","parent_id":"1606032","long":99.9758000000000066620486904866993427276611328125},"9":{"id":"1149963","label":"Amphoe U Thong","value":"1149963","lat":14.41093000000000046156856114976108074188232421875,"lon":99.889489999999995006874087266623973846435546875,"poi_name":"Amphoe U Thong","parent_id":"1606032","long":99.889489999999995006874087266623973846435546875}}