{"success":true,"remaining_lookups":7515,"0":{"id":"7466921","label":"Amphoe Khuan Don","value":"7466921","lat":6.76977999999999990876631272840313613414764404296875,"lon":100.1221599999999938290784484706819057464599609375,"poi_name":"Amphoe Khuan Don","parent_id":"1606375","long":100.1221599999999938290784484706819057464599609375},"1":{"id":"7466923","label":"Amphoe Khuan Kalong","value":"7466923","lat":6.9059299999999996799715518136508762836456298828125,"lon":100.0417800000000028148861019872128963470458984375,"poi_name":"Amphoe Khuan Kalong","parent_id":"1606375","long":100.0417800000000028148861019872128963470458984375},"2":{"id":"1152425","label":"Amphoe La-Ngu","value":"1152425","lat":6.90392000000000027881696951226331293582916259765625,"lon":99.798360000000002401066012680530548095703125,"poi_name":"Amphoe La-Ngu","parent_id":"1606375","long":99.798360000000002401066012680530548095703125},"3":{"id":"7510639","label":"Amphoe Manang","value":"7510639","lat":7.01822000000000034702907214523293077945709228515625,"lon":99.953990000000004556568455882370471954345703125,"poi_name":"Amphoe Manang","parent_id":"1606375","long":99.953990000000004556568455882370471954345703125},"4":{"id":"6965199","label":"Amphoe Mueang Satun","value":"6965199","lat":6.62314000000000024925839170464314520359039306640625,"lon":100.066810000000003810782800428569316864013671875,"poi_name":"Amphoe Mueang Satun","parent_id":"1606375","long":100.066810000000003810782800428569316864013671875},"5":{"id":"7510638","label":"Amphoe Tha Phae","value":"7510638","lat":6.79542000000000001591615728102624416351318359375,"lon":99.919849999999996725819073617458343505859375,"poi_name":"Amphoe Tha Phae","parent_id":"1606375","long":99.919849999999996725819073617458343505859375},"6":{"id":"1150079","label":"Amphoe Thung Wa","value":"1150079","lat":7.04915000000000002700062395888380706310272216796875,"lon":99.76587000000000671207089908421039581298828125,"poi_name":"Amphoe Thung Wa","parent_id":"1606375","long":99.76587000000000671207089908421039581298828125}}