{"success":true,"remaining_lookups":7535,"0":{"id":"7510674","label":"Amphoe Bang Kaeo","value":"7510674","lat":7.4177499999999998436805981327779591083526611328125,"lon":100.171639999999996462065610103309154510498046875,"poi_name":"Amphoe Bang Kaeo","parent_id":"1607778","long":100.171639999999996462065610103309154510498046875},"1":{"id":"1610017","label":"Amphoe Khao Chaison","value":"1610017","lat":7.46304999999999996163069226895458996295928955078125,"lon":100.0905499999999932470018393360078334808349609375,"poi_name":"Amphoe Khao Chaison","parent_id":"1607778","long":100.0905499999999932470018393360078334808349609375},"2":{"id":"1609714","label":"Amphoe Khuan Khanun","value":"1609714","lat":7.76438000000000005940137270954437553882598876953125,"lon":100.0434900000000055797499953769147396087646484375,"poi_name":"Amphoe Khuan Khanun","parent_id":"1607778","long":100.0434900000000055797499953769147396087646484375},"3":{"id":"7511038","label":"Amphoe Kong Ra","value":"7511038","lat":7.41673999999999988830268193851225078105926513671875,"lon":99.957189999999997098711901344358921051025390625,"poi_name":"Amphoe Kong Ra","parent_id":"1607778","long":99.957189999999997098711901344358921051025390625},"4":{"id":"1608636","label":"Amphoe Mueang Phatthalung","value":"1608636","lat":7.60250000000000003552713678800500929355621337890625,"lon":100.0742500000000063664629124104976654052734375,"poi_name":"Amphoe Mueang Phatthalung","parent_id":"1607778","long":100.0742500000000063664629124104976654052734375},"5":{"id":"7510675","label":"Amphoe Pa Bon","value":"7510675","lat":7.21994000000000024641622076160274446010589599609375,"lon":100.1307800000000014506440493278205394744873046875,"poi_name":"Amphoe Pa Bon","parent_id":"1607778","long":100.1307800000000014506440493278205394744873046875},"6":{"id":"7510640","label":"Amphoe Pa Phayom","value":"7510640","lat":7.831540000000000389945853385142982006072998046875,"lon":99.87448000000000547515810467302799224853515625,"poi_name":"Amphoe Pa Phayom","parent_id":"1607778","long":99.87448000000000547515810467302799224853515625},"7":{"id":"1608027","label":"Amphoe Pak Phayun","value":"1608027","lat":7.2962199999999999278088580467738211154937744140625,"lon":100.2954199999999929104887996800243854522705078125,"poi_name":"Amphoe Pak Phayun","parent_id":"1607778","long":100.2954199999999929104887996800243854522705078125},"8":{"id":"7511050","label":"Amphoe Si Banphot","value":"7511050","lat":7.69259000000000003893774191965349018573760986328125,"lon":99.87322000000000343788997270166873931884765625,"poi_name":"Amphoe Si Banphot","parent_id":"1607778","long":99.87322000000000343788997270166873931884765625},"9":{"id":"7511037","label":"Amphoe Srinagarindra","value":"7511037","lat":7.575739999999999696456143283285200595855712890625,"lon":99.9105299999999942883732728660106658935546875,"poi_name":"Amphoe Srinagarindra","parent_id":"1607778","long":99.9105299999999942883732728660106658935546875},"10":{"id":"7510673","label":"Amphoe Tamot","value":"7510673","lat":7.2878299999999995861799106933176517486572265625,"lon":100.0435800000000057252691476605832576751708984375,"poi_name":"Amphoe Tamot","parent_id":"1607778","long":100.0435800000000057252691476605832576751708984375}}