{"success":true,"remaining_lookups":7528,"0":{"id":"1610942","label":"Amphoe Den Chai","value":"1610942","lat":17.916669999999999873807610129006206989288330078125,"lon":100.033330000000006521077011711895465850830078125,"poi_name":"Amphoe Den Chai","parent_id":"1607551","long":100.033330000000006521077011711895465850830078125},"1":{"id":"1152321","label":"Amphoe Long","value":"1152321","lat":18.14262000000000085719875642098486423492431640625,"lon":99.909009999999994988684193231165409088134765625,"poi_name":"Amphoe Long","parent_id":"1607551","long":99.909009999999994988684193231165409088134765625},"2":{"id":"1608631","label":"Amphoe Mueang Phrae","value":"1608631","lat":18.122579999999999245119397528469562530517578125,"lon":100.256200000000006866684998385608196258544921875,"poi_name":"Amphoe Mueang Phrae","parent_id":"1607551","long":100.256200000000006866684998385608196258544921875},"3":{"id":"7510683","label":"Amphoe Nong Muang Khai","value":"7510683","lat":18.288450000000000983391146291978657245635986328125,"lon":100.15230999999999994543031789362430572509765625,"poi_name":"Amphoe Nong Muang Khai","parent_id":"1607551","long":100.15230999999999994543031789362430572509765625},"4":{"id":"1606982","label":"Amphoe Rong Kwang","value":"1606982","lat":18.326139999999998764224073966033756732940673828125,"lon":100.394180000000005748006515204906463623046875,"poi_name":"Amphoe Rong Kwang","parent_id":"1607551","long":100.394180000000005748006515204906463623046875},"5":{"id":"1606166","label":"Amphoe Song","value":"1606166","lat":18.570060000000001565467755426652729511260986328125,"lon":100.2291100000000056979843066073954105377197265625,"poi_name":"Amphoe Song","parent_id":"1607551","long":100.2291100000000056979843066073954105377197265625},"6":{"id":"1606042","label":"Amphoe Sung Men","value":"1606042","lat":18.035419999999998452722138608805835247039794921875,"lon":100.12538000000000693034962750971317291259765625,"poi_name":"Amphoe Sung Men","parent_id":"1607551","long":100.12538000000000693034962750971317291259765625},"7":{"id":"1149936","label":"Amphoe Wang Chin","value":"1149936","lat":17.8666699999999991632648743689060211181640625,"lon":99.6499000000000023646862246096134185791015625,"poi_name":"Amphoe Wang Chin","parent_id":"1607551","long":99.6499000000000023646862246096134185791015625}}