{"success":true,"remaining_lookups":7551,"0":{"id":"1611579","label":"Amphoe Borabue","value":"1611579","lat":15.98881000000000085492501966655254364013671875,"lon":103.1252099999999956025931169278919696807861328125,"poi_name":"Amphoe Borabue","parent_id":"1608899","long":103.1252099999999956025931169278919696807861328125},"1":{"id":"1611184","label":"Amphoe Chiang Yuen","value":"1611184","lat":16.409420000000000783302311901934444904327392578125,"lon":103.0700499999999948386175674386322498321533203125,"poi_name":"Amphoe Chiang Yuen","parent_id":"1608899","long":103.0700499999999948386175674386322498321533203125},"2":{"id":"7510793","label":"Amphoe Chuen Chom","value":"7510793","lat":16.548010000000001440412233932875096797943115234375,"lon":103.1479599999999976489561959169805049896240234375,"poi_name":"Amphoe Chuen Chom","parent_id":"1608899","long":103.1479599999999976489561959169805049896240234375},"3":{"id":"7510789","label":"Amphoe Kae Dam","value":"7510789","lat":16.049610000000001264197635464370250701904296875,"lon":103.3895299999999934925654088146984577178955078125,"poi_name":"Amphoe Kae Dam","parent_id":"1608899","long":103.3895299999999934925654088146984577178955078125},"4":{"id":"1610222","label":"Amphoe Kantharawichai","value":"1610222","lat":16.279920000000000612772055319510400295257568359375,"lon":103.2589200000000033696778700686991214752197265625,"poi_name":"Amphoe Kantharawichai","parent_id":"1608899","long":103.2589200000000033696778700686991214752197265625},"5":{"id":"1609475","label":"Amphoe Kosum Phisai","value":"1609475","lat":16.238820000000000476347850053571164608001708984375,"lon":102.9908099999999961937646730802953243255615234375,"poi_name":"Amphoe Kosum Phisai","parent_id":"1608899","long":102.9908099999999961937646730802953243255615234375},"6":{"id":"7510771","label":"Amphoe Kut Rang","value":"7510771","lat":16.02969999999999828332875040359795093536376953125,"lon":102.950590000000005375113687478005886077880859375,"poi_name":"Amphoe Kut Rang","parent_id":"1608899","long":102.950590000000005375113687478005886077880859375},"7":{"id":"1608651","label":"Amphoe Mueang Maha Sarakham","value":"1608651","lat":16.118819999999999481588019989430904388427734375,"lon":103.3115999999999985448084771633148193359375,"poi_name":"Amphoe Mueang Maha Sarakham","parent_id":"1608899","long":103.3115999999999985448084771633148193359375},"8":{"id":"1608567","label":"Amphoe Na Chueak","value":"1608567","lat":15.8018000000000000682121026329696178436279296875,"lon":103.0572499999999962483343551866710186004638671875,"poi_name":"Amphoe Na Chueak","parent_id":"1608899","long":103.0572499999999962483343551866710186004638671875},"9":{"id":"7510787","label":"Amphoe Na Dun","value":"7510787","lat":15.719519999999999271267370204441249370574951171875,"lon":103.230040000000002464730641804635524749755859375,"poi_name":"Amphoe Na Dun","parent_id":"1608899","long":103.230040000000002464730641804635524749755859375},"10":{"id":"1607762","label":"Amphoe Phayakkhaphum Phisai","value":"1607762","lat":15.51962999999999937017491902224719524383544921875,"lon":103.2326800000000019963408703915774822235107421875,"poi_name":"Amphoe Phayakkhaphum Phisai","parent_id":"1608899","long":103.2326800000000019963408703915774822235107421875},"11":{"id":"1605071","label":"Amphoe Wapi Pathum","value":"1605071","lat":15.85952999999999946112438919954001903533935546875,"lon":103.3409099999999938290784484706819057464599609375,"poi_name":"Amphoe Wapi Pathum","parent_id":"1608899","long":103.3409099999999938290784484706819057464599609375},"12":{"id":"7510786","label":"Amphoe Yang Si Surat","value":"7510786","lat":15.6495300000000003848299456876702606678009033203125,"lon":103.0891600000000067893779487349092960357666015625,"poi_name":"Amphoe Yang Si Surat","parent_id":"1608899","long":103.0891600000000067893779487349092960357666015625}}