{"success":true,"remaining_lookups":7539,"0":{"id":"1619601","label":"Amphoe Bang Bua Thong","value":"1619601","lat":13.926410000000000621867002337239682674407958984375,"lon":100.3936000000000063892002799548208713531494140625,"poi_name":"Amphoe Bang Bua Thong","parent_id":"1608132","long":100.3936000000000063892002799548208713531494140625},"1":{"id":"1619433","label":"Amphoe Bang Kruai","value":"1619433","lat":13.8024900000000005917399903410114347934722900390625,"lon":100.4152500000000003410605131648480892181396484375,"poi_name":"Amphoe Bang Kruai","parent_id":"1608132","long":100.4152500000000003410605131648480892181396484375},"2":{"id":"1619197","label":"Amphoe Bang Yai","value":"1619197","lat":13.8538499999999995537791619426570832729339599609375,"lon":100.3731800000000049521986511535942554473876953125,"poi_name":"Amphoe Bang Yai","parent_id":"1608132","long":100.3731800000000049521986511535942554473876953125},"3":{"id":"1608640","label":"Amphoe Mueang Nonthaburi","value":"1608640","lat":13.8558099999999999596411726088263094425201416015625,"lon":100.49263999999999441570253111422061920166015625,"poi_name":"Amphoe Mueang Nonthaburi","parent_id":"1608132","long":100.49263999999999441570253111422061920166015625},"4":{"id":"1608047","label":"Amphoe Pak Kret","value":"1608047","lat":13.9162599999999994082600096589885652065277099609375,"lon":100.5039699999999953661244944669306278228759765625,"poi_name":"Amphoe Pak Kret","parent_id":"1608132","long":100.5039699999999953661244944669306278228759765625},"5":{"id":"1606836","label":"Amphoe Sai Noi","value":"1606836","lat":14.006270000000000663931132294237613677978515625,"lon":100.31072000000000343788997270166873931884765625,"poi_name":"Amphoe Sai Noi","parent_id":"1608132","long":100.31072000000000343788997270166873931884765625}}