{"success":true,"remaining_lookups":7561,"0":{"id":"7510815","label":"Amphoe Don Chan","value":"7510815","lat":16.46667000000000058435034588910639286041259765625,"lon":103.716669999999993478922988288104534149169921875,"poi_name":"Amphoe Don Chan","parent_id":"1610468","long":103.716669999999993478922988288104534149169921875},"1":{"id":"7510792","label":"Amphoe Huai Mek","value":"7510792","lat":16.588680000000000092086338554508984088897705078125,"lon":103.2409799999999933106664684601128101348876953125,"poi_name":"Amphoe Huai Mek","parent_id":"1610468","long":103.2409799999999933106664684601128101348876953125},"2":{"id":"7510817","label":"Amphoe Huai Phueng","value":"7510817","lat":16.669720000000001647322278586216270923614501953125,"lon":103.8799700000000001409716787748038768768310546875,"poi_name":"Amphoe Huai Phueng","parent_id":"1610468","long":103.8799700000000001409716787748038768768310546875},"3":{"id":"1610458","label":"Amphoe Kamalasai","value":"1610458","lat":16.279990000000001515445546829141676425933837890625,"lon":103.6000999999999976353137753903865814208984375,"poi_name":"Amphoe Kamalasai","parent_id":"1610468","long":103.6000999999999976353137753903865814208984375},"4":{"id":"7511044","label":"Amphoe Kham Muang","value":"7511044","lat":16.938839999999999008650775067508220672607421875,"lon":103.6397999999999939291228656657040119171142578125,"poi_name":"Amphoe Kham Muang","parent_id":"1610468","long":103.6397999999999939291228656657040119171142578125},"5":{"id":"7510838","label":"Amphoe Khao Wong","value":"7510838","lat":16.679590000000001026592144626192748546600341796875,"lon":104.10030000000000427462509833276271820068359375,"poi_name":"Amphoe Khao Wong","parent_id":"1610468","long":104.10030000000000427462509833276271820068359375},"6":{"id":"7510788","label":"Amphoe Khong Chai","value":"7510788","lat":16.258449999999999846522769075818359851837158203125,"lon":103.4816699999999940473571768961846828460693359375,"poi_name":"Amphoe Khong Chai","parent_id":"1610468","long":103.4816699999999940473571768961846828460693359375},"7":{"id":"1609344","label":"Amphoe Kuchinarai","value":"1609344","lat":16.51977000000000117552190204150974750518798828125,"lon":104.050970000000006621121428906917572021484375,"poi_name":"Amphoe Kuchinarai","parent_id":"1610468","long":104.050970000000006621121428906917572021484375},"8":{"id":"1608657","label":"Amphoe Mueang Kalasin","value":"1608657","lat":16.5091800000000006320988177321851253509521484375,"lon":103.5498400000000032150637707673013210296630859375,"poi_name":"Amphoe Mueang Kalasin","parent_id":"1610468","long":103.5498400000000032150637707673013210296630859375},"9":{"id":"7510840","label":"Amphoe Na Khu","value":"7510840","lat":16.7501800000000002910383045673370361328125,"lon":104.000619999999997844497556798160076141357421875,"poi_name":"Amphoe Na Khu","parent_id":"1610468","long":104.000619999999997844497556798160076141357421875},"10":{"id":"7511042","label":"Amphoe Na Mon","value":"7511042","lat":16.569939999999999002966433181427419185638427734375,"lon":103.7801500000000061163518694229423999786376953125,"poi_name":"Amphoe Na Mon","parent_id":"1610468","long":103.7801500000000061163518694229423999786376953125},"11":{"id":"7510791","label":"Amphoe Nong Kung Si","value":"7510791","lat":16.719319999999999737383404863066971302032470703125,"lon":103.319220000000001391526893712580204010009765625,"poi_name":"Amphoe Nong Kung Si","parent_id":"1610468","long":103.319220000000001391526893712580204010009765625},"12":{"id":"7510814","label":"Amphoe Rong Kham","value":"7510814","lat":16.279250000000001108446667785756289958953857421875,"lon":103.71237999999999601641320623457431793212890625,"poi_name":"Amphoe Rong Kham","parent_id":"1610468","long":103.71237999999999601641320623457431793212890625},"13":{"id":"1606912","label":"Amphoe Sahatsakhan","value":"1606912","lat":16.709869999999998668727130279876291751861572265625,"lon":103.5790899999999936653694021515548229217529296875,"poi_name":"Amphoe Sahatsakhan","parent_id":"1610468","long":103.5790899999999936653694021515548229217529296875},"14":{"id":"7511048","label":"Amphoe Sam Chai","value":"7511048","lat":16.869089999999999918145476840436458587646484375,"lon":103.5224299999999999499777914024889469146728515625,"poi_name":"Amphoe Sam Chai","parent_id":"1610468","long":103.5224299999999999499777914024889469146728515625},"15":{"id":"1606187","label":"Amphoe Somdet","value":"1606187","lat":16.769729999999999137116901692934334278106689453125,"lon":103.7501199999999954570739646442234516143798828125,"poi_name":"Amphoe Somdet","parent_id":"1610468","long":103.7501199999999954570739646442234516143798828125},"16":{"id":"1605637","label":"Amphoe Tha Khantho","value":"1605637","lat":16.8833300000000008367351256310939788818359375,"lon":103.25,"poi_name":"Amphoe Tha Khantho","parent_id":"1610468","long":103.25},"17":{"id":"1604796","label":"Amphoe Yang Talat","value":"1604796","lat":16.439609999999998279918145271949470043182373046875,"lon":103.3408500000000032059688237495720386505126953125,"poi_name":"Amphoe Yang Talat","parent_id":"1610468","long":103.3408500000000032059688237495720386505126953125}}