{"success":true,"remaining_lookups":7566,"0":{"id":"1620988","label":"Amphoe Bamnet Narong","value":"1620988","lat":15.4694199999999995043253875337541103363037109375,"lon":101.6444999999999936335370875895023345947265625,"poi_name":"Amphoe Bamnet Narong","parent_id":"1611406","long":101.6444999999999936335370875895023345947265625},"1":{"id":"1617623","label":"Amphoe Ban Khwao","value":"1617623","lat":15.8276599999999998402699930011294782161712646484375,"lon":101.83944999999999936335370875895023345947265625,"poi_name":"Amphoe Ban Khwao","parent_id":"1611406","long":101.83944999999999936335370875895023345947265625},"2":{"id":"1612771","label":"Amphoe Ban Thaen","value":"1612771","lat":16.3816699999999997316990629769861698150634765625,"lon":102.3567800000000005411493475548923015594482421875,"poi_name":"Amphoe Ban Thaen","parent_id":"1611406","long":102.3567800000000005411493475548923015594482421875},"3":{"id":"7910464","label":"Amphoe Chatturat","value":"7910464","lat":15.564949999999999619149093632586300373077392578125,"lon":101.8456000000000045702108764089643955230712890625,"poi_name":"Amphoe Chatturat","parent_id":"1611406","long":101.8456000000000045702108764089643955230712890625},"4":{"id":"1610504","label":"Amphoe Kaeng Khro","value":"1610504","lat":16.13183000000000077989170677028596401214599609375,"lon":102.2017599999999930560079519636929035186767578125,"poi_name":"Amphoe Kaeng Khro","parent_id":"1611406","long":102.2017599999999930560079519636929035186767578125},"5":{"id":"1610186","label":"Amphoe Kaset Sombun","value":"1610186","lat":16.2720699999999993679011822678148746490478515625,"lon":101.922200000000003683453542180359363555908203125,"poi_name":"Amphoe Kaset Sombun","parent_id":"1611406","long":101.922200000000003683453542180359363555908203125},"6":{"id":"1609766","label":"Amphoe Khon San","value":"1609766","lat":16.5468800000000015870682545937597751617431640625,"lon":101.7178899999999970304997987113893032073974609375,"poi_name":"Amphoe Khon San","parent_id":"1611406","long":101.7178899999999970304997987113893032073974609375},"7":{"id":"1609764","label":"Amphoe Khon Sawan","value":"1609764","lat":15.92381999999999919737092568539083003997802734375,"lon":102.272930000000002337401383556425571441650390625,"poi_name":"Amphoe Khon Sawan","parent_id":"1611406","long":102.272930000000002337401383556425571441650390625},"8":{"id":"1608661","label":"Amphoe Mueang Chaiyaphum","value":"1608661","lat":15.8616200000000002745537130977027118206024169921875,"lon":102.0372100000000017416823538951575756072998046875,"poi_name":"Amphoe Mueang Chaiyaphum","parent_id":"1611406","long":102.0372100000000017416823538951575756072998046875},"9":{"id":"7510745","label":"Amphoe Noen Sa-nga","value":"7510745","lat":15.55169000000000067984728957526385784149169921875,"lon":101.99407999999999674400896765291690826416015625,"poi_name":"Amphoe Noen Sa-nga","parent_id":"1611406","long":101.99407999999999674400896765291690826416015625},"10":{"id":"1608272","label":"Amphoe Nong Bua Daeng","value":"1608272","lat":16.19684000000000168029146152548491954803466796875,"lon":101.626249999999998863131622783839702606201171875,"poi_name":"Amphoe Nong Bua Daeng","parent_id":"1611406","long":101.626249999999998863131622783839702606201171875},"11":{"id":"7510727","label":"Amphoe Nong Bua Rawe","value":"7510727","lat":15.8283100000000001017497197608463466167449951171875,"lon":101.630480000000005702531780116260051727294921875,"poi_name":"Amphoe Nong Bua Rawe","parent_id":"1611406","long":101.630480000000005702531780116260051727294921875},"12":{"id":"7510715","label":"Amphoe Phakdi Chumphon","value":"7510715","lat":15.9685199999999998254907040973193943500518798828125,"lon":101.4112300000000033151081879623234272003173828125,"poi_name":"Amphoe Phakdi Chumphon","parent_id":"1611406","long":101.4112300000000033151081879623234272003173828125},"13":{"id":"1607438","label":"Amphoe Phu Khiao","value":"1607438","lat":16.354230000000001155058271251618862152099609375,"lon":102.1618799999999964711605571210384368896484375,"poi_name":"Amphoe Phu Khiao","parent_id":"1611406","long":102.1618799999999964711605571210384368896484375},"14":{"id":"7510728","label":"Amphoe Sap Yai","value":"7510728","lat":15.6061999999999994059862729045562446117401123046875,"lon":101.650049999999993133315001614391803741455078125,"poi_name":"Amphoe Sap Yai","parent_id":"1611406","long":101.650049999999993133315001614391803741455078125},"15":{"id":"7510712","label":"Amphoe Thep Sathit","value":"7510712","lat":15.5917399999999997106669979984872043132781982421875,"lon":101.4656599999999997407940099947154521942138671875,"poi_name":"Amphoe Thep Sathit","parent_id":"1611406","long":101.4656599999999997407940099947154521942138671875}}