{"success":true,"remaining_lookups":7571,"0":{"id":"1611404","label":"Amphoe Chaiyo","value":"1611404","lat":14.6722500000000000142108547152020037174224853515625,"lon":100.467860000000001718944986350834369659423828125,"poi_name":"Amphoe Chaiyo","parent_id":"1621034","long":100.467860000000001718944986350834369659423828125},"1":{"id":"1608665","label":"Amphoe Mueang Ang Thong","value":"1608665","lat":14.57815000000000082991391536779701709747314453125,"lon":100.443929999999994606696418486535549163818359375,"poi_name":"Amphoe Mueang Ang Thong","parent_id":"1621034","long":100.443929999999994606696418486535549163818359375},"2":{"id":"1608010","label":"Amphoe Pa Mok","value":"1608010","lat":14.486200000000000187583282240666449069976806640625,"lon":100.457300000000003592504072003066539764404296875,"poi_name":"Amphoe Pa Mok","parent_id":"1621034","long":100.457300000000003592504072003066539764404296875},"3":{"id":"1607578","label":"Amphoe Pho Thong","value":"1607578","lat":14.673439999999999372448655776679515838623046875,"lon":100.3456900000000047157300286926329135894775390625,"poi_name":"Amphoe Pho Thong","parent_id":"1621034","long":100.3456900000000047157300286926329135894775390625},"4":{"id":"1606683","label":"Amphoe Sam Ko","value":"1606683","lat":14.5998199999999993536903275526128709316253662109375,"lon":100.254040000000003374225343577563762664794921875,"poi_name":"Amphoe Sam Ko","parent_id":"1621034","long":100.254040000000003374225343577563762664794921875},"5":{"id":"1606373","label":"Amphoe Sawaeng Ha","value":"1606373","lat":14.74634999999999962483343551866710186004638671875,"lon":100.2896300000000024965629563666880130767822265625,"poi_name":"Amphoe Sawaeng Ha","parent_id":"1621034","long":100.2896300000000024965629563666880130767822265625},"6":{"id":"1605017","label":"Amphoe Wiset Chai Chan","value":"1605017","lat":14.5498999999999991672439136891625821590423583984375,"lon":100.31743000000000165528035722672939300537109375,"poi_name":"Amphoe Wiset Chai Chan","parent_id":"1621034","long":100.31743000000000165528035722672939300537109375}}