{"success":true,"remaining_lookups":7521,"0":{"id":"1621019","label":"Amphoe Aranyaprathet","value":"1621019","lat":13.6908600000000006957634468562901020050048828125,"lon":102.4769299999999958572516334243118762969970703125,"poi_name":"Amphoe Aranyaprathet","parent_id":"1906691","long":102.4769299999999958572516334243118762969970703125},"1":{"id":"7510738","label":"Amphoe Khao Chakan","value":"7510738","lat":13.622930000000000205773176276125013828277587890625,"lon":102.0266500000000036152414395473897457122802734375,"poi_name":"Amphoe Khao Chakan","parent_id":"1906691","long":102.0266500000000036152414395473897457122802734375},"2":{"id":"7603498","label":"Amphoe Khlong Hat","value":"7603498","lat":13.4739599999999999369038050645031034946441650390625,"lon":102.276039999999994734025676734745502471923828125,"poi_name":"Amphoe Khlong Hat","parent_id":"1906691","long":102.276039999999994734025676734745502471923828125},"3":{"id":"7510755","label":"Amphoe Khok Sung","value":"7510755","lat":13.8738799999999997680788510479032993316650390625,"lon":102.6607499999999930651028989814221858978271484375,"poi_name":"Amphoe Khok Sung","parent_id":"1906691","long":102.6607499999999930651028989814221858978271484375},"4":{"id":"1606806","label":"Amphoe Mueang Sa Kaeo","value":"1606806","lat":13.92969000000000079353412729687988758087158203125,"lon":102.1062600000000060163074522279202938079833984375,"poi_name":"Amphoe Mueang Sa Kaeo","parent_id":"1906691","long":102.1062600000000060163074522279202938079833984375},"5":{"id":"1605741","label":"Amphoe Ta Phraya","value":"1605741","lat":14.0627200000000005530864655156619846820831298828125,"lon":102.726010000000002264641807414591312408447265625,"poi_name":"Amphoe Ta Phraya","parent_id":"1906691","long":102.726010000000002264641807414591312408447265625},"6":{"id":"7510736","label":"Amphoe Wang Nam Yen","value":"7510736","lat":13.5190000000000001278976924368180334568023681640625,"lon":102.0871800000000035879565984942018985748291015625,"poi_name":"Amphoe Wang Nam Yen","parent_id":"1906691","long":102.0871800000000035879565984942018985748291015625},"7":{"id":"7510737","label":"Amphoe Wang Sombun","value":"7510737","lat":13.361119999999999663486960344016551971435546875,"lon":102.124899999999996680344338528811931610107421875,"poi_name":"Amphoe Wang Sombun","parent_id":"1906691","long":102.124899999999996680344338528811931610107421875},"8":{"id":"1605042","label":"Amphoe Watthana Nakhon","value":"1605042","lat":13.8858200000000007179323802120052278041839599609375,"lon":102.3565200000000032787283998914062976837158203125,"poi_name":"Amphoe Watthana Nakhon","parent_id":"1906691","long":102.3565200000000032787283998914062976837158203125}}