{"success":true,"remaining_lookups":7224,"0":{"id":"1217655","label":"Bulung\u2018ur Tumani","value":"1217655","lat":39.75,"lon":67.3333300000000036789060686714947223663330078125,"poi_name":"Bulung\u2018ur Tumani","parent_id":"1114927","long":67.3333300000000036789060686714947223663330078125},"1":{"id":"1346451","label":"Chelak Tumani","value":"1346451","lat":39.89999999999999857891452847979962825775146484375,"lon":66.900000000000005684341886080801486968994140625,"poi_name":"Chelak Tumani","parent_id":"1114927","long":66.900000000000005684341886080801486968994140625},"2":{"id":"1346455","label":"Go`zalkent Tumani","value":"1346455","lat":39.75,"lon":66.5666700000000020054358174093067646026611328125,"poi_name":"Go`zalkent Tumani","parent_id":"1114927","long":66.5666700000000020054358174093067646026611328125},"3":{"id":"1217214","label":"Ishtixon Tumani","value":"1217214","lat":40,"lon":66.5,"poi_name":"Ishtixon Tumani","parent_id":"1114927","long":66.5},"4":{"id":"1217412","label":"Jomboy Tumani","value":"1217412","lat":39.75,"lon":67.1666699999999963210939313285052776336669921875,"poi_name":"Jomboy Tumani","parent_id":"1114927","long":67.1666699999999963210939313285052776336669921875},"5":{"id":"1346466","label":"Kattaqo\u2018rg\u2018on Shahri","value":"1346466","lat":39.90306000000000352656570612452924251556396484375,"lon":66.2597200000000015052137314341962337493896484375,"poi_name":"Kattaqo\u2018rg\u2018on Shahri","parent_id":"1114927","long":66.2597200000000015052137314341962337493896484375},"6":{"id":"1216987","label":"Kattaqo\u2018rg\u2018on Tumani","value":"1216987","lat":39.9500000000000028421709430404007434844970703125,"lon":66.2999999999999971578290569595992565155029296875,"poi_name":"Kattaqo\u2018rg\u2018on Tumani","parent_id":"1114927","long":66.2999999999999971578290569595992565155029296875},"7":{"id":"1216429","label":"Narpay Tumani","value":"1216429","lat":39.91667000000000342652128892950713634490966796875,"lon":66,"poi_name":"Narpay Tumani","parent_id":"1114927","long":66},"8":{"id":"1216079","label":"Nurobod Tumani","value":"1216079","lat":39.6500199999999978217601892538368701934814453125,"lon":65.85111000000000558429746888577938079833984375,"poi_name":"Nurobod Tumani","parent_id":"1114927","long":65.85111000000000558429746888577938079833984375},"9":{"id":"1217960","label":"Oqdaryo Tumani","value":"1217960","lat":39.83332999999999657347871107049286365509033203125,"lon":66.7999999999999971578290569595992565155029296875,"poi_name":"Oqdaryo Tumani","parent_id":"1114927","long":66.7999999999999971578290569595992565155029296875},"10":{"id":"1346465","label":"Oqtosh Shahri","value":"1346465","lat":39.92694000000000187355908565223217010498046875,"lon":65.9255600000000043792169890366494655609130859375,"poi_name":"Oqtosh Shahri","parent_id":"1114927","long":65.9255600000000043792169890366494655609130859375},"11":{"id":"7668834","label":"Pastdargom","value":"7668834","lat":39.6639899999999983037923811934888362884521484375,"lon":66.6597900000000009868017514236271381378173828125,"poi_name":"Pastdargom","parent_id":"1114927","long":66.6597900000000009868017514236271381378173828125},"12":{"id":"1216341","label":"Pastdarg\u2018om Tumani","value":"1216341","lat":39.64999999999999857891452847979962825775146484375,"lon":66.6666699999999963210939313285052776336669921875,"poi_name":"Pastdarg\u2018om Tumani","parent_id":"1114927","long":66.6666699999999963210939313285052776336669921875},"13":{"id":"1216354","label":"Paxtachi Tumani","value":"1216354","lat":40,"lon":65.75,"poi_name":"Paxtachi Tumani","parent_id":"1114927","long":65.75},"14":{"id":"1216337","label":"Payariq Tumani","value":"1216337","lat":40,"lon":66.9166699999999963210939313285052776336669921875,"poi_name":"Payariq Tumani","parent_id":"1114927","long":66.9166699999999963210939313285052776336669921875},"15":{"id":"1513472","label":"Qo\u2018shrabot Tumani","value":"1513472","lat":40.33332999999999657347871107049286365509033203125,"lon":66.5,"poi_name":"Qo\u2018shrabot Tumani","parent_id":"1114927","long":66.5},"16":{"id":"1346463","label":"Samarqand Shahri","value":"1346463","lat":39.65417000000000058435034588910639286041259765625,"lon":66.95972000000000434738467447459697723388671875,"poi_name":"Samarqand Shahri","parent_id":"1114927","long":66.95972000000000434738467447459697723388671875},"17":{"id":"1216266","label":"Samarqand Tumani","value":"1216266","lat":39.58332999999999657347871107049286365509033203125,"lon":66.9166699999999963210939313285052776336669921875,"poi_name":"Samarqand Tumani","parent_id":"1114927","long":66.9166699999999963210939313285052776336669921875},"18":{"id":"9166490","label":"Toyloq District","value":"9166490","lat":39.56304999999999694182406528852880001068115234375,"lon":67.158739999999994552126736380159854888916015625,"poi_name":"Toyloq District","parent_id":"1114927","long":67.158739999999994552126736380159854888916015625},"19":{"id":"1346462","label":"Toyloq Tumani","value":"1346462","lat":39.58332999999999657347871107049286365509033203125,"lon":67.1166699999999991632648743689060211181640625,"poi_name":"Toyloq Tumani","parent_id":"1114927","long":67.1166699999999991632648743689060211181640625},"20":{"id":"1346467","label":"Urgut Shahri","value":"1346467","lat":39.40693999999999874717104830779135227203369140625,"lon":67.2416699999999991632648743689060211181640625,"poi_name":"Urgut Shahri","parent_id":"1114927","long":67.2416699999999991632648743689060211181640625},"21":{"id":"1215838","label":"Urgut Tumani","value":"1215838","lat":39.41667000000000342652128892950713634490966796875,"lon":67.1666699999999963210939313285052776336669921875,"poi_name":"Urgut Tumani","parent_id":"1114927","long":67.1666699999999963210939313285052776336669921875}}