{"success":true,"remaining_lookups":7226,"0":{"id":"1513830","label":"Konimex Tumani","value":"1513830","lat":40.21000000000000085265128291212022304534912109375,"lon":64.9800000000000039790393202565610408782958984375,"poi_name":"Konimex Tumani","parent_id":"1484841","long":64.9800000000000039790393202565610408782958984375},"1":{"id":"1513135","label":"Navbahor Tumani","value":"1513135","lat":40.2492400000000003501554601825773715972900390625,"lon":65.30486999999999397914507426321506500244140625,"poi_name":"Navbahor Tumani","parent_id":"1484841","long":65.30486999999999397914507426321506500244140625},"2":{"id":"8714365","label":"Navbakhor Tumani","value":"8714365","lat":40.219999999999998863131622783839702606201171875,"lon":65.3030600000000021054802346043288707733154296875,"poi_name":"Navbakhor Tumani","parent_id":"1484841","long":65.3030600000000021054802346043288707733154296875},"3":{"id":"1513133","label":"Navoiy Tumani","value":"1513133","lat":40.02020999999999872898115427233278751373291015625,"lon":65.2155599999999964211383485235273838043212890625,"poi_name":"Navoiy Tumani","parent_id":"1484841","long":65.2155599999999964211383485235273838043212890625},"4":{"id":"1513082","label":"Nurota Tumani","value":"1513082","lat":40.48286999999999835608832654543220996856689453125,"lon":65.86745999999999412466422654688358306884765625,"poi_name":"Nurota Tumani","parent_id":"1484841","long":65.86745999999999412466422654688358306884765625},"5":{"id":"1216582","label":"Qiziltepa Tumani","value":"1216582","lat":39.91667000000000342652128892950713634490966796875,"lon":65,"poi_name":"Qiziltepa Tumani","parent_id":"1484841","long":65},"6":{"id":"1512673","label":"Tomdi Tumani","value":"1512673","lat":42.22496000000000293539414997212588787078857421875,"lon":65.234600000000000363797880709171295166015625,"poi_name":"Tomdi Tumani","parent_id":"1484841","long":65.234600000000000363797880709171295166015625},"7":{"id":"1512504","label":"Uchkuduk District","value":"1512504","lat":42.13692999999999955207385937683284282684326171875,"lon":63.5682699999999982765075401403009891510009765625,"poi_name":"Uchkuduk District","parent_id":"1484841","long":63.5682699999999982765075401403009891510009765625},"8":{"id":"1513622","label":"Xatirchi Tumani","value":"1513622","lat":40.16667000000000342652128892950713634490966796875,"lon":66,"poi_name":"Xatirchi Tumani","parent_id":"1484841","long":66}}