{"success":true,"remaining_lookups":7227,"0":{"id":"1538272","label":"Chortoq Tumani","value":"1538272","lat":41.16667000000000342652128892950713634490966796875,"lon":71.8333300000000036789060686714947223663330078125,"poi_name":"Chortoq Tumani","parent_id":"1484842","long":71.8333300000000036789060686714947223663330078125},"1":{"id":"1514190","label":"Chust Tumani","value":"1514190","lat":40.9709500000000019781509763561189174652099609375,"lon":71.2400499999999965439201332628726959228515625,"poi_name":"Chust Tumani","parent_id":"1484842","long":71.2400499999999965439201332628726959228515625},"2":{"id":"1538277","label":"Chust Tumani","value":"1538277","lat":41,"lon":71.23917000000000143700162880122661590576171875,"poi_name":"Chust Tumani","parent_id":"1484842","long":71.23917000000000143700162880122661590576171875},"3":{"id":"1513713","label":"Kosonsoy Tumani","value":"1513713","lat":41.23301000000000016143530956469476222991943359375,"lon":71.5827900000000028057911549694836139678955078125,"poi_name":"Kosonsoy Tumani","parent_id":"1484842","long":71.5827900000000028057911549694836139678955078125},"4":{"id":"1512289","label":"Mingbuloq Tumani","value":"1512289","lat":40.7373400000000032150637707673013210296630859375,"lon":71.2285200000000031650415621697902679443359375,"poi_name":"Mingbuloq Tumani","parent_id":"1484842","long":71.2285200000000031650415621697902679443359375},"5":{"id":"1513156","label":"Namangan Tumani","value":"1513156","lat":40.92007000000000260797605733387172222137451171875,"lon":71.6471700000000026875568437390029430389404296875,"poi_name":"Namangan Tumani","parent_id":"1484842","long":71.6471700000000026875568437390029430389404296875},"6":{"id":"1513144","label":"Norin Tumani","value":"1513144","lat":40.91667000000000342652128892950713634490966796875,"lon":72,"poi_name":"Norin Tumani","parent_id":"1484842","long":72},"7":{"id":"11611821","label":"Pap District","value":"11611821","lat":40.86670000000000158024704433046281337738037109375,"lon":71.2000000000000028421709430404007434844970703125,"poi_name":"Pap District","parent_id":"1484842","long":71.2000000000000028421709430404007434844970703125},"8":{"id":"1513021","label":"Pop Tumani","value":"1513021","lat":40.8665400000000005320544005371630191802978515625,"lon":71.1147799999999961073626764118671417236328125,"poi_name":"Pop Tumani","parent_id":"1484842","long":71.1147799999999961073626764118671417236328125},"9":{"id":"1512548","label":"T\u016draq\u016drghon Tumani","value":"1512548","lat":41.0071999999999974306774674914777278900146484375,"lon":71.4717600000000032878233469091355800628662109375,"poi_name":"T\u016draq\u016drghon Tumani","parent_id":"1484842","long":71.4717600000000032878233469091355800628662109375},"10":{"id":"1512500","label":"Uchq\u016drghon Tumani","value":"1512500","lat":41.07715999999999922920324024744331836700439453125,"lon":72.1081999999999965211827657185494899749755859375,"poi_name":"Uchq\u016drghon Tumani","parent_id":"1484842","long":72.1081999999999965211827657185494899749755859375},"11":{"id":"1512448","label":"Uychi Tumani","value":"1512448","lat":41.041280000000000427462509833276271820068359375,"lon":71.8987300000000004729372449219226837158203125,"poi_name":"Uychi Tumani","parent_id":"1484842","long":71.8987300000000004729372449219226837158203125},"12":{"id":"1512349","label":"Yangiqo\u2018rg\u2018on Tumani","value":"1512349","lat":41.25,"lon":71.75,"poi_name":"Yangiqo\u2018rg\u2018on Tumani","parent_id":"1484842","long":71.75}}