{"success":true,"remaining_lookups":7230,"0":{"id":"7668818","label":"Altyarik","value":"7668818","lat":40.3833300000000008367351256310939788818359375,"lon":71.5,"poi_name":"Altyarik","parent_id":"1484845","long":71.5},"1":{"id":"7668819","label":"Bagdad","value":"7668819","lat":40.48557000000000272166289505548775196075439453125,"lon":71.19567000000000689396983943879604339599609375,"poi_name":"Bagdad","parent_id":"1484845","long":71.19567000000000689396983943879604339599609375},"2":{"id":"1514482","label":"Bag\u2018dod Tumani","value":"1514482","lat":40.4500000000000028421709430404007434844970703125,"lon":71.2000000000000028421709430404007434844970703125,"poi_name":"Bag\u2018dod Tumani","parent_id":"1484845","long":71.2000000000000028421709430404007434844970703125},"3":{"id":"1513547","label":"Beshariq Tumani","value":"1513547","lat":40.4333299999999979945641825906932353973388671875,"lon":70.599999999999994315658113919198513031005859375,"poi_name":"Beshariq Tumani","parent_id":"1484845","long":70.599999999999994315658113919198513031005859375},"4":{"id":"1514299","label":"Buvayda Tumani","value":"1514299","lat":40.58332999999999657347871107049286365509033203125,"lon":71.1666699999999963210939313285052776336669921875,"poi_name":"Buvayda Tumani","parent_id":"1484845","long":71.1666699999999963210939313285052776336669921875},"5":{"id":"1514016","label":"Dang\u2018ara Tumani","value":"1514016","lat":40.60011999999999687815943616442382335662841796875,"lon":70.8921600000000040608938434161245822906494140625,"poi_name":"Dang\u2018ara Tumani","parent_id":"1484845","long":70.8921600000000040608938434161245822906494140625},"6":{"id":"1538296","label":"Farg\u2018ona Shahri","value":"1538296","lat":40.3841699999999974579623085446655750274658203125,"lon":71.7888899999999949841367197223007678985595703125,"poi_name":"Farg\u2018ona Shahri","parent_id":"1484845","long":71.7888899999999949841367197223007678985595703125},"7":{"id":"1514017","label":"Farg\u2018ona Tumani","value":"1514017","lat":40.25003000000000241698216996155679225921630859375,"lon":71.7500299999999953115548123605549335479736328125,"poi_name":"Farg\u2018ona Tumani","parent_id":"1484845","long":71.7500299999999953115548123605549335479736328125},"8":{"id":"1538294","label":"Furqat Tumani","value":"1538294","lat":40.502060000000000172803993336856365203857421875,"lon":70.761889999999993960955180227756500244140625,"poi_name":"Furqat Tumani","parent_id":"1484845","long":70.761889999999993960955180227756500244140625},"9":{"id":"1538300","label":"Marg\u2018ilon Shahri","value":"1538300","lat":40.47111000000000302634362014941871166229248046875,"lon":71.7247200000000049158188630826771259307861328125,"poi_name":"Marg\u2018ilon Shahri","parent_id":"1484845","long":71.7247200000000049158188630826771259307861328125},"10":{"id":"1514616","label":"Oltiariq Tumani","value":"1514616","lat":40.41667000000000342652128892950713634490966796875,"lon":71.5,"poi_name":"Oltiariq Tumani","parent_id":"1484845","long":71.5},"11":{"id":"1514681","label":"Oxunboboyev Tumani","value":"1514681","lat":40.533220000000000027284841053187847137451171875,"lon":71.575050000000004501998773775994777679443359375,"poi_name":"Oxunboboyev Tumani","parent_id":"1484845","long":71.575050000000004501998773775994777679443359375},"12":{"id":"1512439","label":"O\u2018zbekiston Tumani","value":"1512439","lat":40.33332999999999657347871107049286365509033203125,"lon":70.8333300000000036789060686714947223663330078125,"poi_name":"O\u2018zbekiston Tumani","parent_id":"1484845","long":70.8333300000000036789060686714947223663330078125},"13":{"id":"1538297","label":"Qo\u2018qon Shahri","value":"1538297","lat":40.530270000000001573425834067165851593017578125,"lon":70.9424000000000063437255448661744594573974609375,"poi_name":"Qo\u2018qon Shahri","parent_id":"1484845","long":70.9424000000000063437255448661744594573974609375},"14":{"id":"1538298","label":"Quva Shahri","value":"1538298","lat":40.52360999999999791043592267669737339019775390625,"lon":72.0616700000000065529093262739479541778564453125,"poi_name":"Quva Shahri","parent_id":"1484845","long":72.0616700000000065529093262739479541778564453125},"15":{"id":"1513329","label":"Quva Tumani","value":"1513329","lat":40.5,"lon":72.0833300000000036789060686714947223663330078125,"poi_name":"Quva Tumani","parent_id":"1484845","long":72.0833300000000036789060686714947223663330078125},"16":{"id":"1538299","label":"Quvasoy Shahri","value":"1538299","lat":40.30787000000000119825926958583295345306396484375,"lon":71.9697000000000031150193535722792148590087890625,"poi_name":"Quvasoy Shahri","parent_id":"1484845","long":71.9697000000000031150193535722792148590087890625},"17":{"id":"7668820","label":"Rishtan","value":"7668820","lat":40.38501000000000118461684905923902988433837890625,"lon":71.23453000000000656655174680054187774658203125,"poi_name":"Rishtan","parent_id":"1484845","long":71.23453000000000656655174680054187774658203125},"18":{"id":"1512956","label":"Rishton Tumani","value":"1512956","lat":40.3666699999999991632648743689060211181640625,"lon":71.25,"poi_name":"Rishton Tumani","parent_id":"1484845","long":71.25},"19":{"id":"1538295","label":"So\u2018x Tumani","value":"1538295","lat":40.04417000000000115278453449718654155731201171875,"lon":71.0941700000000054160409490577876567840576171875,"poi_name":"So\u2018x Tumani","parent_id":"1484845","long":71.0941700000000054160409490577876567840576171875},"20":{"id":"1512646","label":"Toshloq Tumani","value":"1512646","lat":40.5,"lon":71.8333300000000036789060686714947223663330078125,"poi_name":"Toshloq Tumani","parent_id":"1484845","long":71.8333300000000036789060686714947223663330078125},"21":{"id":"1513272","label":"Uchko\u2018prik Tumani","value":"1513272","lat":40.58332999999999657347871107049286365509033203125,"lon":71,"poi_name":"Uchko\u2018prik Tumani","parent_id":"1484845","long":71},"22":{"id":"7668842","label":"Yazyavan","value":"7668842","lat":40.653829999999999245119397528469562530517578125,"lon":71.6169900000000012596501619555056095123291015625,"poi_name":"Yazyavan","parent_id":"1484845","long":71.6169900000000012596501619555056095123291015625},"23":{"id":"1512318","label":"Yozyovon Tumani","value":"1512318","lat":40.64999999999999857891452847979962825775146484375,"lon":71.733329999999995152393239550292491912841796875,"poi_name":"Yozyovon Tumani","parent_id":"1484845","long":71.733329999999995152393239550292491912841796875}}