{"success":true,"remaining_lookups":7228,"0":{"id":"1514593","label":"Amudaryo Tumani","value":"1514593","lat":42.14947000000000087993612396530807018280029296875,"lon":60.09501999999999810597728355787694454193115234375,"poi_name":"Amudaryo Tumani","parent_id":"453752","long":60.09501999999999810597728355787694454193115234375},"1":{"id":"1514386","label":"Beruniy Tumani","value":"1514386","lat":42.16667000000000342652128892950713634490966796875,"lon":61,"poi_name":"Beruniy Tumani","parent_id":"453752","long":61},"2":{"id":"601398","label":"Bo\u2018zatov Tumani","value":"601398","lat":43.15223999999999904275682638399302959442138671875,"lon":59.32997999999999905185177340172231197357177734375,"poi_name":"Bo\u2018zatov Tumani","parent_id":"453752","long":59.32997999999999905185177340172231197357177734375},"3":{"id":"601394","label":"Chimboy Tumani","value":"601394","lat":43.00963999999999742840373073704540729522705078125,"lon":59.67437000000000324462234857492148876190185546875,"poi_name":"Chimboy Tumani","parent_id":"453752","long":59.67437000000000324462234857492148876190185546875},"4":{"id":"1514037","label":"Ellikqala Tumani","value":"1514037","lat":42.355829999999997426129993982613086700439453125,"lon":61.7637500000000017053025658242404460906982421875,"poi_name":"Ellikqala Tumani","parent_id":"453752","long":61.7637500000000017053025658242404460906982421875},"5":{"id":"601347","label":"Kegeyli Tumani","value":"601347","lat":42.72167999999999921101334621198475360870361328125,"lon":59.65834000000000258978616329841315746307373046875,"poi_name":"Kegeyli Tumani","parent_id":"453752","long":59.65834000000000258978616329841315746307373046875},"6":{"id":"601301","label":"Mo\u2019ynoq Tumani","value":"601301","lat":43.82576999999999856072463444434106349945068359375,"lon":59.67065000000000196678229258395731449127197265625,"poi_name":"Mo\u2019ynoq Tumani","parent_id":"453752","long":59.67065000000000196678229258395731449127197265625},"7":{"id":"601292","label":"Nukus Tumani","value":"601292","lat":42.4804299999999983583620632998645305633544921875,"lon":59.6908499999999975216269376687705516815185546875,"poi_name":"Nukus Tumani","parent_id":"453752","long":59.6908499999999975216269376687705516815185546875},"8":{"id":"601309","label":"Qanliko\u2018l Tumani","value":"601309","lat":42.7866599999999976944309310056269168853759765625,"lon":58.937849999999997407940099947154521942138671875,"poi_name":"Qanliko\u2018l Tumani","parent_id":"453752","long":58.937849999999997407940099947154521942138671875},"9":{"id":"1513732","label":"Qorao\u2018zak Tumani","value":"1513732","lat":42.66667000000000342652128892950713634490966796875,"lon":60.16667000000000342652128892950713634490966796875,"poi_name":"Qorao\u2018zak Tumani","parent_id":"453752","long":60.16667000000000342652128892950713634490966796875},"10":{"id":"601322","label":"Qo\u2018ng\u2018irot Tumani","value":"601322","lat":43.5,"lon":57.5,"poi_name":"Qo\u2018ng\u2018irot Tumani","parent_id":"453752","long":57.5},"11":{"id":"601276","label":"Shumanay Tumani","value":"601276","lat":42.7104700000000008230927051045000553131103515625,"lon":58.89168000000000091631591203622519969940185546875,"poi_name":"Shumanay Tumani","parent_id":"453752","long":58.89168000000000091631591203622519969940185546875},"12":{"id":"1512698","label":"Taxtako\u2018pir Tumani","value":"1512698","lat":42.98174999999999812416717759333550930023193359375,"lon":61.0732799999999969031705404631793498992919921875,"poi_name":"Taxtako\u2018pir Tumani","parent_id":"453752","long":61.0732799999999969031705404631793498992919921875},"13":{"id":"1512534","label":"To\u2018rtko\u2018l Tumani","value":"1512534","lat":41.624200000000001864464138634502887725830078125,"lon":61.72682999999999964302332955412566661834716796875,"poi_name":"To\u2018rtko\u2018l Tumani","parent_id":"453752","long":61.72682999999999964302332955412566661834716796875},"14":{"id":"601340","label":"Xo\u2018jayli Tumani","value":"601340","lat":42.51319000000000158934199134819209575653076171875,"lon":59.3054599999999965120878187008202075958251953125,"poi_name":"Xo\u2018jayli Tumani","parent_id":"453752","long":59.3054599999999965120878187008202075958251953125}}