[{"id":"5881219","label":"Eastern District","value":"5881219","lat":-14.26667,"lon":-170.65,"poi_name":"Eastern District","parent_id":"0","long":-170.65},{"id":"5881436","label":"Manu'a District","value":"5881436","lat":-14.23327,"lon":-169.47458,"poi_name":"Manu'a District","parent_id":"0","long":-169.47458},{"id":"7309441","label":"Rose Atoll","value":"7309441","lat":-14.54583,"lon":-168.15,"poi_name":"Rose Atoll","parent_id":"0","long":-168.15},{"id":"5881199","label":"Swains Island","value":"5881199","lat":-11.056,"lon":-171.082,"poi_name":"Swains Island","parent_id":"0","long":-171.082},{"id":"5880873","label":"Western District","value":"5880873","lat":-14.31667,"lon":-170.76667,"poi_name":"Western District","parent_id":"0","long":-170.76667}]