[{"id":"2781194","label":"Burgenland","value":"2781194","lat":47.5,"lon":16.41667,"poi_name":"Burgenland","parent_id":"2782113","long":16.41667},{"id":"2774686","label":"K\u00e4rnten","value":"2774686","lat":46.75,"lon":13.83333,"poi_name":"K\u00e4rnten","parent_id":"2782113","long":13.83333},{"id":"2770542","label":"Nieder\u00f6sterreich","value":"2770542","lat":48.33333,"lon":15.75,"poi_name":"Nieder\u00f6sterreich","parent_id":"2782113","long":15.75},{"id":"2769848","label":"Ober\u00f6sterreich","value":"2769848","lat":48.25,"lon":14,"poi_name":"Ober\u00f6sterreich","parent_id":"2782113","long":14},{"id":"2766823","label":"Salzburg","value":"2766823","lat":47.41667,"lon":13.25,"poi_name":"Salzburg","parent_id":"2782113","long":13.25},{"id":"2764581","label":"Steiermark","value":"2764581","lat":47.25,"lon":15.16667,"poi_name":"Steiermark","parent_id":"2782113","long":15.16667},{"id":"2763586","label":"Tirol","value":"2763586","lat":47.25,"lon":11.33333,"poi_name":"Tirol","parent_id":"2782113","long":11.33333},{"id":"2762300","label":"Vorarlberg","value":"2762300","lat":47.25,"lon":9.91667,"poi_name":"Vorarlberg","parent_id":"2782113","long":9.91667},{"id":"2761367","label":"Wien","value":"2761367","lat":48.2082,"lon":16.37169,"poi_name":"Wien","parent_id":"2782113","long":16.37169}]