[{"id":"587245","label":"Absheron Rayon","value":"587245","lat":40.41667,"lon":49.33333,"poi_name":"Absheron Rayon","parent_id":"587116","long":49.33333},{"id":"148617","label":"Aghdam Rayon","value":"148617","lat":40,"lon":47,"poi_name":"Aghdam Rayon","parent_id":"587116","long":47},{"id":"587376","label":"Aghdash Rayon","value":"587376","lat":40.58333,"lon":47.41667,"poi_name":"Aghdash Rayon","parent_id":"587116","long":47.41667},{"id":"148615","label":"Aghjabadi Rayon","value":"148615","lat":40,"lon":47.41667,"poi_name":"Aghjabadi Rayon","parent_id":"587116","long":47.41667},{"id":"828297","label":"Aghstafa Rayon","value":"828297","lat":41.25,"lon":45.5,"poi_name":"Aghstafa Rayon","parent_id":"587116","long":45.5},{"id":"587342","label":"Aghsu Rayon","value":"587342","lat":40.5,"lon":48.33333,"poi_name":"Aghsu Rayon","parent_id":"587116","long":48.33333},{"id":"148442","label":"Astara District","value":"148442","lat":38.5,"lon":48.66667,"poi_name":"Astara District","parent_id":"587116","long":48.66667},{"id":"587081","label":"Baku City","value":"587081","lat":40.39802,"lon":49.72414,"poi_name":"Baku City","parent_id":"587116","long":49.72414},{"id":"587010","label":"Balakan Rayon","value":"587010","lat":41.75,"lon":46.41667,"poi_name":"Balakan Rayon","parent_id":"587116","long":46.41667},{"id":"587056","label":"Barda Rayon","value":"587056","lat":40.33333,"lon":47.16667,"poi_name":"Barda Rayon","parent_id":"587116","long":47.16667},{"id":"146879","label":"Beylagan Rayon","value":"146879","lat":39.75,"lon":47.66667,"poi_name":"Beylagan Rayon","parent_id":"587116","long":47.66667},{"id":"147310","label":"Bilasuvar Rayon","value":"147310","lat":39.5,"lon":48.41667,"poi_name":"Bilasuvar Rayon","parent_id":"587116","long":48.41667},{"id":"586771","label":"Dashkasan Rayon","value":"586771","lat":40.41667,"lon":46,"poi_name":"Dashkasan Rayon","parent_id":"587116","long":46},{"id":"148107","label":"Fizuli Rayon","value":"148107","lat":39.58333,"lon":47.33333,"poi_name":"Fizuli Rayon","parent_id":"587116","long":47.33333},{"id":"627535","label":"Gadabay Rayon","value":"627535","lat":40.5,"lon":45.66667,"poi_name":"Gadabay Rayon","parent_id":"587116","long":45.66667},{"id":"828298","label":"Ganja City","value":"828298","lat":40.6937,"lon":46.34082,"poi_name":"Ganja City","parent_id":"587116","long":46.34082},{"id":"828301","label":"Gobustan Rayon","value":"828301","lat":40.5,"lon":49,"poi_name":"Gobustan Rayon","parent_id":"587116","long":49},{"id":"586112","label":"Goranboy Rayon","value":"586112","lat":40.58333,"lon":46.66667,"poi_name":"Goranboy Rayon","parent_id":"587116","long":46.66667},{"id":"586482","label":"Goychay Rayon","value":"586482","lat":40.58333,"lon":47.83333,"poi_name":"Goychay Rayon","parent_id":"587116","long":47.83333},{"id":"585967","label":"Goygol Rayon","value":"585967","lat":40.5,"lon":46.33333,"poi_name":"Goygol Rayon","parent_id":"587116","long":46.33333},{"id":"828315","label":"Hajigabul Rayon","value":"828315","lat":40.08333,"lon":48.91667,"poi_name":"Hajigabul Rayon","parent_id":"587116","long":48.91667},{"id":"147983","label":"Imishli Rayon","value":"147983","lat":39.83333,"lon":48.08333,"poi_name":"Imishli Rayon","parent_id":"587116","long":48.08333},{"id":"586320","label":"Ismayilli Rayon","value":"586320","lat":40.83333,"lon":48.16667,"poi_name":"Ismayilli Rayon","parent_id":"587116","long":48.16667},{"id":"148140","label":"Jabrayil District","value":"148140","lat":39.33333,"lon":47,"poi_name":"Jabrayil District","parent_id":"587116","long":47},{"id":"148155","label":"Jalilabad","value":"148155","lat":39.25,"lon":48.5,"poi_name":"Jalilabad","parent_id":"587116","long":48.5},{"id":"586047","label":"Kalbajar District","value":"586047","lat":40.1027,"lon":46.1747,"poi_name":"Kalbajar District","parent_id":"587116","long":46.1747},{"id":"586001","label":"Khachmaz Rayon","value":"586001","lat":41.58333,"lon":48.75,"poi_name":"Khachmaz Rayon","parent_id":"587116","long":48.75},{"id":"828306","label":"Khizi Rayon","value":"828306","lat":40.75,"lon":49.16667,"poi_name":"Khizi Rayon","parent_id":"587116","long":49.16667},{"id":"409423","label":"Khojavend District","value":"409423","lat":39.66667,"lon":47,"poi_name":"Khojavend District","parent_id":"587116","long":47},{"id":"585686","label":"Kurdamir Rayon","value":"585686","lat":40.25,"lon":48.16667,"poi_name":"Kurdamir Rayon","parent_id":"587116","long":48.16667},{"id":"147613","label":"Lankaran Rayon","value":"147613","lat":38.70071,"lon":48.75551,"poi_name":"Lankaran Rayon","parent_id":"587116","long":48.75551},{"id":"409418","label":"Lankaran Sahari","value":"409418","lat":38.73333,"lon":48.83333,"poi_name":"Lankaran Sahari","parent_id":"587116","long":48.83333},{"id":"147626","label":"La\u00e7\u0131n Rayonu","value":"147626","lat":39.65073,"lon":46.39913,"poi_name":"La\u00e7\u0131n Rayonu","parent_id":"587116","long":46.39913},{"id":"147610","label":"Lerik Rayon","value":"147610","lat":38.75,"lon":48.41667,"poi_name":"Lerik Rayon","parent_id":"587116","long":48.41667},{"id":"147551","label":"Masally District","value":"147551","lat":39,"lon":48.66667,"poi_name":"Masally District","parent_id":"587116","long":48.66667},{"id":"828299","label":"Mingacevir City","value":"828299","lat":40.76667,"lon":47,"poi_name":"Mingacevir City","parent_id":"587116","long":47},{"id":"828300","label":"Naftalan City","value":"828300","lat":40.50525,"lon":46.81163,"poi_name":"Naftalan City","parent_id":"587116","long":46.81163},{"id":"8411069","label":"Nakhchivan","value":"8411069","lat":39.2,"lon":45.41667,"poi_name":"Nakhchivan","parent_id":"587116","long":45.41667},{"id":"147435","label":"Nakhchivan Autonomous Republic","value":"147435","lat":39.20991,"lon":45.41817,"poi_name":"Nakhchivan Autonomous Republic","parent_id":"587116","long":45.41817},{"id":"147422","label":"Neftchala Rayon","value":"147422","lat":39.33333,"lon":49,"poi_name":"Neftchala Rayon","parent_id":"587116","long":49},{"id":"584742","label":"Oghuz Rayon","value":"584742","lat":41.08333,"lon":47.5,"poi_name":"Oghuz Rayon","parent_id":"587116","long":47.5},{"id":"585738","label":"Qabala Rayon","value":"585738","lat":40.91667,"lon":47.83333,"poi_name":"Qabala Rayon","parent_id":"587116","long":47.83333},{"id":"586290","label":"Qakh Rayon","value":"586290","lat":41.33333,"lon":46.75,"poi_name":"Qakh Rayon","parent_id":"587116","long":46.75},{"id":"586087","label":"Qazakh Rayon","value":"586087","lat":41.26,"lon":45.09,"poi_name":"Qazakh Rayon","parent_id":"587116","long":45.09},{"id":"585786","label":"Quba Rayon","value":"585786","lat":41.16667,"lon":48.41667,"poi_name":"Quba Rayon","parent_id":"587116","long":48.41667},{"id":"147694","label":"Qubadli Rayon","value":"147694","lat":39.33333,"lon":46.58333,"poi_name":"Qubadli Rayon","parent_id":"587116","long":46.58333},{"id":"585749","label":"Qusar Rayon","value":"585749","lat":41.41667,"lon":48.25,"poi_name":"Qusar Rayon","parent_id":"587116","long":48.25},{"id":"147287","label":"Saatly Rayon","value":"147287","lat":39.83333,"lon":48.41667,"poi_name":"Saatly Rayon","parent_id":"587116","long":48.41667},{"id":"147284","label":"Sabirabad Rayon","value":"147284","lat":39.91667,"lon":48.66667,"poi_name":"Sabirabad Rayon","parent_id":"587116","long":48.66667},{"id":"147269","label":"Salyan Rayon","value":"147269","lat":39.66667,"lon":49,"poi_name":"Salyan Rayon","parent_id":"587116","long":49},{"id":"828302","label":"Samukh Rayon","value":"828302","lat":40.91667,"lon":46.41667,"poi_name":"Samukh Rayon","parent_id":"587116","long":46.41667},{"id":"586725","label":"Shabran Rayon","value":"586725","lat":41.18542,"lon":48.8275,"poi_name":"Shabran Rayon","parent_id":"587116","long":48.8275},{"id":"585031","label":"Shaki Rayon","value":"585031","lat":41.08333,"lon":47.16667,"poi_name":"Shaki Rayon","parent_id":"587116","long":47.16667},{"id":"828303","label":"Shaki city","value":"828303","lat":41.18333,"lon":47.16667,"poi_name":"Shaki city","parent_id":"587116","long":47.16667},{"id":"585030","label":"Shamakhi Rayon","value":"585030","lat":40.58333,"lon":48.66667,"poi_name":"Shamakhi Rayon","parent_id":"587116","long":48.66667},{"id":"585059","label":"Shamkir Rayon","value":"585059","lat":40.83333,"lon":46.08333,"poi_name":"Shamkir Rayon","parent_id":"587116","long":46.08333},{"id":"409417","label":"Shirvan","value":"409417","lat":39.9604,"lon":48.88181,"poi_name":"Shirvan","parent_id":"587116","long":48.88181},{"id":"409419","label":"Shusha","value":"409419","lat":39.75,"lon":46.75,"poi_name":"Shusha","parent_id":"587116","long":46.75},{"id":"828304","label":"Siazan Rayon","value":"828304","lat":41,"lon":49.08333,"poi_name":"Siazan Rayon","parent_id":"587116","long":49.08333},{"id":"828305","label":"Sumqayit City","value":"828305","lat":40.59466,"lon":49.62799,"poi_name":"Sumqayit City","parent_id":"587116","long":49.62799},{"id":"409420","label":"Tartar Rayon","value":"409420","lat":40.33054,"lon":46.94289,"poi_name":"Tartar Rayon","parent_id":"587116","long":46.94289},{"id":"584861","label":"Tovuz Rayon","value":"584861","lat":41,"lon":45.75,"poi_name":"Tovuz Rayon","parent_id":"587116","long":45.75},{"id":"584783","label":"Ujar Rayon","value":"584783","lat":40.41667,"lon":47.75,"poi_name":"Ujar Rayon","parent_id":"587116","long":47.75},{"id":"409421","label":"Xankandi Sahari","value":"409421","lat":39.81744,"lon":46.75318,"poi_name":"Xankandi Sahari","parent_id":"587116","long":46.75318},{"id":"148449","label":"Xocal\u0131 Rayonu","value":"148449","lat":39.83333,"lon":46.75,"poi_name":"Xocal\u0131 Rayonu","parent_id":"587116","long":46.75},{"id":"146962","label":"Yardymli Rayon","value":"146962","lat":38.91667,"lon":48.25,"poi_name":"Yardymli Rayon","parent_id":"587116","long":48.25},{"id":"828307","label":"Yevlakh City","value":"828307","lat":40.58333,"lon":47.16667,"poi_name":"Yevlakh City","parent_id":"587116","long":47.16667},{"id":"584650","label":"Yevlakh Rayon","value":"584650","lat":40.66667,"lon":47,"poi_name":"Yevlakh Rayon","parent_id":"587116","long":47},{"id":"146900","label":"Zangilan Rayon","value":"146900","lat":39.08333,"lon":46.66667,"poi_name":"Zangilan Rayon","parent_id":"587116","long":46.66667},{"id":"584604","label":"Zaqatala Rayon","value":"584604","lat":41.58333,"lon":46.66667,"poi_name":"Zaqatala Rayon","parent_id":"587116","long":46.66667},{"id":"584583","label":"Zardab Rayon","value":"584583","lat":40.25,"lon":47.75,"poi_name":"Zardab Rayon","parent_id":"587116","long":47.75},{"id":"147163","label":"\u015eu\u015fa Rayonu","value":"147163","lat":39.66667,"lon":46.66667,"poi_name":"\u015eu\u015fa Rayonu","parent_id":"587116","long":46.66667}]