[{"id":"3373988","label":"Christ Church","value":"3373988","lat":13.08734,"lon":-59.52418,"poi_name":"Christ Church","parent_id":"3374084","long":-59.52418},{"id":"3373580","label":"Saint Andrew","value":"3373580","lat":13.23986,"lon":-59.5783,"poi_name":"Saint Andrew","parent_id":"3374084","long":-59.5783},{"id":"3373572","label":"Saint George","value":"3373572","lat":13.13933,"lon":-59.54345,"poi_name":"Saint George","parent_id":"3374084","long":-59.54345},{"id":"3373570","label":"Saint James","value":"3373570","lat":13.21183,"lon":-59.61956,"poi_name":"Saint James","parent_id":"3374084","long":-59.61956},{"id":"3373569","label":"Saint John","value":"3373569","lat":13.17581,"lon":-59.50303,"poi_name":"Saint John","parent_id":"3374084","long":-59.50303},{"id":"3373568","label":"Saint Joseph","value":"3373568","lat":13.2056,"lon":-59.54418,"poi_name":"Saint Joseph","parent_id":"3374084","long":-59.54418},{"id":"3373565","label":"Saint Lucy","value":"3373565","lat":13.30728,"lon":-59.61937,"poi_name":"Saint Lucy","parent_id":"3374084","long":-59.61937},{"id":"3373557","label":"Saint Michael","value":"3373557","lat":13.12633,"lon":-59.59817,"poi_name":"Saint Michael","parent_id":"3374084","long":-59.59817},{"id":"3373554","label":"Saint Peter","value":"3373554","lat":13.26096,"lon":-59.61585,"poi_name":"Saint Peter","parent_id":"3374084","long":-59.61585},{"id":"3373553","label":"Saint Philip","value":"3373553","lat":13.1339,"lon":-59.46402,"poi_name":"Saint Philip","parent_id":"3374084","long":-59.46402},{"id":"3373551","label":"Saint Thomas","value":"3373551","lat":13.17932,"lon":-59.58787,"poi_name":"Saint Thomas","parent_id":"3374084","long":-59.58787}]