[{"id":"2597271","label":"Alibori","value":"2597271","lat":11.33333,"lon":2.91667,"poi_name":"Alibori","parent_id":"2395170","long":2.91667},{"id":"2395524","label":"Atakora Department","value":"2395524","lat":10.75,"lon":1.66667,"poi_name":"Atakora Department","parent_id":"2395170","long":1.66667},{"id":"2395504","label":"Atlantique Department","value":"2395504","lat":6.66667,"lon":2.25,"poi_name":"Atlantique Department","parent_id":"2395170","long":2.25},{"id":"2394992","label":"Borgou Department","value":"2394992","lat":9.75,"lon":2.75,"poi_name":"Borgou Department","parent_id":"2395170","long":2.75},{"id":"2597272","label":"Collines Department","value":"2597272","lat":8,"lon":2.16667,"poi_name":"Collines Department","parent_id":"2395170","long":2.16667},{"id":"2597274","label":"Donga","value":"2597274","lat":9.33333,"lon":1.78333,"poi_name":"Donga","parent_id":"2395170","long":1.78333},{"id":"2392325","label":"D\u00e9partement de l\u2019Ou\u00e9m\u00e9","value":"2392325","lat":6.61667,"lon":2.51667,"poi_name":"D\u00e9partement de l\u2019Ou\u00e9m\u00e9","parent_id":"2395170","long":2.51667},{"id":"2597273","label":"Kouffo Department","value":"2597273","lat":7.08333,"lon":1.83333,"poi_name":"Kouffo Department","parent_id":"2395170","long":1.83333},{"id":"2597275","label":"Littoral","value":"2597275","lat":6.36667,"lon":2.41667,"poi_name":"Littoral","parent_id":"2395170","long":2.41667},{"id":"2392716","label":"Mono","value":"2392716","lat":6.58333,"lon":1.83333,"poi_name":"Mono","parent_id":"2395170","long":1.83333},{"id":"2597277","label":"Plateau Department","value":"2597277","lat":7.16667,"lon":2.58333,"poi_name":"Plateau Department","parent_id":"2395170","long":2.58333},{"id":"2390719","label":"Zou Department","value":"2390719","lat":7.25,"lon":2.16667,"poi_name":"Zou Department","parent_id":"2395170","long":2.16667}]