[{"id":"2572183","label":"Commune de Brazzaville","value":"2572183","lat":-4.2657,"lon":15.28048,"poi_name":"Commune de Brazzaville","parent_id":"2260494","long":15.28048},{"id":"2260487","label":"Cuvette","value":"2260487","lat":-0.5,"lon":16,"poi_name":"Cuvette","parent_id":"2260494","long":16},{"id":"2258431","label":"Likouala","value":"2258431","lat":2,"lon":17.5,"poi_name":"Likouala","parent_id":"2260494","long":17.5},{"id":"2258534","label":"L\u00e9koumou","value":"2258534","lat":-3.1,"lon":13.53333,"poi_name":"L\u00e9koumou","parent_id":"2260494","long":13.53333},{"id":"2255422","label":"Plateaux","value":"2255422","lat":-2,"lon":15.5,"poi_name":"Plateaux","parent_id":"2260494","long":15.5},{"id":"7280295","label":"Pointe-Noire","value":"7280295","lat":-4.79029,"lon":11.87622,"poi_name":"Pointe-Noire","parent_id":"2260494","long":11.87622},{"id":"2255404","label":"Pool","value":"2255404","lat":-3.53333,"lon":14.83333,"poi_name":"Pool","parent_id":"2260494","long":14.83333},{"id":"2260668","label":"R\u00e9gion de la Bouenza","value":"2260668","lat":-4.1629,"lon":13.71094,"poi_name":"R\u00e9gion de la Bouenza","parent_id":"2260494","long":13.71094},{"id":"2258738","label":"R\u00e9gion du Kouilou","value":"2258738","lat":-4.19577,"lon":11.99982,"poi_name":"R\u00e9gion du Kouilou","parent_id":"2260494","long":11.99982},{"id":"2256175","label":"R\u00e9gion du Niari","value":"2256175","lat":-3.01436,"lon":12.34863,"poi_name":"R\u00e9gion du Niari","parent_id":"2260494","long":12.34863},{"id":"2255329","label":"Sangha","value":"2255329","lat":1.33333,"lon":15.5,"poi_name":"Sangha","parent_id":"2260494","long":15.5}]