[
  {
    "id": "2622387",
    "label": "Eysturoyar s\u00fdsla",
    "value": "2622387",
    "lat": 62.21667,
    "lon": -6.86667,
    "poi_name": "Eysturoyar s\u00fdsla",
    "parent_id": "2622320",
    "long": -6.86667
  },
  {
    "id": "2616145",
    "label": "Nor\u00f0oyar s\u00fdsla",
    "value": "2616145",
    "lat": 62.28333,
    "lon": -6.58333,
    "poi_name": "Nor\u00f0oyar s\u00fdsla",
    "parent_id": "2622320",
    "long": -6.58333
  },
  {
    "id": "2614219",
    "label": "Sandoyar S\u00fdsla",
    "value": "2614219",
    "lat": 61.83333,
    "lon": -6.75,
    "poi_name": "Sandoyar S\u00fdsla",
    "parent_id": "2622320",
    "long": -6.75
  },
  {
    "id": "2612225",
    "label": "Streymoyar S\u00fdsla",
    "value": "2612225",
    "lat": 62.13333,
    "lon": -7,
    "poi_name": "Streymoyar S\u00fdsla",
    "parent_id": "2622320",
    "long": -7
  },
  {
    "id": "2612137",
    "label": "Su\u00f0uroyar s\u00fdsla",
    "value": "2612137",
    "lat": 61.48333,
    "lon": -6.81667,
    "poi_name": "Su\u00f0uroyar s\u00fdsla",
    "parent_id": "2622320",
    "long": -6.81667
  },
  {
    "id": "2610816",
    "label": "V\u00e1ga S\u00fdsla",
    "value": "2610816",
    "lat": 62.08333,
    "lon": -7.25,
    "poi_name": "V\u00e1ga S\u00fdsla",
    "parent_id": "2622320",
    "long": -7.25
  }
]
