[{"id":"7303836","label":"Carriacou and Petite Martinique","value":"7303836","lat":12.47303,"lon":-61.45379,"poi_name":"Carriacou and Petite Martinique","parent_id":"3580239","long":-61.45379},{"id":"3579938","label":"Saint Andrew","value":"3579938","lat":12.11667,"lon":-61.65,"poi_name":"Saint Andrew","parent_id":"3580239","long":-61.65},{"id":"3579932","label":"Saint David","value":"3579932","lat":12.05,"lon":-61.66667,"poi_name":"Saint David","parent_id":"3580239","long":-61.66667},{"id":"3579926","label":"Saint George","value":"3579926","lat":12.05,"lon":-61.73333,"poi_name":"Saint George","parent_id":"3580239","long":-61.73333},{"id":"3579919","label":"Saint John","value":"3579919","lat":12.13333,"lon":-61.71667,"poi_name":"Saint John","parent_id":"3580239","long":-61.71667},{"id":"3579913","label":"Saint Mark","value":"3579913","lat":12.18333,"lon":-61.68333,"poi_name":"Saint Mark","parent_id":"3580239","long":-61.68333},{"id":"3579907","label":"Saint Patrick","value":"3579907","lat":12.2,"lon":-61.63333,"poi_name":"Saint Patrick","parent_id":"3580239","long":-61.63333}]