[
  {
    "id": "200573",
    "label": "Baringo",
    "value": "200573",
    "lat": 0.66667,
    "lon": 36,
    "poi_name": "Baringo",
    "parent_id": "192950",
    "long": 36
  },
  {
    "id": "7667666",
    "label": "Bomet",
    "value": "7667666",
    "lat": -0.79,
    "lon": 35.35,
    "poi_name": "Bomet",
    "parent_id": "192950",
    "long": 35.35
  },
  {
    "id": "200066",
    "label": "Bungoma",
    "value": "200066",
    "lat": 0.66,
    "lon": 34.639,
    "poi_name": "Bungoma",
    "parent_id": "192950",
    "long": 34.639
  },
  {
    "id": "199987",
    "label": "Busia",
    "value": "199987",
    "lat": 0.35,
    "lon": 34.17,
    "poi_name": "Busia",
    "parent_id": "192950",
    "long": 34.17
  },
  {
    "id": "7667646",
    "label": "Elegeyo-Marakwet",
    "value": "7667646",
    "lat": 0.99,
    "lon": 35.55,
    "poi_name": "Elegeyo-Marakwet",
    "parent_id": "192950",
    "long": 35.55
  },
  {
    "id": "198474",
    "label": "Embu",
    "value": "198474",
    "lat": -0.425,
    "lon": 37.531,
    "poi_name": "Embu",
    "parent_id": "192950",
    "long": 37.531
  },
  {
    "id": "197744",
    "label": "Garissa",
    "value": "197744",
    "lat": -0.172,
    "lon": 40.041,
    "poi_name": "Garissa",
    "parent_id": "192950",
    "long": 40.041
  },
  {
    "id": "7667665",
    "label": "Homa Bay",
    "value": "7667665",
    "lat": -0.666,
    "lon": 34.481,
    "poi_name": "Homa Bay",
    "parent_id": "192950",
    "long": 34.481
  },
  {
    "id": "196228",
    "label": "Isiolo",
    "value": "196228",
    "lat": 0.98333,
    "lon": 38.53333,
    "poi_name": "Isiolo",
    "parent_id": "192950",
    "long": 38.53333
  },
  {
    "id": "7667657",
    "label": "Kajiado",
    "value": "7667657",
    "lat": -2.131,
    "lon": 36.878,
    "poi_name": "Kajiado",
    "parent_id": "192950",
    "long": 36.878
  },
  {
    "id": "195271",
    "label": "Kakamega",
    "value": "195271",
    "lat": 0.334,
    "lon": 34.797,
    "poi_name": "Kakamega",
    "parent_id": "192950",
    "long": 34.797
  },
  {
    "id": "192898",
    "label": "Kericho",
    "value": "192898",
    "lat": -0.273,
    "lon": 35.383,
    "poi_name": "Kericho",
    "parent_id": "192950",
    "long": 35.383
  },
  {
    "id": "192709",
    "label": "Kiambu",
    "value": "192709",
    "lat": -1.09,
    "lon": 36.699,
    "poi_name": "Kiambu",
    "parent_id": "192950",
    "long": 36.699
  },
  {
    "id": "192064",
    "label": "Kilifi",
    "value": "192064",
    "lat": -3.563,
    "lon": 39.644,
    "poi_name": "Kilifi",
    "parent_id": "192950",
    "long": 39.644
  },
  {
    "id": "191420",
    "label": "Kirinyaga",
    "value": "191420",
    "lat": -0.5,
    "lon": 37.33333,
    "poi_name": "Kirinyaga",
    "parent_id": "192950",
    "long": 37.33333
  },
  {
    "id": "191298",
    "label": "Kisii",
    "value": "191298",
    "lat": -0.75,
    "lon": 34.83333,
    "poi_name": "Kisii",
    "parent_id": "192950",
    "long": 34.83333
  },
  {
    "id": "191242",
    "label": "Kisumu",
    "value": "191242",
    "lat": -0.069,
    "lon": 34.64,
    "poi_name": "Kisumu",
    "parent_id": "192950",
    "long": 34.64
  },
  {
    "id": "191037",
    "label": "Kitui",
    "value": "191037",
    "lat": -1.835,
    "lon": 38.451,
    "poi_name": "Kitui",
    "parent_id": "192950",
    "long": 38.451
  },
  {
    "id": "190106",
    "label": "Kwale",
    "value": "190106",
    "lat": -4.13333,
    "lon": 39.2,
    "poi_name": "Kwale",
    "parent_id": "192950",
    "long": 39.2
  },
  {
    "id": "189794",
    "label": "Laikipia",
    "value": "189794",
    "lat": 0.33333,
    "lon": 36.76667,
    "poi_name": "Laikipia",
    "parent_id": "192950",
    "long": 36.76667
  },
  {
    "id": "7667643",
    "label": "Lamu",
    "value": "7667643",
    "lat": -2.28,
    "lon": 40.9,
    "poi_name": "Lamu",
    "parent_id": "192950",
    "long": 40.9
  },
  {
    "id": "7667644",
    "label": "Machakos",
    "value": "7667644",
    "lat": -1.282,
    "lon": 37.408,
    "poi_name": "Machakos",
    "parent_id": "192950",
    "long": 37.408
  },
  {
    "id": "7667645",
    "label": "Makueni",
    "value": "7667645",
    "lat": -2.222,
    "lon": 37.872,
    "poi_name": "Makueni",
    "parent_id": "192950",
    "long": 37.872
  },
  {
    "id": "187895",
    "label": "Mandera",
    "value": "187895",
    "lat": 3.36667,
    "lon": 40.7,
    "poi_name": "Mandera",
    "parent_id": "192950",
    "long": 40.7
  },
  {
    "id": "187583",
    "label": "Marsabit",
    "value": "187583",
    "lat": 2.96667,
    "lon": 37.6,
    "poi_name": "Marsabit",
    "parent_id": "192950",
    "long": 37.6
  },
  {
    "id": "7667678",
    "label": "Migori",
    "value": "7667678",
    "lat": -0.982,
    "lon": 34.409,
    "poi_name": "Migori",
    "parent_id": "192950",
    "long": 34.409
  },
  {
    "id": "186298",
    "label": "Mombasa",
    "value": "186298",
    "lat": -4.02,
    "lon": 39.66667,
    "poi_name": "Mombasa",
    "parent_id": "192950",
    "long": 39.66667
  },
  {
    "id": "185578",
    "label": "Murang'A",
    "value": "185578",
    "lat": -0.684,
    "lon": 36.994,
    "poi_name": "Murang'A",
    "parent_id": "192950",
    "long": 36.994
  },
  {
    "id": "184742",
    "label": "Nairobi",
    "value": "184742",
    "lat": -1.28333,
    "lon": 36.83333,
    "poi_name": "Nairobi",
    "parent_id": "192950",
    "long": 36.83333
  },
  {
    "id": "7668902",
    "label": "Nakuru",
    "value": "7668902",
    "lat": -0.48402,
    "lon": 36.17126,
    "poi_name": "Nakuru",
    "parent_id": "192950",
    "long": 36.17126
  },
  {
    "id": "8051212",
    "label": "Nandi",
    "value": "8051212",
    "lat": 0.055,
    "lon": 35.193,
    "poi_name": "Nandi",
    "parent_id": "192950",
    "long": 35.193
  },
  {
    "id": "7668904",
    "label": "Narok",
    "value": "7668904",
    "lat": -1.24076,
    "lon": 35.7356,
    "poi_name": "Narok",
    "parent_id": "192950",
    "long": 35.7356
  },
  {
    "id": "7806857",
    "label": "Nyamira",
    "value": "7806857",
    "lat": -0.75,
    "lon": 35,
    "poi_name": "Nyamira",
    "parent_id": "192950",
    "long": 35
  },
  {
    "id": "7603036",
    "label": "Nyandarua",
    "value": "7603036",
    "lat": -0.344,
    "lon": 36.5,
    "poi_name": "Nyandarua",
    "parent_id": "192950",
    "long": 36.5
  },
  {
    "id": "7667661",
    "label": "Nyeri",
    "value": "7667661",
    "lat": -0.42,
    "lon": 36.95,
    "poi_name": "Nyeri",
    "parent_id": "192950",
    "long": 36.95
  },
  {
    "id": "180782",
    "label": "Samburu",
    "value": "180782",
    "lat": 1.33333,
    "lon": 37.11667,
    "poi_name": "Samburu",
    "parent_id": "192950",
    "long": 37.11667
  },
  {
    "id": "180320",
    "label": "Siaya",
    "value": "180320",
    "lat": 0.105,
    "lon": 34.302,
    "poi_name": "Siaya",
    "parent_id": "192950",
    "long": 34.302
  },
  {
    "id": "7667652",
    "label": "Taita Taveta",
    "value": "7667652",
    "lat": -3.4,
    "lon": 38.37,
    "poi_name": "Taita Taveta",
    "parent_id": "192950",
    "long": 38.37
  },
  {
    "id": "179585",
    "label": "Tana River",
    "value": "179585",
    "lat": -1.53333,
    "lon": 39.41667,
    "poi_name": "Tana River",
    "parent_id": "192950",
    "long": 39.41667
  },
  {
    "id": "179380",
    "label": "Tharaka - Nithi",
    "value": "179380",
    "lat": -0.10094,
    "lon": 38.02883,
    "poi_name": "Tharaka - Nithi",
    "parent_id": "192950",
    "long": 38.02883
  },
  {
    "id": "179068",
    "label": "Trans Nzoia",
    "value": "179068",
    "lat": 1.045,
    "lon": 34.979,
    "poi_name": "Trans Nzoia",
    "parent_id": "192950",
    "long": 34.979
  },
  {
    "id": "178914",
    "label": "Turkana",
    "value": "178914",
    "lat": 3,
    "lon": 35.5,
    "poi_name": "Turkana",
    "parent_id": "192950",
    "long": 35.5
  },
  {
    "id": "178837",
    "label": "Uasin Gishu",
    "value": "178837",
    "lat": 0.5,
    "lon": 35.31667,
    "poi_name": "Uasin Gishu",
    "parent_id": "192950",
    "long": 35.31667
  },
  {
    "id": "7667638",
    "label": "Vihiga",
    "value": "7667638",
    "lat": 0.072,
    "lon": 34.712,
    "poi_name": "Vihiga",
    "parent_id": "192950",
    "long": 34.712
  },
  {
    "id": "178440",
    "label": "Wajir",
    "value": "178440",
    "lat": 1.75,
    "lon": 40.01667,
    "poi_name": "Wajir",
    "parent_id": "192950",
    "long": 40.01667
  },
  {
    "id": "178145",
    "label": "West Pokot",
    "value": "178145",
    "lat": 1.75,
    "lon": 35.25,
    "poi_name": "West Pokot",
    "parent_id": "192950",
    "long": 35.25
  }
]
