[
  {
    "id": "1838519",
    "label": "Busan",
    "value": "1838519",
    "lat": 35.13333,
    "lon": 129.05,
    "poi_name": "Busan",
    "parent_id": "1835841",
    "long": 129.05
  },
  {
    "id": "1845106",
    "label": "Chungcheongbuk-do",
    "value": "1845106",
    "lat": 36.82153,
    "lon": 127.65685,
    "poi_name": "Chungcheongbuk-do",
    "parent_id": "1835841",
    "long": 127.65685
  },
  {
    "id": "1845105",
    "label": "Chungcheongnam-do",
    "value": "1845105",
    "lat": 36.5,
    "lon": 127,
    "poi_name": "Chungcheongnam-do",
    "parent_id": "1835841",
    "long": 127
  },
  {
    "id": "1835327",
    "label": "Daegu",
    "value": "1835327",
    "lat": 35.8,
    "lon": 128.55,
    "poi_name": "Daegu",
    "parent_id": "1835841",
    "long": 128.55
  },
  {
    "id": "1835224",
    "label": "Daejeon",
    "value": "1835224",
    "lat": 36.33333,
    "lon": 127.41667,
    "poi_name": "Daejeon",
    "parent_id": "1835841",
    "long": 127.41667
  },
  {
    "id": "1843125",
    "label": "Gangwon-do",
    "value": "1843125",
    "lat": 37.75,
    "lon": 128.25,
    "poi_name": "Gangwon-do",
    "parent_id": "1835841",
    "long": 128.25
  },
  {
    "id": "1841808",
    "label": "Gwangju",
    "value": "1841808",
    "lat": 35.16667,
    "lon": 126.91667,
    "poi_name": "Gwangju",
    "parent_id": "1835841",
    "long": 126.91667
  },
  {
    "id": "1841610",
    "label": "Gyeonggi-do",
    "value": "1841610",
    "lat": 37.6,
    "lon": 127.25,
    "poi_name": "Gyeonggi-do",
    "parent_id": "1835841",
    "long": 127.25
  },
  {
    "id": "1841597",
    "label": "Gyeongsangbuk-do",
    "value": "1841597",
    "lat": 36.33333,
    "lon": 128.75,
    "poi_name": "Gyeongsangbuk-do",
    "parent_id": "1835841",
    "long": 128.75
  },
  {
    "id": "1902028",
    "label": "Gyeongsangnam-do",
    "value": "1902028",
    "lat": 35.25,
    "lon": 128.25,
    "poi_name": "Gyeongsangnam-do",
    "parent_id": "1835841",
    "long": 128.25
  },
  {
    "id": "1843561",
    "label": "Incheon",
    "value": "1843561",
    "lat": 37.46178,
    "lon": 126.70017,
    "poi_name": "Incheon",
    "parent_id": "1835841",
    "long": 126.70017
  },
  {
    "id": "1846265",
    "label": "Jeju-do",
    "value": "1846265",
    "lat": 33.41667,
    "lon": 126.5,
    "poi_name": "Jeju-do",
    "parent_id": "1835841",
    "long": 126.5
  },
  {
    "id": "1845789",
    "label": "Jeollabuk-do",
    "value": "1845789",
    "lat": 35.75,
    "lon": 127.25,
    "poi_name": "Jeollabuk-do",
    "parent_id": "1835841",
    "long": 127.25
  },
  {
    "id": "1845788",
    "label": "Jeollanam-do",
    "value": "1845788",
    "lat": 34.75,
    "lon": 127,
    "poi_name": "Jeollanam-do",
    "parent_id": "1835841",
    "long": 127
  },
  {
    "id": "8394437",
    "label": "Sejong-si",
    "value": "8394437",
    "lat": 36.59296,
    "lon": 127.29239,
    "poi_name": "Sejong-si",
    "parent_id": "1835841",
    "long": 127.29239
  },
  {
    "id": "1835847",
    "label": "Seoul",
    "value": "1835847",
    "lat": 37.58333,
    "lon": 127,
    "poi_name": "Seoul",
    "parent_id": "1835841",
    "long": 127
  },
  {
    "id": "1833742",
    "label": "Ulsan",
    "value": "1833742",
    "lat": 35.56667,
    "lon": 129.26667,
    "poi_name": "Ulsan",
    "parent_id": "1835841",
    "long": 129.26667
  }
]
