[
  {
    "id": "1249296",
    "label": "Central Province",
    "value": "1249296",
    "lat": 7.33333,
    "lon": 80.75,
    "poi_name": "Central Province",
    "parent_id": "1227603",
    "long": 80.75
  },
  {
    "id": "8133521",
    "label": "Eastern Province",
    "value": "8133521",
    "lat": 8.60614,
    "lon": 81.20201,
    "poi_name": "Eastern Province",
    "parent_id": "1227603",
    "long": 81.20201
  },
  {
    "id": "1232870",
    "label": "North Central Province",
    "value": "1232870",
    "lat": 8.33333,
    "lon": 80.5,
    "poi_name": "North Central Province",
    "parent_id": "1227603",
    "long": 80.5
  },
  {
    "id": "1232860",
    "label": "North Western Province",
    "value": "1232860",
    "lat": 7.75,
    "lon": 80.16667,
    "poi_name": "North Western Province",
    "parent_id": "1227603",
    "long": 80.16667
  },
  {
    "id": "7671049",
    "label": "Northern Province",
    "value": "7671049",
    "lat": 9.16667,
    "lon": 80.41667,
    "poi_name": "Northern Province",
    "parent_id": "1227603",
    "long": 80.41667
  },
  {
    "id": "1228435",
    "label": "Province of Sabaragamuwa",
    "value": "1228435",
    "lat": 6.75,
    "lon": 80.5,
    "poi_name": "Province of Sabaragamuwa",
    "parent_id": "1227603",
    "long": 80.5
  },
  {
    "id": "1225265",
    "label": "Province of Uva",
    "value": "1225265",
    "lat": 6.98472,
    "lon": 81.05639,
    "poi_name": "Province of Uva",
    "parent_id": "1227603",
    "long": 81.05639
  },
  {
    "id": "1227618",
    "label": "Southern Province",
    "value": "1227618",
    "lat": 6.16667,
    "lon": 80.75,
    "poi_name": "Southern Province",
    "parent_id": "1227603",
    "long": 80.75
  },
  {
    "id": "1223421",
    "label": "Western Province",
    "value": "1223421",
    "lat": 6.83333,
    "lon": 80.08333,
    "poi_name": "Western Province",
    "parent_id": "1227603",
    "long": 80.08333
  }
]
