[
  {
    "id": "2278324",
    "label": "Bomi County",
    "value": "2278324",
    "lat": 6.73333,
    "lon": -10.81667,
    "poi_name": "Bomi County",
    "parent_id": "2275384",
    "long": -10.81667
  },
  {
    "id": "2278292",
    "label": "Bong County",
    "value": "2278292",
    "lat": 6.96667,
    "lon": -9.63333,
    "poi_name": "Bong County",
    "parent_id": "2275384",
    "long": -9.63333
  },
  {
    "id": "2593119",
    "label": "Gbarpolu County",
    "value": "2593119",
    "lat": 7.36667,
    "lon": -10.31667,
    "poi_name": "Gbarpolu County",
    "parent_id": "2275384",
    "long": -10.31667
  },
  {
    "id": "2276630",
    "label": "Grand Bassa County",
    "value": "2276630",
    "lat": 6.23333,
    "lon": -9.83333,
    "poi_name": "Grand Bassa County",
    "parent_id": "2275384",
    "long": -9.83333
  },
  {
    "id": "2276627",
    "label": "Grand Cape Mount County",
    "value": "2276627",
    "lat": 7.13333,
    "lon": -11.05,
    "poi_name": "Grand Cape Mount County",
    "parent_id": "2275384",
    "long": -11.05
  },
  {
    "id": "2276622",
    "label": "Grand Gedeh County",
    "value": "2276622",
    "lat": 5.96667,
    "lon": -8.2,
    "poi_name": "Grand Gedeh County",
    "parent_id": "2275384",
    "long": -8.2
  },
  {
    "id": "2588490",
    "label": "Grand Kru County",
    "value": "2588490",
    "lat": 4.78333,
    "lon": -8.21667,
    "poi_name": "Grand Kru County",
    "parent_id": "2275384",
    "long": -8.21667
  },
  {
    "id": "2275344",
    "label": "Lofa County",
    "value": "2275344",
    "lat": 8.03333,
    "lon": -9.85,
    "poi_name": "Lofa County",
    "parent_id": "2275384",
    "long": -9.85
  },
  {
    "id": "2588491",
    "label": "Margibi County",
    "value": "2588491",
    "lat": 6.55,
    "lon": -10.31667,
    "poi_name": "Margibi County",
    "parent_id": "2275384",
    "long": -10.31667
  },
  {
    "id": "2275099",
    "label": "Maryland County",
    "value": "2275099",
    "lat": 4.75,
    "lon": -7.75,
    "poi_name": "Maryland County",
    "parent_id": "2275384",
    "long": -7.75
  },
  {
    "id": "2274890",
    "label": "Montserrado County",
    "value": "2274890",
    "lat": 6.5,
    "lon": -10.56667,
    "poi_name": "Montserrado County",
    "parent_id": "2275384",
    "long": -10.56667
  },
  {
    "id": "2274688",
    "label": "Nimba County",
    "value": "2274688",
    "lat": 6.81667,
    "lon": -8.78333,
    "poi_name": "Nimba County",
    "parent_id": "2275384",
    "long": -8.78333
  },
  {
    "id": "2588492",
    "label": "River Cess County",
    "value": "2588492",
    "lat": 5.91667,
    "lon": -9.36667,
    "poi_name": "River Cess County",
    "parent_id": "2275384",
    "long": -9.36667
  },
  {
    "id": "2593120",
    "label": "River Gee County",
    "value": "2593120",
    "lat": 5.31667,
    "lon": -7.8,
    "poi_name": "River Gee County",
    "parent_id": "2275384",
    "long": -7.8
  },
  {
    "id": "2273898",
    "label": "Sinoe County",
    "value": "2273898",
    "lat": 5.33333,
    "lon": -8.76667,
    "poi_name": "Sinoe County",
    "parent_id": "2275384",
    "long": -8.76667
  }
]
