[
  {
    "id": "617715",
    "label": "Anenii Noi",
    "value": "617715",
    "lat": 46.91667,
    "lon": 29.25,
    "poi_name": "Anenii Noi",
    "parent_id": "617790",
    "long": 29.25
  },
  {
    "id": "618565",
    "label": "Basarabeasca",
    "value": "618565",
    "lat": 46.41667,
    "lon": 28.91667,
    "poi_name": "Basarabeasca",
    "parent_id": "617790",
    "long": 28.91667
  },
  {
    "id": "618511",
    "label": "Briceni",
    "value": "618511",
    "lat": 48.25,
    "lon": 27,
    "poi_name": "Briceni",
    "parent_id": "617790",
    "long": 27
  },
  {
    "id": "618142",
    "label": "Cantemir",
    "value": "618142",
    "lat": 46.25,
    "lon": 28.33333,
    "poi_name": "Cantemir",
    "parent_id": "617790",
    "long": 28.33333
  },
  {
    "id": "618430",
    "label": "Cimi\u015flia",
    "value": "618430",
    "lat": 46.58333,
    "lon": 28.83333,
    "poi_name": "Cimi\u015flia",
    "parent_id": "617790",
    "long": 28.83333
  },
  {
    "id": "617962",
    "label": "Criuleni",
    "value": "617962",
    "lat": 47.15861,
    "lon": 29.03065,
    "poi_name": "Criuleni",
    "parent_id": "617790",
    "long": 29.03065
  },
  {
    "id": "618381",
    "label": "Dondu\u015feni",
    "value": "618381",
    "lat": 48.2677,
    "lon": 27.68616,
    "poi_name": "Dondu\u015feni",
    "parent_id": "617790",
    "long": 27.68616
  },
  {
    "id": "618331",
    "label": "Flore\u015fti",
    "value": "618331",
    "lat": 47.87398,
    "lon": 28.37775,
    "poi_name": "Flore\u015fti",
    "parent_id": "617790",
    "long": 28.37775
  },
  {
    "id": "618345",
    "label": "F\u0103le\u015fti",
    "value": "618345",
    "lat": 47.58333,
    "lon": 27.75,
    "poi_name": "F\u0103le\u015fti",
    "parent_id": "617790",
    "long": 27.75
  },
  {
    "id": "618260",
    "label": "Glodeni",
    "value": "618260",
    "lat": 47.75,
    "lon": 27.5,
    "poi_name": "Glodeni",
    "parent_id": "617790",
    "long": 27.5
  },
  {
    "id": "858895",
    "label": "G\u0103g\u0103uzia",
    "value": "858895",
    "lat": 46.16667,
    "lon": 28.66667,
    "poi_name": "G\u0103g\u0103uzia",
    "parent_id": "617790",
    "long": 28.66667
  },
  {
    "id": "858803",
    "label": "H\u00eence\u015fti",
    "value": "858803",
    "lat": 46.83333,
    "lon": 28.41667,
    "poi_name": "H\u00eence\u015fti",
    "parent_id": "617790",
    "long": 28.41667
  },
  {
    "id": "617991",
    "label": "Ialoveni",
    "value": "617991",
    "lat": 46.83333,
    "lon": 28.83333,
    "poi_name": "Ialoveni",
    "parent_id": "617790",
    "long": 28.83333
  },
  {
    "id": "617903",
    "label": "Leova",
    "value": "617903",
    "lat": 46.5,
    "lon": 28.41667,
    "poi_name": "Leova",
    "parent_id": "617790",
    "long": 28.41667
  },
  {
    "id": "861487",
    "label": "Municipiul Bender",
    "value": "861487",
    "lat": 46.83333,
    "lon": 29.45,
    "poi_name": "Municipiul Bender",
    "parent_id": "617790",
    "long": 29.45
  },
  {
    "id": "873909",
    "label": "Municipiul B\u0103l\u0163i",
    "value": "873909",
    "lat": 47.78333,
    "lon": 27.91667,
    "poi_name": "Municipiul B\u0103l\u0163i",
    "parent_id": "617790",
    "long": 27.91667
  },
  {
    "id": "618069",
    "label": "Municipiul Chi\u015fin\u0103u",
    "value": "618069",
    "lat": 47,
    "lon": 28.83333,
    "poi_name": "Municipiul Chi\u015fin\u0103u",
    "parent_id": "617790",
    "long": 28.83333
  },
  {
    "id": "617754",
    "label": "Nisporeni",
    "value": "617754",
    "lat": 47.08333,
    "lon": 28.16667,
    "poi_name": "Nisporeni",
    "parent_id": "617790",
    "long": 28.16667
  },
  {
    "id": "617639",
    "label": "Orhei",
    "value": "617639",
    "lat": 47.41667,
    "lon": 28.83333,
    "poi_name": "Orhei",
    "parent_id": "617790",
    "long": 28.83333
  },
  {
    "id": "618164",
    "label": "Raionul Cahul",
    "value": "618164",
    "lat": 45.83333,
    "lon": 28.33333,
    "poi_name": "Raionul Cahul",
    "parent_id": "617790",
    "long": 28.33333
  },
  {
    "id": "618162",
    "label": "Raionul C\u0103l\u0103ra\u015fi",
    "value": "618162",
    "lat": 47.29365,
    "lon": 28.30836,
    "poi_name": "Raionul C\u0103l\u0103ra\u015fi",
    "parent_id": "617790",
    "long": 28.30836
  },
  {
    "id": "618119",
    "label": "Raionul C\u0103u\u015feni",
    "value": "618119",
    "lat": 46.61884,
    "lon": 29.3135,
    "poi_name": "Raionul C\u0103u\u015feni",
    "parent_id": "617790",
    "long": 29.3135
  },
  {
    "id": "618369",
    "label": "Raionul Drochia",
    "value": "618369",
    "lat": 48.08333,
    "lon": 27.83333,
    "poi_name": "Raionul Drochia",
    "parent_id": "617790",
    "long": 27.83333
  },
  {
    "id": "618363",
    "label": "Raionul Dub\u0103sari",
    "value": "618363",
    "lat": 47.25,
    "lon": 29.11667,
    "poi_name": "Raionul Dub\u0103sari",
    "parent_id": "617790",
    "long": 29.11667
  },
  {
    "id": "617077",
    "label": "Raionul Edine\u0163",
    "value": "617077",
    "lat": 48.16667,
    "lon": 27.25,
    "poi_name": "Raionul Edine\u0163",
    "parent_id": "617790",
    "long": 27.25
  },
  {
    "id": "617656",
    "label": "Raionul Ocni\u0163a",
    "value": "617656",
    "lat": 48.41667,
    "lon": 27.5,
    "poi_name": "Raionul Ocni\u0163a",
    "parent_id": "617790",
    "long": 27.5
  },
  {
    "id": "617366",
    "label": "Raionul Soroca",
    "value": "617366",
    "lat": 48.16667,
    "lon": 28.25,
    "poi_name": "Raionul Soroca",
    "parent_id": "617790",
    "long": 28.25
  },
  {
    "id": "617301",
    "label": "Raionul Str\u0103\u015feni",
    "value": "617301",
    "lat": 47.16667,
    "lon": 28.58333,
    "poi_name": "Raionul Str\u0103\u015feni",
    "parent_id": "617790",
    "long": 28.58333
  },
  {
    "id": "617181",
    "label": "Raionul Ungheni",
    "value": "617181",
    "lat": 47.33333,
    "lon": 27.91667,
    "poi_name": "Raionul Ungheni",
    "parent_id": "617790",
    "long": 27.91667
  },
  {
    "id": "617283",
    "label": "Raionul \u015etefan Vod\u0103",
    "value": "617283",
    "lat": 46.5,
    "lon": 29.66667,
    "poi_name": "Raionul \u015etefan Vod\u0103",
    "parent_id": "617790",
    "long": 29.66667
  },
  {
    "id": "617501",
    "label": "Rezina",
    "value": "617501",
    "lat": 47.66667,
    "lon": 28.83333,
    "poi_name": "Rezina",
    "parent_id": "617790",
    "long": 28.83333
  },
  {
    "id": "617483",
    "label": "R\u00ee\u015fcani",
    "value": "617483",
    "lat": 47.92778,
    "lon": 27.53509,
    "poi_name": "R\u00ee\u015fcani",
    "parent_id": "617790",
    "long": 27.53509
  },
  {
    "id": "617913",
    "label": "S\u00eengerei",
    "value": "617913",
    "lat": 47.66667,
    "lon": 28.16667,
    "poi_name": "S\u00eengerei",
    "parent_id": "617790",
    "long": 28.16667
  },
  {
    "id": "617264",
    "label": "Taraclia",
    "value": "617264",
    "lat": 45.91667,
    "lon": 28.58333,
    "poi_name": "Taraclia",
    "parent_id": "617790",
    "long": 28.58333
  },
  {
    "id": "617255",
    "label": "Telene\u015fti",
    "value": "617255",
    "lat": 47.58333,
    "lon": 28.5,
    "poi_name": "Telene\u015fti",
    "parent_id": "617790",
    "long": 28.5
  },
  {
    "id": "858889",
    "label": "Unitatea Teritorial\u0103 din St\u00eenga Nistrului",
    "value": "858889",
    "lat": 47.36667,
    "lon": 29.25,
    "poi_name": "Unitatea Teritorial\u0103 din St\u00eenga Nistrului",
    "parent_id": "617790",
    "long": 29.25
  },
  {
    "id": "858808",
    "label": "\u015eold\u0103ne\u015fti",
    "value": "858808",
    "lat": 47.83333,
    "lon": 28.66667,
    "poi_name": "\u015eold\u0103ne\u015fti",
    "parent_id": "617790",
    "long": 28.66667
  }
]
