[
  {
    "id": "3343959",
    "label": "Andrijevica",
    "value": "3343959",
    "lat": 42.71833,
    "lon": 19.75861,
    "poi_name": "Andrijevica",
    "parent_id": "3194884",
    "long": 19.75861
  },
  {
    "id": "3204508",
    "label": "Bar",
    "value": "3204508",
    "lat": 42.16667,
    "lon": 19.16667,
    "poi_name": "Bar",
    "parent_id": "3194884",
    "long": 19.16667
  },
  {
    "id": "3199070",
    "label": "Berane",
    "value": "3199070",
    "lat": 42.83907,
    "lon": 19.87066,
    "poi_name": "Berane",
    "parent_id": "3194884",
    "long": 19.87066
  },
  {
    "id": "3204173",
    "label": "Bijelo Polje",
    "value": "3204173",
    "lat": 43.04472,
    "lon": 19.74333,
    "poi_name": "Bijelo Polje",
    "parent_id": "3194884",
    "long": 19.74333
  },
  {
    "id": "3203104",
    "label": "Budva",
    "value": "3203104",
    "lat": 42.3,
    "lon": 18.84139,
    "poi_name": "Budva",
    "parent_id": "3194884",
    "long": 18.84139
  },
  {
    "id": "3202640",
    "label": "Cetinje",
    "value": "3202640",
    "lat": 42.4,
    "lon": 18.91972,
    "poi_name": "Cetinje",
    "parent_id": "3194884",
    "long": 18.91972
  },
  {
    "id": "3202193",
    "label": "Danilovgrad",
    "value": "3202193",
    "lat": 42.55861,
    "lon": 19.09111,
    "poi_name": "Danilovgrad",
    "parent_id": "3194884",
    "long": 19.09111
  },
  {
    "id": "11497642",
    "label": "Gusinje",
    "value": "11497642",
    "lat": 42.55714,
    "lon": 19.83368,
    "poi_name": "Gusinje",
    "parent_id": "3194884",
    "long": 19.83368
  },
  {
    "id": "3199393",
    "label": "Herceg Novi",
    "value": "3199393",
    "lat": 42.50667,
    "lon": 18.5375,
    "poi_name": "Herceg Novi",
    "parent_id": "3194884",
    "long": 18.5375
  },
  {
    "id": "3197537",
    "label": "Kotor",
    "value": "3197537",
    "lat": 42.43333,
    "lon": 18.76667,
    "poi_name": "Kotor",
    "parent_id": "3194884",
    "long": 18.76667
  },
  {
    "id": "3194925",
    "label": "Mojkovac",
    "value": "3194925",
    "lat": 42.95917,
    "lon": 19.58833,
    "poi_name": "Mojkovac",
    "parent_id": "3194884",
    "long": 19.58833
  },
  {
    "id": "3197895",
    "label": "Op\u0161tina Kola\u0161in",
    "value": "3197895",
    "lat": 42.83722,
    "lon": 19.51556,
    "poi_name": "Op\u0161tina Kola\u0161in",
    "parent_id": "3194884",
    "long": 19.51556
  },
  {
    "id": "3194493",
    "label": "Op\u0161tina Nik\u0161i\u0107",
    "value": "3194493",
    "lat": 42.79944,
    "lon": 18.92028,
    "poi_name": "Op\u0161tina Nik\u0161i\u0107",
    "parent_id": "3194884",
    "long": 18.92028
  },
  {
    "id": "3193227",
    "label": "Op\u0161tina Plav",
    "value": "3193227",
    "lat": 42.58611,
    "lon": 19.92833,
    "poi_name": "Op\u0161tina Plav",
    "parent_id": "3194884",
    "long": 19.92833
  },
  {
    "id": "3193129",
    "label": "Op\u0161tina Plu\u017eine",
    "value": "3193129",
    "lat": 43.17417,
    "lon": 18.81694,
    "poi_name": "Op\u0161tina Plu\u017eine",
    "parent_id": "3194884",
    "long": 18.81694
  },
  {
    "id": "786233",
    "label": "Op\u0161tina Ro\u017eaje",
    "value": "786233",
    "lat": 42.84278,
    "lon": 20.15028,
    "poi_name": "Op\u0161tina Ro\u017eaje",
    "parent_id": "3194884",
    "long": 20.15028
  },
  {
    "id": "3191221",
    "label": "Op\u0161tina \u0160avnik",
    "value": "3191221",
    "lat": 42.95639,
    "lon": 19.09389,
    "poi_name": "Op\u0161tina \u0160avnik",
    "parent_id": "3194884",
    "long": 19.09389
  },
  {
    "id": "3186995",
    "label": "Op\u0161tina \u017dabljak",
    "value": "3186995",
    "lat": 43.15722,
    "lon": 19.12333,
    "poi_name": "Op\u0161tina \u017dabljak",
    "parent_id": "3194884",
    "long": 19.12333
  },
  {
    "id": "11497643",
    "label": "Petnjica",
    "value": "11497643",
    "lat": 42.947,
    "lon": 20.01397,
    "poi_name": "Petnjica",
    "parent_id": "3194884",
    "long": 20.01397
  },
  {
    "id": "3193160",
    "label": "Pljevlja",
    "value": "3193160",
    "lat": 43.33333,
    "lon": 19.33333,
    "poi_name": "Pljevlja",
    "parent_id": "3194884",
    "long": 19.33333
  },
  {
    "id": "3189077",
    "label": "Podgorica",
    "value": "3189077",
    "lat": 42.5,
    "lon": 19.33333,
    "poi_name": "Podgorica",
    "parent_id": "3194884",
    "long": 19.33333
  },
  {
    "id": "3189071",
    "label": "Tivat",
    "value": "3189071",
    "lat": 42.40556,
    "lon": 18.65306,
    "poi_name": "Tivat",
    "parent_id": "3194884",
    "long": 18.65306
  },
  {
    "id": "3188514",
    "label": "Ulcinj",
    "value": "3188514",
    "lat": 41.95528,
    "lon": 19.26833,
    "poi_name": "Ulcinj",
    "parent_id": "3194884",
    "long": 19.26833
  }
]
