[
  {
    "id": "2565340",
    "label": "Abia State",
    "value": "2565340",
    "lat": 5.41667,
    "lon": 7.5,
    "poi_name": "Abia State",
    "parent_id": "2328926",
    "long": 7.5
  },
  {
    "id": "2565342",
    "label": "Adamawa State",
    "value": "2565342",
    "lat": 9.33333,
    "lon": 12.5,
    "poi_name": "Adamawa State",
    "parent_id": "2328926",
    "long": 12.5
  },
  {
    "id": "2350813",
    "label": "Akwa Ibom State",
    "value": "2350813",
    "lat": 5,
    "lon": 7.83333,
    "poi_name": "Akwa Ibom State",
    "parent_id": "2328926",
    "long": 7.83333
  },
  {
    "id": "2349961",
    "label": "Anambra State",
    "value": "2349961",
    "lat": 6.33333,
    "lon": 7,
    "poi_name": "Anambra State",
    "parent_id": "2328926",
    "long": 7
  },
  {
    "id": "2347468",
    "label": "Bauchi State",
    "value": "2347468",
    "lat": 10.5,
    "lon": 10,
    "poi_name": "Bauchi State",
    "parent_id": "2328926",
    "long": 10
  },
  {
    "id": "2595344",
    "label": "Bayelsa State",
    "value": "2595344",
    "lat": 4.75,
    "lon": 6.08333,
    "poi_name": "Bayelsa State",
    "parent_id": "2328926",
    "long": 6.08333
  },
  {
    "id": "2347266",
    "label": "Benue State",
    "value": "2347266",
    "lat": 7.33333,
    "lon": 8.75,
    "poi_name": "Benue State",
    "parent_id": "2328926",
    "long": 8.75
  },
  {
    "id": "2346794",
    "label": "Borno State",
    "value": "2346794",
    "lat": 11.5,
    "lon": 13,
    "poi_name": "Borno State",
    "parent_id": "2328926",
    "long": 13
  },
  {
    "id": "2345891",
    "label": "Cross River State",
    "value": "2345891",
    "lat": 5.75,
    "lon": 8.5,
    "poi_name": "Cross River State",
    "parent_id": "2328926",
    "long": 8.5
  },
  {
    "id": "2565341",
    "label": "Delta State",
    "value": "2565341",
    "lat": 5.5,
    "lon": 6,
    "poi_name": "Delta State",
    "parent_id": "2328926",
    "long": 6
  },
  {
    "id": "2595345",
    "label": "Ebonyi State",
    "value": "2595345",
    "lat": 6.25,
    "lon": 8.08333,
    "poi_name": "Ebonyi State",
    "parent_id": "2328926",
    "long": 8.08333
  },
  {
    "id": "2565343",
    "label": "Edo",
    "value": "2565343",
    "lat": 6.5,
    "lon": 6,
    "poi_name": "Edo",
    "parent_id": "2328926",
    "long": 6
  },
  {
    "id": "2595346",
    "label": "Ekiti State",
    "value": "2595346",
    "lat": 7.66667,
    "lon": 5.25,
    "poi_name": "Ekiti State",
    "parent_id": "2328926",
    "long": 5.25
  },
  {
    "id": "2565344",
    "label": "Enugu State",
    "value": "2565344",
    "lat": 6.5,
    "lon": 7.5,
    "poi_name": "Enugu State",
    "parent_id": "2328926",
    "long": 7.5
  },
  {
    "id": "2352776",
    "label": "Federal Capital Territory",
    "value": "2352776",
    "lat": 8.83333,
    "lon": 7.16667,
    "poi_name": "Federal Capital Territory",
    "parent_id": "2328926",
    "long": 7.16667
  },
  {
    "id": "2595347",
    "label": "Gombe State",
    "value": "2595347",
    "lat": 10.25,
    "lon": 11.16667,
    "poi_name": "Gombe State",
    "parent_id": "2328926",
    "long": 11.16667
  },
  {
    "id": "2337542",
    "label": "Imo State",
    "value": "2337542",
    "lat": 5.5,
    "lon": 7.16667,
    "poi_name": "Imo State",
    "parent_id": "2328926",
    "long": 7.16667
  },
  {
    "id": "2565345",
    "label": "Jigawa State",
    "value": "2565345",
    "lat": 12.1,
    "lon": 9.56,
    "poi_name": "Jigawa State",
    "parent_id": "2328926",
    "long": 9.56
  },
  {
    "id": "2335722",
    "label": "Kaduna State",
    "value": "2335722",
    "lat": 10.33333,
    "lon": 7.75,
    "poi_name": "Kaduna State",
    "parent_id": "2328926",
    "long": 7.75
  },
  {
    "id": "2335196",
    "label": "Kano State",
    "value": "2335196",
    "lat": 11.5,
    "lon": 8.5,
    "poi_name": "Kano State",
    "parent_id": "2328926",
    "long": 8.5
  },
  {
    "id": "2334797",
    "label": "Katsina State",
    "value": "2334797",
    "lat": 12.25,
    "lon": 7.5,
    "poi_name": "Katsina State",
    "parent_id": "2328926",
    "long": 7.5
  },
  {
    "id": "2597363",
    "label": "Kebbi State",
    "value": "2597363",
    "lat": 11.5,
    "lon": 4,
    "poi_name": "Kebbi State",
    "parent_id": "2328926",
    "long": 4
  },
  {
    "id": "2597364",
    "label": "Kogi State",
    "value": "2597364",
    "lat": 7.75,
    "lon": 6.75,
    "poi_name": "Kogi State",
    "parent_id": "2328926",
    "long": 6.75
  },
  {
    "id": "2332785",
    "label": "Kwara State",
    "value": "2332785",
    "lat": 8.5,
    "lon": 5,
    "poi_name": "Kwara State",
    "parent_id": "2328926",
    "long": 5
  },
  {
    "id": "2332453",
    "label": "Lagos State",
    "value": "2332453",
    "lat": 6.53774,
    "lon": 3.3522,
    "poi_name": "Lagos State",
    "parent_id": "2328926",
    "long": 3.3522
  },
  {
    "id": "2595348",
    "label": "Nasarawa State",
    "value": "2595348",
    "lat": 8.5,
    "lon": 8.25,
    "poi_name": "Nasarawa State",
    "parent_id": "2328926",
    "long": 8.25
  },
  {
    "id": "2328925",
    "label": "Niger State",
    "value": "2328925",
    "lat": 10,
    "lon": 6,
    "poi_name": "Niger State",
    "parent_id": "2328926",
    "long": 6
  },
  {
    "id": "2327546",
    "label": "Ogun State",
    "value": "2327546",
    "lat": 7,
    "lon": 3.58333,
    "poi_name": "Ogun State",
    "parent_id": "2328926",
    "long": 3.58333
  },
  {
    "id": "2326168",
    "label": "Ondo State",
    "value": "2326168",
    "lat": 7.16667,
    "lon": 5.08333,
    "poi_name": "Ondo State",
    "parent_id": "2328926",
    "long": 5.08333
  },
  {
    "id": "2597365",
    "label": "Osun State",
    "value": "2597365",
    "lat": 7.5,
    "lon": 4.5,
    "poi_name": "Osun State",
    "parent_id": "2328926",
    "long": 4.5
  },
  {
    "id": "2325190",
    "label": "Oyo State",
    "value": "2325190",
    "lat": 8,
    "lon": 4,
    "poi_name": "Oyo State",
    "parent_id": "2328926",
    "long": 4
  },
  {
    "id": "2324828",
    "label": "Plateau State",
    "value": "2324828",
    "lat": 9.16667,
    "lon": 9.75,
    "poi_name": "Plateau State",
    "parent_id": "2328926",
    "long": 9.75
  },
  {
    "id": "2324433",
    "label": "Rivers State",
    "value": "2324433",
    "lat": 4.74974,
    "lon": 6.82766,
    "poi_name": "Rivers State",
    "parent_id": "2328926",
    "long": 6.82766
  },
  {
    "id": "2322907",
    "label": "Sokoto State",
    "value": "2322907",
    "lat": 13.08333,
    "lon": 5.25,
    "poi_name": "Sokoto State",
    "parent_id": "2328926",
    "long": 5.25
  },
  {
    "id": "2597366",
    "label": "Taraba State",
    "value": "2597366",
    "lat": 8,
    "lon": 10.5,
    "poi_name": "Taraba State",
    "parent_id": "2328926",
    "long": 10.5
  },
  {
    "id": "2597367",
    "label": "Yobe State",
    "value": "2597367",
    "lat": 12,
    "lon": 11.5,
    "poi_name": "Yobe State",
    "parent_id": "2328926",
    "long": 11.5
  },
  {
    "id": "2595349",
    "label": "Zamfara State",
    "value": "2595349",
    "lat": 12.16667,
    "lon": 6.25,
    "poi_name": "Zamfara State",
    "parent_id": "2328926",
    "long": 6.25
  }
]
