[
  {
    "id": "1609348",
    "label": "Bangkok",
    "value": "1609348",
    "lat": 13.87719,
    "lon": 100.71991,
    "poi_name": "Bangkok",
    "parent_id": "1605651",
    "long": 100.71991
  },
  {
    "id": "1906689",
    "label": "Changwat Amnat Charoen",
    "value": "1906689",
    "lat": 15.91667,
    "lon": 104.75,
    "poi_name": "Changwat Amnat Charoen",
    "parent_id": "1605651",
    "long": 104.75
  },
  {
    "id": "1621034",
    "label": "Changwat Ang Thong",
    "value": "1621034",
    "lat": 14.6105,
    "lon": 100.35845,
    "poi_name": "Changwat Ang Thong",
    "parent_id": "1605651",
    "long": 100.35845
  },
  {
    "id": "8133594",
    "label": "Changwat Bueng Kan",
    "value": "8133594",
    "lat": 18.16228,
    "lon": 103.75085,
    "poi_name": "Changwat Bueng Kan",
    "parent_id": "1605651",
    "long": 103.75085
  },
  {
    "id": "1611452",
    "label": "Changwat Buri Ram",
    "value": "1611452",
    "lat": 14.84823,
    "lon": 102.99332,
    "poi_name": "Changwat Buri Ram",
    "parent_id": "1605651",
    "long": 102.99332
  },
  {
    "id": "1611438",
    "label": "Changwat Chachoengsao",
    "value": "1611438",
    "lat": 13.63105,
    "lon": 101.41666,
    "poi_name": "Changwat Chachoengsao",
    "parent_id": "1605651",
    "long": 101.41666
  },
  {
    "id": "1611415",
    "label": "Changwat Chai Nat",
    "value": "1611415",
    "lat": 15.11667,
    "lon": 100.1,
    "poi_name": "Changwat Chai Nat",
    "parent_id": "1605651",
    "long": 100.1
  },
  {
    "id": "1611406",
    "label": "Changwat Chaiyaphum",
    "value": "1611406",
    "lat": 16.01804,
    "lon": 101.81249,
    "poi_name": "Changwat Chaiyaphum",
    "parent_id": "1605651",
    "long": 101.81249
  },
  {
    "id": "1611268",
    "label": "Changwat Chanthaburi",
    "value": "1611268",
    "lat": 12.85798,
    "lon": 102.15434,
    "poi_name": "Changwat Chanthaburi",
    "parent_id": "1605651",
    "long": 102.15434
  },
  {
    "id": "1153668",
    "label": "Changwat Chiang Rai",
    "value": "1153668",
    "lat": 19.91667,
    "lon": 99.91667,
    "poi_name": "Changwat Chiang Rai",
    "parent_id": "1605651",
    "long": 99.91667
  },
  {
    "id": "1611108",
    "label": "Changwat Chon Buri",
    "value": "1611108",
    "lat": 13.3,
    "lon": 101.3,
    "poi_name": "Changwat Chon Buri",
    "parent_id": "1605651",
    "long": 101.3
  },
  {
    "id": "1153555",
    "label": "Changwat Chumphon",
    "value": "1153555",
    "lat": 10.4,
    "lon": 99.06667,
    "poi_name": "Changwat Chumphon",
    "parent_id": "1605651",
    "long": 99.06667
  },
  {
    "id": "1610468",
    "label": "Changwat Kalasin",
    "value": "1610468",
    "lat": 16.5,
    "lon": 103.5,
    "poi_name": "Changwat Kalasin",
    "parent_id": "1605651",
    "long": 103.5
  },
  {
    "id": "1153089",
    "label": "Changwat Kamphaeng Phet",
    "value": "1153089",
    "lat": 16.25,
    "lon": 99.5,
    "poi_name": "Changwat Kamphaeng Phet",
    "parent_id": "1605651",
    "long": 99.5
  },
  {
    "id": "1153080",
    "label": "Changwat Kanchanaburi",
    "value": "1153080",
    "lat": 14.63333,
    "lon": 99.1,
    "poi_name": "Changwat Kanchanaburi",
    "parent_id": "1605651",
    "long": 99.1
  },
  {
    "id": "1609775",
    "label": "Changwat Khon Kaen",
    "value": "1609775",
    "lat": 16.43056,
    "lon": 102.61667,
    "poi_name": "Changwat Khon Kaen",
    "parent_id": "1605651",
    "long": 102.61667
  },
  {
    "id": "1152631",
    "label": "Changwat Krabi",
    "value": "1152631",
    "lat": 8.19793,
    "lon": 99.00859,
    "poi_name": "Changwat Krabi",
    "parent_id": "1605651",
    "long": 99.00859
  },
  {
    "id": "1152472",
    "label": "Changwat Lampang",
    "value": "1152472",
    "lat": 18.33333,
    "lon": 99.5,
    "poi_name": "Changwat Lampang",
    "parent_id": "1605651",
    "long": 99.5
  },
  {
    "id": "1152467",
    "label": "Changwat Lamphun",
    "value": "1152467",
    "lat": 18.25,
    "lon": 98.91667,
    "poi_name": "Changwat Lamphun",
    "parent_id": "1605651",
    "long": 98.91667
  },
  {
    "id": "1609070",
    "label": "Changwat Loei",
    "value": "1609070",
    "lat": 17.41667,
    "lon": 101.5,
    "poi_name": "Changwat Loei",
    "parent_id": "1605651",
    "long": 101.5
  },
  {
    "id": "1609031",
    "label": "Changwat Lop Buri",
    "value": "1609031",
    "lat": 15.12191,
    "lon": 100.88605,
    "poi_name": "Changwat Lop Buri",
    "parent_id": "1605651",
    "long": 100.88605
  },
  {
    "id": "1152221",
    "label": "Changwat Mae Hong Son",
    "value": "1152221",
    "lat": 18.75,
    "lon": 97.91667,
    "poi_name": "Changwat Mae Hong Son",
    "parent_id": "1605651",
    "long": 97.91667
  },
  {
    "id": "1608899",
    "label": "Changwat Maha Sarakham",
    "value": "1608899",
    "lat": 16.00571,
    "lon": 103.17233,
    "poi_name": "Changwat Maha Sarakham",
    "parent_id": "1605651",
    "long": 103.17233
  },
  {
    "id": "1608595",
    "label": "Changwat Mukdahan",
    "value": "1608595",
    "lat": 16.58333,
    "lon": 104.5,
    "poi_name": "Changwat Mukdahan",
    "parent_id": "1605651",
    "long": 104.5
  },
  {
    "id": "1608538",
    "label": "Changwat Nakhon Nayok",
    "value": "1608538",
    "lat": 14.16667,
    "lon": 101.1,
    "poi_name": "Changwat Nakhon Nayok",
    "parent_id": "1605651",
    "long": 101.1
  },
  {
    "id": "1608533",
    "label": "Changwat Nakhon Pathom",
    "value": "1608533",
    "lat": 13.98333,
    "lon": 100.08333,
    "poi_name": "Changwat Nakhon Pathom",
    "parent_id": "1605651",
    "long": 100.08333
  },
  {
    "id": "1608530",
    "label": "Changwat Nakhon Phanom",
    "value": "1608530",
    "lat": 17.48611,
    "lon": 104.48333,
    "poi_name": "Changwat Nakhon Phanom",
    "parent_id": "1605651",
    "long": 104.48333
  },
  {
    "id": "1608528",
    "label": "Changwat Nakhon Ratchasima",
    "value": "1608528",
    "lat": 15,
    "lon": 102.16667,
    "poi_name": "Changwat Nakhon Ratchasima",
    "parent_id": "1605651",
    "long": 102.16667
  },
  {
    "id": "1608526",
    "label": "Changwat Nakhon Sawan",
    "value": "1608526",
    "lat": 15.7,
    "lon": 100.08333,
    "poi_name": "Changwat Nakhon Sawan",
    "parent_id": "1605651",
    "long": 100.08333
  },
  {
    "id": "1608525",
    "label": "Changwat Nakhon Si Thammarat",
    "value": "1608525",
    "lat": 8.39102,
    "lon": 99.82203,
    "poi_name": "Changwat Nakhon Si Thammarat",
    "parent_id": "1605651",
    "long": 99.82203
  },
  {
    "id": "1608451",
    "label": "Changwat Nan",
    "value": "1608451",
    "lat": 18.83333,
    "lon": 100.66667,
    "poi_name": "Changwat Nan",
    "parent_id": "1605651",
    "long": 100.66667
  },
  {
    "id": "1608408",
    "label": "Changwat Narathiwat",
    "value": "1608408",
    "lat": 6.20336,
    "lon": 101.72005,
    "poi_name": "Changwat Narathiwat",
    "parent_id": "1605651",
    "long": 101.72005
  },
  {
    "id": "1906690",
    "label": "Changwat Nong Bua Lamphu",
    "value": "1906690",
    "lat": 17.25,
    "lon": 102.25,
    "poi_name": "Changwat Nong Bua Lamphu",
    "parent_id": "1605651",
    "long": 102.25
  },
  {
    "id": "1608231",
    "label": "Changwat Nong Khai",
    "value": "1608231",
    "lat": 17.75,
    "lon": 102.75,
    "poi_name": "Changwat Nong Khai",
    "parent_id": "1605651",
    "long": 102.75
  },
  {
    "id": "1608132",
    "label": "Changwat Nonthaburi",
    "value": "1608132",
    "lat": 13.90433,
    "lon": 100.40335,
    "poi_name": "Changwat Nonthaburi",
    "parent_id": "1605651",
    "long": 100.40335
  },
  {
    "id": "1607982",
    "label": "Changwat Pathum Thani",
    "value": "1607982",
    "lat": 14.04554,
    "lon": 100.63955,
    "poi_name": "Changwat Pathum Thani",
    "parent_id": "1605651",
    "long": 100.63955
  },
  {
    "id": "1607976",
    "label": "Changwat Pattani",
    "value": "1607976",
    "lat": 6.74722,
    "lon": 101.375,
    "poi_name": "Changwat Pattani",
    "parent_id": "1605651",
    "long": 101.375
  },
  {
    "id": "1151462",
    "label": "Changwat Phangnga",
    "value": "1151462",
    "lat": 8.63333,
    "lon": 98.41667,
    "poi_name": "Changwat Phangnga",
    "parent_id": "1605651",
    "long": 98.41667
  },
  {
    "id": "1607778",
    "label": "Changwat Phatthalung",
    "value": "1607778",
    "lat": 7.5,
    "lon": 100.08333,
    "poi_name": "Changwat Phatthalung",
    "parent_id": "1605651",
    "long": 100.08333
  },
  {
    "id": "1607758",
    "label": "Changwat Phayao",
    "value": "1607758",
    "lat": 19.25,
    "lon": 100.25,
    "poi_name": "Changwat Phayao",
    "parent_id": "1605651",
    "long": 100.25
  },
  {
    "id": "1607736",
    "label": "Changwat Phetchabun",
    "value": "1607736",
    "lat": 16.25,
    "lon": 101.08333,
    "poi_name": "Changwat Phetchabun",
    "parent_id": "1605651",
    "long": 101.08333
  },
  {
    "id": "1151416",
    "label": "Changwat Phetchaburi",
    "value": "1151416",
    "lat": 12.96667,
    "lon": 99.58333,
    "poi_name": "Changwat Phetchaburi",
    "parent_id": "1605651",
    "long": 99.58333
  },
  {
    "id": "1607724",
    "label": "Changwat Phichit",
    "value": "1607724",
    "lat": 16.25,
    "lon": 100.41667,
    "poi_name": "Changwat Phichit",
    "parent_id": "1605651",
    "long": 100.41667
  },
  {
    "id": "1607707",
    "label": "Changwat Phitsanulok",
    "value": "1607707",
    "lat": 16.91667,
    "lon": 100.5,
    "poi_name": "Changwat Phitsanulok",
    "parent_id": "1605651",
    "long": 100.5
  },
  {
    "id": "1607530",
    "label": "Changwat Phra Nakhon Si Ayutthaya",
    "value": "1607530",
    "lat": 14.28333,
    "lon": 100.5,
    "poi_name": "Changwat Phra Nakhon Si Ayutthaya",
    "parent_id": "1605651",
    "long": 100.5
  },
  {
    "id": "1607551",
    "label": "Changwat Phrae",
    "value": "1607551",
    "lat": 18.08333,
    "lon": 100,
    "poi_name": "Changwat Phrae",
    "parent_id": "1605651",
    "long": 100
  },
  {
    "id": "1906687",
    "label": "Changwat Prachin Buri",
    "value": "1906687",
    "lat": 14.08333,
    "lon": 101.66667,
    "poi_name": "Changwat Prachin Buri",
    "parent_id": "1605651",
    "long": 101.66667
  },
  {
    "id": "1151073",
    "label": "Changwat Prachuap Khiri Khan",
    "value": "1151073",
    "lat": 12.21667,
    "lon": 99.75,
    "poi_name": "Changwat Prachuap Khiri Khan",
    "parent_id": "1605651",
    "long": 99.75
  },
  {
    "id": "1150964",
    "label": "Changwat Ranong",
    "value": "1150964",
    "lat": 10.1,
    "lon": 98.75,
    "poi_name": "Changwat Ranong",
    "parent_id": "1605651",
    "long": 98.75
  },
  {
    "id": "1150953",
    "label": "Changwat Ratchaburi",
    "value": "1150953",
    "lat": 13.58333,
    "lon": 99.53333,
    "poi_name": "Changwat Ratchaburi",
    "parent_id": "1605651",
    "long": 99.53333
  },
  {
    "id": "1607016",
    "label": "Changwat Rayong",
    "value": "1607016",
    "lat": 12.83333,
    "lon": 101.43333,
    "poi_name": "Changwat Rayong",
    "parent_id": "1605651",
    "long": 101.43333
  },
  {
    "id": "1607000",
    "label": "Changwat Roi Et",
    "value": "1607000",
    "lat": 15.75,
    "lon": 103.75,
    "poi_name": "Changwat Roi Et",
    "parent_id": "1605651",
    "long": 103.75
  },
  {
    "id": "1906691",
    "label": "Changwat Sa Kaeo",
    "value": "1906691",
    "lat": 13.75,
    "lon": 102.33333,
    "poi_name": "Changwat Sa Kaeo",
    "parent_id": "1605651",
    "long": 102.33333
  },
  {
    "id": "1606789",
    "label": "Changwat Sakon Nakhon",
    "value": "1606789",
    "lat": 17.33333,
    "lon": 103.83333,
    "poi_name": "Changwat Sakon Nakhon",
    "parent_id": "1605651",
    "long": 103.83333
  },
  {
    "id": "1606589",
    "label": "Changwat Samut Prakan",
    "value": "1606589",
    "lat": 13.60442,
    "lon": 100.70531,
    "poi_name": "Changwat Samut Prakan",
    "parent_id": "1605651",
    "long": 100.70531
  },
  {
    "id": "1606587",
    "label": "Changwat Samut Sakhon",
    "value": "1606587",
    "lat": 13.56667,
    "lon": 100.21667,
    "poi_name": "Changwat Samut Sakhon",
    "parent_id": "1605651",
    "long": 100.21667
  },
  {
    "id": "1606585",
    "label": "Changwat Samut Songkhram",
    "value": "1606585",
    "lat": 13.4,
    "lon": 99.95833,
    "poi_name": "Changwat Samut Songkhram",
    "parent_id": "1605651",
    "long": 99.95833
  },
  {
    "id": "1606417",
    "label": "Changwat Saraburi",
    "value": "1606417",
    "lat": 14.60838,
    "lon": 100.96822,
    "poi_name": "Changwat Saraburi",
    "parent_id": "1605651",
    "long": 100.96822
  },
  {
    "id": "1606375",
    "label": "Changwat Satun",
    "value": "1606375",
    "lat": 6.83333,
    "lon": 100,
    "poi_name": "Changwat Satun",
    "parent_id": "1605651",
    "long": 100
  },
  {
    "id": "1606238",
    "label": "Changwat Si Sa Ket",
    "value": "1606238",
    "lat": 14.83333,
    "lon": 104.33333,
    "poi_name": "Changwat Si Sa Ket",
    "parent_id": "1605651",
    "long": 104.33333
  },
  {
    "id": "1606269",
    "label": "Changwat Sing Buri",
    "value": "1606269",
    "lat": 14.925,
    "lon": 100.33333,
    "poi_name": "Changwat Sing Buri",
    "parent_id": "1605651",
    "long": 100.33333
  },
  {
    "id": "1606146",
    "label": "Changwat Songkhla",
    "value": "1606146",
    "lat": 6.83333,
    "lon": 100.66667,
    "poi_name": "Changwat Songkhla",
    "parent_id": "1605651",
    "long": 100.66667
  },
  {
    "id": "1150532",
    "label": "Changwat Sukhothai",
    "value": "1150532",
    "lat": 17.25,
    "lon": 99.66667,
    "poi_name": "Changwat Sukhothai",
    "parent_id": "1605651",
    "long": 99.66667
  },
  {
    "id": "1606032",
    "label": "Changwat Suphan Buri",
    "value": "1606032",
    "lat": 14.46667,
    "lon": 100.06667,
    "poi_name": "Changwat Suphan Buri",
    "parent_id": "1605651",
    "long": 100.06667
  },
  {
    "id": "1150514",
    "label": "Changwat Surat Thani",
    "value": "1150514",
    "lat": 9.0011,
    "lon": 99.0394,
    "poi_name": "Changwat Surat Thani",
    "parent_id": "1605651",
    "long": 99.0394
  },
  {
    "id": "1606029",
    "label": "Changwat Surin",
    "value": "1606029",
    "lat": 14.83333,
    "lon": 103.75,
    "poi_name": "Changwat Surin",
    "parent_id": "1605651",
    "long": 103.75
  },
  {
    "id": "1150489",
    "label": "Changwat Tak",
    "value": "1150489",
    "lat": 16.58333,
    "lon": 98.83333,
    "poi_name": "Changwat Tak",
    "parent_id": "1605651",
    "long": 98.83333
  },
  {
    "id": "1150006",
    "label": "Changwat Trang",
    "value": "1150006",
    "lat": 7.50722,
    "lon": 99.59811,
    "poi_name": "Changwat Trang",
    "parent_id": "1605651",
    "long": 99.59811
  },
  {
    "id": "1605277",
    "label": "Changwat Trat",
    "value": "1605277",
    "lat": 12.5,
    "lon": 102.5,
    "poi_name": "Changwat Trat",
    "parent_id": "1605651",
    "long": 102.5
  },
  {
    "id": "1906688",
    "label": "Changwat Ubon Ratchathani",
    "value": "1906688",
    "lat": 15.16667,
    "lon": 105.16667,
    "poi_name": "Changwat Ubon Ratchathani",
    "parent_id": "1605651",
    "long": 105.16667
  },
  {
    "id": "1906686",
    "label": "Changwat Udon Thani",
    "value": "1906686",
    "lat": 17.33333,
    "lon": 102.83333,
    "poi_name": "Changwat Udon Thani",
    "parent_id": "1605651",
    "long": 102.83333
  },
  {
    "id": "1149965",
    "label": "Changwat Uthai Thani",
    "value": "1149965",
    "lat": 15.38333,
    "lon": 99.55,
    "poi_name": "Changwat Uthai Thani",
    "parent_id": "1605651",
    "long": 99.55
  },
  {
    "id": "1605214",
    "label": "Changwat Uttaradit",
    "value": "1605214",
    "lat": 17.66667,
    "lon": 100.5,
    "poi_name": "Changwat Uttaradit",
    "parent_id": "1605651",
    "long": 100.5
  },
  {
    "id": "1604869",
    "label": "Changwat Yala",
    "value": "1604869",
    "lat": 6.33333,
    "lon": 101.25,
    "poi_name": "Changwat Yala",
    "parent_id": "1605651",
    "long": 101.25
  },
  {
    "id": "1604767",
    "label": "Changwat Yasothon",
    "value": "1604767",
    "lat": 15.85,
    "lon": 104.28333,
    "poi_name": "Changwat Yasothon",
    "parent_id": "1605651",
    "long": 104.28333
  },
  {
    "id": "1153670",
    "label": "Chiang Mai Province",
    "value": "1153670",
    "lat": 18.75,
    "lon": 99,
    "poi_name": "Chiang Mai Province",
    "parent_id": "1605651",
    "long": 99
  },
  {
    "id": "1151253",
    "label": "Phuket Province",
    "value": "1151253",
    "lat": 7.97152,
    "lon": 98.35098,
    "poi_name": "Phuket Province",
    "parent_id": "1605651",
    "long": 98.35098
  }
]
