[
  {
    "id": "1594446",
    "label": "An Giang",
    "value": "1594446",
    "lat": 10.5,
    "lon": 105.16667,
    "poi_name": "An Giang",
    "parent_id": "1562822",
    "long": 105.16667
  },
  {
    "id": "1581088",
    "label": "Gia Lai",
    "value": "1581088",
    "lat": 13.75,
    "lon": 108.25,
    "poi_name": "Gia Lai",
    "parent_id": "1562822",
    "long": 108.25
  },
  {
    "id": "7506719",
    "label": "Hau Giang",
    "value": "7506719",
    "lat": 9.77605,
    "lon": 105.46412,
    "poi_name": "Hau Giang",
    "parent_id": "1562822",
    "long": 105.46412
  },
  {
    "id": "1580578",
    "label": "Ho Chi Minh City",
    "value": "1580578",
    "lat": 10.82327,
    "lon": 106.62978,
    "poi_name": "Ho Chi Minh City",
    "parent_id": "1562822",
    "long": 106.62978
  },
  {
    "id": "1565088",
    "label": "Kon Tum",
    "value": "1565088",
    "lat": 14.75,
    "lon": 107.91667,
    "poi_name": "Kon Tum",
    "parent_id": "1562822",
    "long": 107.91667
  },
  {
    "id": "1575788",
    "label": "Long An",
    "value": "1575788",
    "lat": 10.7,
    "lon": 106.16667,
    "poi_name": "Long An",
    "parent_id": "1562822",
    "long": 106.16667
  },
  {
    "id": "1581188",
    "label": "Th\u00e0nh Ph\u1ed1 C\u1ea7n Th\u01a1",
    "value": "1581188",
    "lat": 10.11667,
    "lon": 105.5,
    "poi_name": "Th\u00e0nh Ph\u1ed1 C\u1ea7n Th\u01a1",
    "parent_id": "1562822",
    "long": 105.5
  },
  {
    "id": "1581129",
    "label": "Th\u00e0nh Ph\u1ed1 H\u00e0 N\u1ed9i",
    "value": "1581129",
    "lat": 21,
    "lon": 105.75,
    "poi_name": "Th\u00e0nh Ph\u1ed1 H\u00e0 N\u1ed9i",
    "parent_id": "1562822",
    "long": 105.75
  },
  {
    "id": "1581297",
    "label": "Th\u00e0nh Ph\u1ed1 H\u1ea3i Ph\u00f2ng",
    "value": "1581297",
    "lat": 20.8,
    "lon": 106.66667,
    "poi_name": "Th\u00e0nh Ph\u1ed1 H\u1ea3i Ph\u00f2ng",
    "parent_id": "1562822",
    "long": 106.66667
  },
  {
    "id": "1905468",
    "label": "Th\u00e0nh Ph\u1ed1 \u0110\u00e0 N\u1eb5ng",
    "value": "1905468",
    "lat": 16.08333,
    "lon": 108.08333,
    "poi_name": "Th\u00e0nh Ph\u1ed1 \u0110\u00e0 N\u1eb5ng",
    "parent_id": "1562822",
    "long": 108.08333
  },
  {
    "id": "1584534",
    "label": "T\u1ec9nh B\u00e0 R\u1ecba-V\u0169ng T\u00e0u",
    "value": "1584534",
    "lat": 10.58333,
    "lon": 107.25,
    "poi_name": "T\u1ec9nh B\u00e0 R\u1ecba-V\u0169ng T\u00e0u",
    "parent_id": "1562822",
    "long": 107.25
  },
  {
    "id": "1905475",
    "label": "T\u1ec9nh B\u00ecnh D\u01b0\u01a1ng",
    "value": "1905475",
    "lat": 11.16667,
    "lon": 106.66667,
    "poi_name": "T\u1ec9nh B\u00ecnh D\u01b0\u01a1ng",
    "parent_id": "1562822",
    "long": 106.66667
  },
  {
    "id": "1905480",
    "label": "T\u1ec9nh B\u00ecnh Ph\u01b0\u1edbc",
    "value": "1905480",
    "lat": 11.75,
    "lon": 106.91667,
    "poi_name": "T\u1ec9nh B\u00ecnh Ph\u01b0\u1edbc",
    "parent_id": "1562822",
    "long": 106.91667
  },
  {
    "id": "1581882",
    "label": "T\u1ec9nh B\u00ecnh Thu\u1eadn",
    "value": "1581882",
    "lat": 11.08333,
    "lon": 108.08333,
    "poi_name": "T\u1ec9nh B\u00ecnh Thu\u1eadn",
    "parent_id": "1562822",
    "long": 108.08333
  },
  {
    "id": "1587871",
    "label": "T\u1ec9nh B\u00ecnh \u0110\u1ecbnh",
    "value": "1587871",
    "lat": 14.16667,
    "lon": 109,
    "poi_name": "T\u1ec9nh B\u00ecnh \u0110\u1ecbnh",
    "parent_id": "1562822",
    "long": 109
  },
  {
    "id": "1905675",
    "label": "T\u1ec9nh B\u1ea1c Li\u00eau",
    "value": "1905675",
    "lat": 9.3,
    "lon": 105.5,
    "poi_name": "T\u1ec9nh B\u1ea1c Li\u00eau",
    "parent_id": "1562822",
    "long": 105.5
  },
  {
    "id": "1905419",
    "label": "T\u1ec9nh B\u1eafc Giang",
    "value": "1905419",
    "lat": 21.33333,
    "lon": 106.43333,
    "poi_name": "T\u1ec9nh B\u1eafc Giang",
    "parent_id": "1562822",
    "long": 106.43333
  },
  {
    "id": "1905669",
    "label": "T\u1ec9nh B\u1eafc K\u1ea1n",
    "value": "1905669",
    "lat": 22.25,
    "lon": 105.83333,
    "poi_name": "T\u1ec9nh B\u1eafc K\u1ea1n",
    "parent_id": "1562822",
    "long": 105.83333
  },
  {
    "id": "1905412",
    "label": "T\u1ec9nh B\u1eafc Ninh",
    "value": "1905412",
    "lat": 21.1,
    "lon": 106.1,
    "poi_name": "T\u1ec9nh B\u1eafc Ninh",
    "parent_id": "1562822",
    "long": 106.1
  },
  {
    "id": "1587974",
    "label": "T\u1ec9nh B\u1ebfn Tre",
    "value": "1587974",
    "lat": 10.16667,
    "lon": 106.5,
    "poi_name": "T\u1ec9nh B\u1ebfn Tre",
    "parent_id": "1562822",
    "long": 106.5
  },
  {
    "id": "1586182",
    "label": "T\u1ec9nh Cao B\u1eb1ng",
    "value": "1586182",
    "lat": 22.75,
    "lon": 106.08333,
    "poi_name": "T\u1ec9nh Cao B\u1eb1ng",
    "parent_id": "1562822",
    "long": 106.08333
  },
  {
    "id": "1905678",
    "label": "T\u1ec9nh C\u00e0 Mau",
    "value": "1905678",
    "lat": 9.08333,
    "lon": 105.08333,
    "poi_name": "T\u1ec9nh C\u00e0 Mau",
    "parent_id": "1562822",
    "long": 105.08333
  },
  {
    "id": "1581030",
    "label": "T\u1ec9nh H\u00e0 Giang",
    "value": "1581030",
    "lat": 22.75,
    "lon": 105,
    "poi_name": "T\u1ec9nh H\u00e0 Giang",
    "parent_id": "1562822",
    "long": 105
  },
  {
    "id": "1905637",
    "label": "T\u1ec9nh H\u00e0 Nam",
    "value": "1905637",
    "lat": 20.53333,
    "lon": 105.96667,
    "poi_name": "T\u1ec9nh H\u00e0 Nam",
    "parent_id": "1562822",
    "long": 105.96667
  },
  {
    "id": "1580700",
    "label": "T\u1ec9nh H\u00e0 T\u0129nh",
    "value": "1580700",
    "lat": 18.33333,
    "lon": 105.75,
    "poi_name": "T\u1ec9nh H\u00e0 T\u0129nh",
    "parent_id": "1562822",
    "long": 105.75
  },
  {
    "id": "1572594",
    "label": "T\u1ec9nh H\u00f2a B\u00ecnh",
    "value": "1572594",
    "lat": 20.66667,
    "lon": 105.33333,
    "poi_name": "T\u1ec9nh H\u00f2a B\u00ecnh",
    "parent_id": "1562822",
    "long": 105.33333
  },
  {
    "id": "1905699",
    "label": "T\u1ec9nh H\u01b0ng Y\u00ean",
    "value": "1905699",
    "lat": 20.81667,
    "lon": 106.05,
    "poi_name": "T\u1ec9nh H\u01b0ng Y\u00ean",
    "parent_id": "1562822",
    "long": 106.05
  },
  {
    "id": "1905686",
    "label": "T\u1ec9nh H\u1ea3i D\u01b0\u01a1ng",
    "value": "1905686",
    "lat": 20.91667,
    "lon": 106.33333,
    "poi_name": "T\u1ec9nh H\u1ea3i D\u01b0\u01a1ng",
    "parent_id": "1562822",
    "long": 106.33333
  },
  {
    "id": "1579634",
    "label": "T\u1ec9nh Kh\u00e1nh H\u00f2a",
    "value": "1579634",
    "lat": 12.33333,
    "lon": 109,
    "poi_name": "T\u1ec9nh Kh\u00e1nh H\u00f2a",
    "parent_id": "1562822",
    "long": 109
  },
  {
    "id": "1579008",
    "label": "T\u1ec9nh Ki\u1ebfn Giang",
    "value": "1579008",
    "lat": 10,
    "lon": 105.16667,
    "poi_name": "T\u1ec9nh Ki\u1ebfn Giang",
    "parent_id": "1562822",
    "long": 105.16667
  },
  {
    "id": "1577954",
    "label": "T\u1ec9nh Lai Ch\u00e2u",
    "value": "1577954",
    "lat": 22.28333,
    "lon": 103.25,
    "poi_name": "T\u1ec9nh Lai Ch\u00e2u",
    "parent_id": "1562822",
    "long": 103.25
  },
  {
    "id": "1562412",
    "label": "T\u1ec9nh L\u00e0o Cai",
    "value": "1562412",
    "lat": 22.3,
    "lon": 104.16667,
    "poi_name": "T\u1ec9nh L\u00e0o Cai",
    "parent_id": "1562822",
    "long": 104.16667
  },
  {
    "id": "1577882",
    "label": "T\u1ec9nh L\u00e2m \u0110\u1ed3ng",
    "value": "1577882",
    "lat": 11.66667,
    "lon": 108.08333,
    "poi_name": "T\u1ec9nh L\u00e2m \u0110\u1ed3ng",
    "parent_id": "1562822",
    "long": 108.08333
  },
  {
    "id": "1576632",
    "label": "T\u1ec9nh L\u1ea1ng S\u01a1n",
    "value": "1576632",
    "lat": 21.83333,
    "lon": 106.58333,
    "poi_name": "T\u1ec9nh L\u1ea1ng S\u01a1n",
    "parent_id": "1562822",
    "long": 106.58333
  },
  {
    "id": "1905626",
    "label": "T\u1ec9nh Nam \u0110\u1ecbnh",
    "value": "1905626",
    "lat": 20.25,
    "lon": 106.25,
    "poi_name": "T\u1ec9nh Nam \u0110\u1ecbnh",
    "parent_id": "1562822",
    "long": 106.25
  },
  {
    "id": "1559969",
    "label": "T\u1ec9nh Ngh\u1ec7 An",
    "value": "1559969",
    "lat": 19.25,
    "lon": 104.91667,
    "poi_name": "T\u1ec9nh Ngh\u1ec7 An",
    "parent_id": "1562822",
    "long": 104.91667
  },
  {
    "id": "1559970",
    "label": "T\u1ec9nh Ninh B\u00ecnh",
    "value": "1559970",
    "lat": 20.23333,
    "lon": 105.9,
    "poi_name": "T\u1ec9nh Ninh B\u00ecnh",
    "parent_id": "1562822",
    "long": 105.9
  },
  {
    "id": "1559971",
    "label": "T\u1ec9nh Ninh Thu\u1eadn",
    "value": "1559971",
    "lat": 11.75,
    "lon": 108.83333,
    "poi_name": "T\u1ec9nh Ninh Thu\u1eadn",
    "parent_id": "1562822",
    "long": 108.83333
  },
  {
    "id": "1905577",
    "label": "T\u1ec9nh Ph\u00fa Th\u1ecd",
    "value": "1905577",
    "lat": 21.33333,
    "lon": 105.13333,
    "poi_name": "T\u1ec9nh Ph\u00fa Th\u1ecd",
    "parent_id": "1562822",
    "long": 105.13333
  },
  {
    "id": "1569805",
    "label": "T\u1ec9nh Ph\u00fa Y\u00ean",
    "value": "1569805",
    "lat": 13.16667,
    "lon": 109.08333,
    "poi_name": "T\u1ec9nh Ph\u00fa Y\u00ean",
    "parent_id": "1562822",
    "long": 109.08333
  },
  {
    "id": "1568839",
    "label": "T\u1ec9nh Qu\u1ea3ng B\u00ecnh",
    "value": "1568839",
    "lat": 17.5,
    "lon": 106.33333,
    "poi_name": "T\u1ec9nh Qu\u1ea3ng B\u00ecnh",
    "parent_id": "1562822",
    "long": 106.33333
  },
  {
    "id": "1905516",
    "label": "T\u1ec9nh Qu\u1ea3ng Nam",
    "value": "1905516",
    "lat": 15.58333,
    "lon": 107.91667,
    "poi_name": "T\u1ec9nh Qu\u1ea3ng Nam",
    "parent_id": "1562822",
    "long": 107.91667
  },
  {
    "id": "1568769",
    "label": "T\u1ec9nh Qu\u1ea3ng Ng\u00e3i",
    "value": "1568769",
    "lat": 15,
    "lon": 108.66667,
    "poi_name": "T\u1ec9nh Qu\u1ea3ng Ng\u00e3i",
    "parent_id": "1562822",
    "long": 108.66667
  },
  {
    "id": "1568758",
    "label": "T\u1ec9nh Qu\u1ea3ng Ninh",
    "value": "1568758",
    "lat": 21.25,
    "lon": 107.33333,
    "poi_name": "T\u1ec9nh Qu\u1ea3ng Ninh",
    "parent_id": "1562822",
    "long": 107.33333
  },
  {
    "id": "1568733",
    "label": "T\u1ec9nh Qu\u1ea3ng Tr\u1ecb",
    "value": "1568733",
    "lat": 16.75,
    "lon": 107,
    "poi_name": "T\u1ec9nh Qu\u1ea3ng Tr\u1ecb",
    "parent_id": "1562822",
    "long": 107
  },
  {
    "id": "1559972",
    "label": "T\u1ec9nh S\u00f3c Tr\u0103ng",
    "value": "1559972",
    "lat": 9.55,
    "lon": 105.91667,
    "poi_name": "T\u1ec9nh S\u00f3c Tr\u0103ng",
    "parent_id": "1562822",
    "long": 105.91667
  },
  {
    "id": "1567643",
    "label": "T\u1ec9nh S\u01a1n La",
    "value": "1567643",
    "lat": 21.16667,
    "lon": 104,
    "poi_name": "T\u1ec9nh S\u01a1n La",
    "parent_id": "1562822",
    "long": 104
  },
  {
    "id": "1566165",
    "label": "T\u1ec9nh Thanh H\u00f3a",
    "value": "1566165",
    "lat": 20.06667,
    "lon": 105.33333,
    "poi_name": "T\u1ec9nh Thanh H\u00f3a",
    "parent_id": "1562822",
    "long": 105.33333
  },
  {
    "id": "1566338",
    "label": "T\u1ec9nh Th\u00e1i B\u00ecnh",
    "value": "1566338",
    "lat": 20.5,
    "lon": 106.36667,
    "poi_name": "T\u1ec9nh Th\u00e1i B\u00ecnh",
    "parent_id": "1562822",
    "long": 106.36667
  },
  {
    "id": "1905497",
    "label": "T\u1ec9nh Th\u00e1i Nguy\u00ean",
    "value": "1905497",
    "lat": 21.66667,
    "lon": 105.83333,
    "poi_name": "T\u1ec9nh Th\u00e1i Nguy\u00ean",
    "parent_id": "1562822",
    "long": 105.83333
  },
  {
    "id": "1565033",
    "label": "T\u1ec9nh Th\u1eeba Thi\u00ean-Hu\u1ebf",
    "value": "1565033",
    "lat": 16.33333,
    "lon": 107.58333,
    "poi_name": "T\u1ec9nh Th\u1eeba Thi\u00ean-Hu\u1ebf",
    "parent_id": "1562822",
    "long": 107.58333
  },
  {
    "id": "1564676",
    "label": "T\u1ec9nh Ti\u1ec1n Giang",
    "value": "1564676",
    "lat": 10.4,
    "lon": 106.3,
    "poi_name": "T\u1ec9nh Ti\u1ec1n Giang",
    "parent_id": "1562822",
    "long": 106.3
  },
  {
    "id": "1559975",
    "label": "T\u1ec9nh Tr\u00e0 Vinh",
    "value": "1559975",
    "lat": 9.8,
    "lon": 106.3,
    "poi_name": "T\u1ec9nh Tr\u00e0 Vinh",
    "parent_id": "1562822",
    "long": 106.3
  },
  {
    "id": "1559976",
    "label": "T\u1ec9nh Tuy\u00ean Quang",
    "value": "1559976",
    "lat": 22.11667,
    "lon": 105.25,
    "poi_name": "T\u1ec9nh Tuy\u00ean Quang",
    "parent_id": "1562822",
    "long": 105.25
  },
  {
    "id": "1566557",
    "label": "T\u1ec9nh T\u00e2y Ninh",
    "value": "1566557",
    "lat": 11.33333,
    "lon": 106.16667,
    "poi_name": "T\u1ec9nh T\u00e2y Ninh",
    "parent_id": "1562822",
    "long": 106.16667
  },
  {
    "id": "1559977",
    "label": "T\u1ec9nh V\u0129nh Long",
    "value": "1559977",
    "lat": 10.1,
    "lon": 106,
    "poi_name": "T\u1ec9nh V\u0129nh Long",
    "parent_id": "1562822",
    "long": 106
  },
  {
    "id": "1905856",
    "label": "T\u1ec9nh V\u0129nh Ph\u00fac",
    "value": "1905856",
    "lat": 21.33333,
    "lon": 105.56667,
    "poi_name": "T\u1ec9nh V\u0129nh Ph\u00fac",
    "parent_id": "1562822",
    "long": 105.56667
  },
  {
    "id": "1559978",
    "label": "T\u1ec9nh Y\u00ean B\u00e1i",
    "value": "1559978",
    "lat": 21.75,
    "lon": 104.58333,
    "poi_name": "T\u1ec9nh Y\u00ean B\u00e1i",
    "parent_id": "1562822",
    "long": 104.58333
  },
  {
    "id": "1905099",
    "label": "T\u1ec9nh \u00d0i\u1ec7n Bi\u00ean",
    "value": "1905099",
    "lat": 21.33333,
    "lon": 102.93333,
    "poi_name": "T\u1ec9nh \u00d0i\u1ec7n Bi\u00ean",
    "parent_id": "1562822",
    "long": 102.93333
  },
  {
    "id": "1584169",
    "label": "T\u1ec9nh \u0110\u1eafk L\u1eafk",
    "value": "1584169",
    "lat": 12.75,
    "lon": 108.25,
    "poi_name": "T\u1ec9nh \u0110\u1eafk L\u1eafk",
    "parent_id": "1562822",
    "long": 108.25
  },
  {
    "id": "1582720",
    "label": "T\u1ec9nh \u0110\u1ed3ng Nai",
    "value": "1582720",
    "lat": 11,
    "lon": 107.16667,
    "poi_name": "T\u1ec9nh \u0110\u1ed3ng Nai",
    "parent_id": "1562822",
    "long": 107.16667
  },
  {
    "id": "1582562",
    "label": "T\u1ec9nh \u0110\u1ed3ng Th\u00e1p",
    "value": "1582562",
    "lat": 10.58333,
    "lon": 105.63333,
    "poi_name": "T\u1ec9nh \u0110\u1ed3ng Th\u00e1p",
    "parent_id": "1562822",
    "long": 105.63333
  },
  {
    "id": "1904987",
    "label": "\u00d0\u1eafk N\u00f4ng",
    "value": "1904987",
    "lat": 12.16667,
    "lon": 107.75,
    "poi_name": "\u00d0\u1eafk N\u00f4ng",
    "parent_id": "1562822",
    "long": 107.75
  }
]
