{"success":true,"remaining_lookups":9550,"0":{"id":"3690586","label":"Abrego","value":"3690586","lat":8,"lon":-73.2000000000000028421709430404007434844970703125,"poi_name":"Abrego","parent_id":"3673798","long":-73.2000000000000028421709430404007434844970703125},"1":{"id":"3689698","label":"Arboledas","value":"3689698","lat":7.666669999999999873807610129006206989288330078125,"lon":-72.75,"poi_name":"Arboledas","parent_id":"3673798","long":-72.75},"2":{"id":"3688707","label":"Bochalema","value":"3688707","lat":7.60217000000000009407585821463726460933685302734375,"lon":-72.688389999999998281055013649165630340576171875,"poi_name":"Bochalema","parent_id":"3673798","long":-72.688389999999998281055013649165630340576171875},"3":{"id":"3688463","label":"Bucarasica","value":"3688463","lat":8.0806500000000003325340003357268869876861572265625,"lon":-72.9290500000000037061909097246825695037841796875,"poi_name":"Bucarasica","parent_id":"3673798","long":-72.9290500000000037061909097246825695037841796875},"4":{"id":"3688108","label":"Cachir\u00e1","value":"3688108","lat":7.75,"lon":-73.1666699999999963210939313285052776336669921875,"poi_name":"Cachir\u00e1","parent_id":"3673798","long":-73.1666699999999963210939313285052776336669921875},"5":{"id":"3686575","label":"Chin\u00e1cota","value":"3686575","lat":7.55543000000000031235458664014004170894622802734375,"lon":-72.60412999999999783540260978043079376220703125,"poi_name":"Chin\u00e1cota","parent_id":"3673798","long":-72.60412999999999783540260978043079376220703125},"6":{"id":"3686461","label":"Chitag\u00e1","value":"3686461","lat":7.03202000000000015944578990456648170948028564453125,"lon":-72.5507300000000014961187844164669513702392578125,"poi_name":"Chitag\u00e1","parent_id":"3673798","long":-72.5507300000000014961187844164669513702392578125},"7":{"id":"3685957","label":"Convenci\u00f3n","value":"3685957","lat":8.8224199999999992627408573753200471401214599609375,"lon":-73.22849999999999681676854379475116729736328125,"poi_name":"Convenci\u00f3n","parent_id":"3673798","long":-73.22849999999999681676854379475116729736328125},"8":{"id":"3685530","label":"Cucutilla","value":"3685530","lat":7.5,"lon":-72.75,"poi_name":"Cucutilla","parent_id":"3673798","long":-72.75},"9":{"id":"3688088","label":"C\u00e1cota","value":"3688088","lat":7.250460000000000349018591805361211299896240234375,"lon":-72.6782999999999930196281638927757740020751953125,"poi_name":"C\u00e1cota","parent_id":"3673798","long":-72.6782999999999930196281638927757740020751953125},"10":{"id":"3685534","label":"C\u00facuta","value":"3685534","lat":8.0841300000000000380850906367413699626922607421875,"lon":-72.5051700000000067802830017171800136566162109375,"poi_name":"C\u00facuta","parent_id":"3673798","long":-72.5051700000000067802830017171800136566162109375},"11":{"id":"3685071","label":"Durania","value":"3685071","lat":7.71914999999999995594635038287378847599029541015625,"lon":-72.700289999999995416146703064441680908203125,"poi_name":"Durania","parent_id":"3673798","long":-72.700289999999995416146703064441680908203125},"12":{"id":"3684711","label":"El Carmen","value":"3684711","lat":8.75,"lon":-73.3333300000000036789060686714947223663330078125,"poi_name":"El Carmen","parent_id":"3673798","long":-73.3333300000000036789060686714947223663330078125},"13":{"id":"9172401","label":"El Tarra","value":"9172401","lat":8.654450000000000642330633127130568027496337890625,"lon":-73.053100000000000591171556152403354644775390625,"poi_name":"El Tarra","parent_id":"3673798","long":-73.053100000000000591171556152403354644775390625},"14":{"id":"3682683","label":"El Zulia","value":"3682683","lat":8.06542999999999921101334621198475360870361328125,"lon":-72.6598599999999947840478853322565555572509765625,"poi_name":"El Zulia","parent_id":"3673798","long":-72.6598599999999947840478853322565555572509765625},"15":{"id":"3681968","label":"Gramalote","value":"3681968","lat":7.87847000000000008412825991399586200714111328125,"lon":-72.8220199999999948659024084918200969696044921875,"poi_name":"Gramalote","parent_id":"3673798","long":-72.8220199999999948659024084918200969696044921875},"16":{"id":"3681169","label":"Hacar\u00ed","value":"3681169","lat":8.3438900000000000289901436190120875835418701171875,"lon":-73.0963200000000057343640946783125400543212890625,"poi_name":"Hacar\u00ed","parent_id":"3673798","long":-73.0963200000000057343640946783125400543212890625},"17":{"id":"3680887","label":"Herr\u00e1n","value":"3680887","lat":7.48069999999999968309793985099531710147857666015625,"lon":-72.5005900000000025329427444376051425933837890625,"poi_name":"Herr\u00e1n","parent_id":"3673798","long":-72.5005900000000025329427444376051425933837890625},"18":{"id":"9172325","label":"La Esperanza","value":"9172325","lat":7.68602999999999969560349200037308037281036376953125,"lon":-73.4072599999999937381289782933890819549560546875,"poi_name":"La Esperanza","parent_id":"3673798","long":-73.4072599999999937381289782933890819549560546875},"19":{"id":"3678089","label":"La Playa","value":"3678089","lat":8.25,"lon":-73.1666699999999963210939313285052776336669921875,"poi_name":"La Playa","parent_id":"3673798","long":-73.1666699999999963210939313285052776336669921875},"20":{"id":"3679781","label":"Labateca","value":"3679781","lat":7.245580000000000353566065314225852489471435546875,"lon":-72.5528599999999954661689116619527339935302734375,"poi_name":"Labateca","parent_id":"3673798","long":-72.5528599999999954661689116619527339935302734375},"21":{"id":"9172406","label":"Los Patios","value":"9172406","lat":7.70540000000000002700062395888380706310272216796875,"lon":-72.569199999999995043253875337541103363037109375,"poi_name":"Los Patios","parent_id":"3673798","long":-72.569199999999995043253875337541103363037109375},"22":{"id":"3675858","label":"Lourdes","value":"3675858","lat":7.96666999999999969617192618898116052150726318359375,"lon":-72.8333300000000036789060686714947223663330078125,"poi_name":"Lourdes","parent_id":"3673798","long":-72.8333300000000036789060686714947223663330078125},"23":{"id":"3674126","label":"Mutiscua","value":"3674126","lat":7.2980999999999998095745468162931501865386962890625,"lon":-72.79878999999999678038875572383403778076171875,"poi_name":"Mutiscua","parent_id":"3673798","long":-72.79878999999999678038875572383403778076171875},"24":{"id":"3673663","label":"Oca\u00f1a","value":"3673663","lat":8.2164400000000004098410499864257872104644775390625,"lon":-73.3491700000000008685674401931464672088623046875,"poi_name":"Oca\u00f1a","parent_id":"3673798","long":-73.3491700000000008685674401931464672088623046875},"25":{"id":"3673046","label":"Pamplona","value":"3673046","lat":7.34940000000000015489831639570184051990509033203125,"lon":-72.6995200000000068030203692615032196044921875,"poi_name":"Pamplona","parent_id":"3673798","long":-72.6995200000000068030203692615032196044921875},"26":{"id":"3673042","label":"Pamplonita","value":"3673042","lat":7.4581400000000002137312549166381359100341796875,"lon":-72.65964999999999918145476840436458587646484375,"poi_name":"Pamplonita","parent_id":"3673798","long":-72.65964999999999918145476840436458587646484375},"27":{"id":"9172324","label":"Puerto Santander","value":"9172324","lat":8.3287600000000008293454811791889369487762451171875,"lon":-72.4114000000000004320099833421409130096435546875,"poi_name":"Puerto Santander","parent_id":"3673798","long":-72.4114000000000004320099833421409130096435546875},"28":{"id":"3671019","label":"Ragonvalia","value":"3671019","lat":7.583330000000000126192389870993793010711669921875,"lon":-72.5,"poi_name":"Ragonvalia","parent_id":"3673798","long":-72.5},"29":{"id":"3670361","label":"Salazar","value":"3670361","lat":7.79999999999999982236431605997495353221893310546875,"lon":-72.8333300000000036789060686714947223663330078125,"poi_name":"Salazar","parent_id":"3673798","long":-72.8333300000000036789060686714947223663330078125},"30":{"id":"3670012","label":"San Calixto","value":"3670012","lat":8.4417899999999992388666214537806808948516845703125,"lon":-73.1659800000000046793502406217157840728759765625,"poi_name":"San Calixto","parent_id":"3673798","long":-73.1659800000000046793502406217157840728759765625},"31":{"id":"3669985","label":"San Cayetano","value":"3669985","lat":7.84771000000000018559376258053816854953765869140625,"lon":-72.610140000000001236912794411182403564453125,"poi_name":"San Cayetano","parent_id":"3673798","long":-72.610140000000001236912794411182403564453125},"32":{"id":"3668401","label":"Santiago","value":"3668401","lat":7.86929999999999996163069226895458996295928955078125,"lon":-72.7375300000000066802385845221579074859619140625,"poi_name":"Santiago","parent_id":"3673798","long":-72.7375300000000066802385845221579074859619140625},"33":{"id":"3668246","label":"Sardinata","value":"3668246","lat":8.234239999999999781721271574497222900390625,"lon":-72.820390000000003283275873400270938873291015625,"poi_name":"Sardinata","parent_id":"3673798","long":-72.820390000000003283275873400270938873291015625},"34":{"id":"3668034","label":"Silos","value":"3668034","lat":7.20000000000000017763568394002504646778106689453125,"lon":-72.75,"poi_name":"Silos","parent_id":"3673798","long":-72.75},"35":{"id":"3667287","label":"Teorama","value":"3667287","lat":8.75,"lon":-73.1666699999999963210939313285052776336669921875,"poi_name":"Teorama","parent_id":"3673798","long":-73.1666699999999963210939313285052776336669921875},"36":{"id":"9172035","label":"Tib\u00fa","value":"9172035","lat":8.69539999999999935198502498678863048553466796875,"lon":-72.8126800000000002910383045673370361328125,"poi_name":"Tib\u00fa","parent_id":"3673798","long":-72.8126800000000002910383045673370361328125},"37":{"id":"3666961","label":"Toledo","value":"3666961","lat":7.29999999999999982236431605997495353221893310546875,"lon":-72.25,"poi_name":"Toledo","parent_id":"3673798","long":-72.25},"38":{"id":"3666017","label":"Villa Caro","value":"3666017","lat":7.916669999999999873807610129006206989288330078125,"lon":-73,"poi_name":"Villa Caro","parent_id":"3673798","long":-73},"39":{"id":"3665914","label":"Villa del Rosario","value":"3665914","lat":7.758160000000000167119651450775563716888427734375,"lon":-72.481819999999999026840669102966785430908203125,"poi_name":"Villa del Rosario","parent_id":"3673798","long":-72.481819999999999026840669102966785430908203125}}