{"success":true,"remaining_lookups":9551,"0":{"id":"3690268","label":"Alb\u00e1n","value":"3690268","lat":1.470499999999999918287585387588478624820709228515625,"lon":-77.0684600000000017416823538951575756072998046875,"poi_name":"Alb\u00e1n","parent_id":"3674021","long":-77.0684600000000017416823538951575756072998046875},"1":{"id":"3690227","label":"Aldana","value":"3690227","lat":0.88161999999999995925037410415825434029102325439453125,"lon":-77.7004600000000067439032136462628841400146484375,"poi_name":"Aldana","parent_id":"3674021","long":-77.7004600000000067439032136462628841400146484375},"2":{"id":"3689916","label":"Ancuy\u00e1","value":"3689916","lat":1.265379999999999949267248666728846728801727294921875,"lon":-77.53257999999999583451426587998867034912109375,"poi_name":"Ancuy\u00e1","parent_id":"3674021","long":-77.53257999999999583451426587998867034912109375},"3":{"id":"3689706","label":"Arboleda","value":"3689706","lat":1.498299999999999965183405947755090892314910888671875,"lon":-77.1361299999999943111106404103338718414306640625,"poi_name":"Arboleda","parent_id":"3674021","long":-77.1361299999999943111106404103338718414306640625},"4":{"id":"3689229","label":"Barbacoas","value":"3689229","lat":1.5833299999999999041477849459624849259853363037109375,"lon":-78,"poi_name":"Barbacoas","parent_id":"3674021","long":-78},"5":{"id":"9172355","label":"Bel\u00e9n","value":"9172355","lat":1.5936600000000000765254526413627900183200836181640625,"lon":-77.03726000000000340151018463075160980224609375,"poi_name":"Bel\u00e9n","parent_id":"3674021","long":-77.03726000000000340151018463075160980224609375},"6":{"id":"3688267","label":"Buesaco","value":"3688267","lat":1.25,"lon":-77.0833300000000036789060686714947223663330078125,"poi_name":"Buesaco","parent_id":"3674021","long":-77.0833300000000036789060686714947223663330078125},"7":{"id":"9172161","label":"Chachag\u00fc\u00ed","value":"9172161","lat":1.3873100000000000431299440606380812823772430419921875,"lon":-77.269270000000005893525667488574981689453125,"poi_name":"Chachag\u00fc\u00ed","parent_id":"3674021","long":-77.269270000000005893525667488574981689453125},"8":{"id":"3686108","label":"Col\u00f3n","value":"3686108","lat":1.6285000000000000586197757002082653343677520751953125,"lon":-77.0292699999999967985786497592926025390625,"poi_name":"Col\u00f3n","parent_id":"3674021","long":-77.0292699999999967985786497592926025390625},"9":{"id":"3685985","label":"Consaca","value":"3685985","lat":1.2084099999999999841548969925497658550739288330078125,"lon":-77.4632299999999958117768983356654644012451171875,"poi_name":"Consaca","parent_id":"3674021","long":-77.4632299999999958117768983356654644012451171875},"10":{"id":"3685975","label":"Contadero","value":"3685975","lat":0.91666999999999998482991259152186103165149688720703125,"lon":-77.533330000000006521077011711895465850830078125,"poi_name":"Contadero","parent_id":"3674021","long":-77.533330000000006521077011711895465850830078125},"11":{"id":"3685615","label":"Cuaspud","value":"3685615","lat":0.87570000000000003392841563254478387534618377685546875,"lon":-77.736400000000003274180926382541656494140625,"poi_name":"Cuaspud","parent_id":"3674021","long":-77.736400000000003274180926382541656494140625},"12":{"id":"3685433","label":"Cumbal","value":"3685433","lat":0.91666999999999998482991259152186103165149688720703125,"lon":-77.9166699999999963210939313285052776336669921875,"poi_name":"Cumbal","parent_id":"3674021","long":-77.9166699999999963210939313285052776336669921875},"13":{"id":"9172354","label":"Cumbitara","value":"9172354","lat":1.6768099999999999116795379450195468962192535400390625,"lon":-77.59293999999999869032762944698333740234375,"poi_name":"Cumbitara","parent_id":"3674021","long":-77.59293999999999869032762944698333740234375},"14":{"id":"3685905","label":"C\u00f3rdoba","value":"3685905","lat":0.78332999999999997076116642347187735140323638916015625,"lon":-77.3333300000000036789060686714947223663330078125,"poi_name":"C\u00f3rdoba","parent_id":"3674021","long":-77.3333300000000036789060686714947223663330078125},"15":{"id":"3684581","label":"El Charco","value":"3684581","lat":2.46910000000000007247535904753021895885467529296875,"lon":-78.099750000000000227373675443232059478759765625,"poi_name":"El Charco","parent_id":"3674021","long":-78.099750000000000227373675443232059478759765625},"16":{"id":"9609526","label":"El Pe\u00f1ol","value":"9609526","lat":1.5128500000000000280664380625239573419094085693359375,"lon":-77.43076999999999543433659709990024566650390625,"poi_name":"El Pe\u00f1ol","parent_id":"3674021","long":-77.43076999999999543433659709990024566650390625},"17":{"id":"3683153","label":"El Rosario","value":"3683153","lat":1.8333299999999999041477849459624849259853363037109375,"lon":-77.3333300000000036789060686714947223663330078125,"poi_name":"El Rosario","parent_id":"3674021","long":-77.3333300000000036789060686714947223663330078125},"18":{"id":"3682983","label":"El Tabl\u00f3n de G\u00f3mez","value":"3682983","lat":1.412009999999999987352339303470216691493988037109375,"lon":-76.9852599999999966939867590554058551788330078125,"poi_name":"El Tabl\u00f3n de G\u00f3mez","parent_id":"3674021","long":-76.9852599999999966939867590554058551788330078125},"19":{"id":"3682967","label":"El Tambo","value":"3682967","lat":1.4304900000000000392930132875335402786731719970703125,"lon":-77.38326000000000703948899172246456146240234375,"poi_name":"El Tambo","parent_id":"3674021","long":-77.38326000000000703948899172246456146240234375},"20":{"id":"9172348","label":"Francisco Pizarro","value":"9172348","lat":2.147130000000000205062633540364913642406463623046875,"lon":-78.588830000000001518856151960790157318115234375,"poi_name":"Francisco Pizarro","parent_id":"3674021","long":-78.588830000000001518856151960790157318115234375},"21":{"id":"3682284","label":"Funes","value":"3682284","lat":0.93181999999999998163247028060141019523143768310546875,"lon":-77.352180000000004156390787102282047271728515625,"poi_name":"Funes","parent_id":"3674021","long":-77.352180000000004156390787102282047271728515625},"22":{"id":"3681757","label":"Guachucal","value":"3681757","lat":1,"lon":-77.75,"poi_name":"Guachucal","parent_id":"3674021","long":-77.75},"23":{"id":"3681645","label":"Guaitarilla","value":"3681645","lat":1.17931000000000008043343768804334104061126708984375,"lon":-77.55837999999999965439201332628726959228515625,"poi_name":"Guaitarilla","parent_id":"3674021","long":-77.55837999999999965439201332628726959228515625},"24":{"id":"3681620","label":"Gualmat\u00e1n","value":"3681620","lat":0.92856000000000005201172825763933360576629638671875,"lon":-77.58274000000000114596332423388957977294921875,"poi_name":"Gualmat\u00e1n","parent_id":"3674021","long":-77.58274000000000114596332423388957977294921875},"25":{"id":"3680617","label":"Iles","value":"3680617","lat":0.98002000000000000223820961764431558549404144287109375,"lon":-77.519180000000005748006515204906463623046875,"poi_name":"Iles","parent_id":"3674021","long":-77.519180000000005748006515204906463623046875},"26":{"id":"3680602","label":"Imu\u00e9s","value":"3680602","lat":1.0500000000000000444089209850062616169452667236328125,"lon":-77.5,"poi_name":"Imu\u00e9s","parent_id":"3674021","long":-77.5},"27":{"id":"3680540","label":"Ipiales","value":"3680540","lat":0.58333000000000001517008740847813896834850311279296875,"lon":-77.4166699999999963210939313285052776336669921875,"poi_name":"Ipiales","parent_id":"3674021","long":-77.4166699999999963210939313285052776336669921875},"28":{"id":"3679381","label":"La Cruz","value":"3679381","lat":1.5500000000000000444089209850062616169452667236328125,"lon":-76.8833300000000008367351256310939788818359375,"poi_name":"La Cruz","parent_id":"3674021","long":-76.8833300000000008367351256310939788818359375},"29":{"id":"3679009","label":"La Florida","value":"3679009","lat":1.3569299999999999695177166358917020261287689208984375,"lon":-77.41271000000000412910594604909420013427734375,"poi_name":"La Florida","parent_id":"3674021","long":-77.41271000000000412910594604909420013427734375},"30":{"id":"9172345","label":"La Llanada","value":"9172345","lat":1.512329999999999952109419609769247472286224365234375,"lon":-77.7053499999999957026375341229140758514404296875,"poi_name":"La Llanada","parent_id":"3674021","long":-77.7053499999999957026375341229140758514404296875},"31":{"id":"9172343","label":"La Tola","value":"9172343","lat":2.33584000000000013841372492606751620769500732421875,"lon":-78.206760000000002719389158301055431365966796875,"poi_name":"La Tola","parent_id":"3674021","long":-78.206760000000002719389158301055431365966796875},"32":{"id":"3676938","label":"La Uni\u00f3n","value":"3676938","lat":1.626889999999999947277729006600566208362579345703125,"lon":-77.1591599999999999681676854379475116729736328125,"poi_name":"La Uni\u00f3n","parent_id":"3674021","long":-77.1591599999999999681676854379475116729736328125},"33":{"id":"9172341","label":"Leiva","value":"9172341","lat":1.9614700000000000468247662865906022489070892333984375,"lon":-77.37560999999999467036104761064052581787109375,"poi_name":"Leiva","parent_id":"3674021","long":-77.37560999999999467036104761064052581787109375},"34":{"id":"3676541","label":"Linares","value":"3676541","lat":1.4005300000000000526512167198234237730503082275390625,"lon":-77.544219999999995707185007631778717041015625,"poi_name":"Linares","parent_id":"3674021","long":-77.544219999999995707185007631778717041015625},"35":{"id":"3676357","label":"Los Andes","value":"3676357","lat":1.5833299999999999041477849459624849259853363037109375,"lon":-77.5833300000000036789060686714947223663330078125,"poi_name":"Los Andes","parent_id":"3674021","long":-77.5833300000000036789060686714947223663330078125},"36":{"id":"3672667","label":"Mag\u00fci","value":"3672667","lat":1.905040000000000066648908614297397434711456298828125,"lon":-78.049160000000000536601874046027660369873046875,"poi_name":"Mag\u00fci","parent_id":"3674021","long":-78.049160000000000536601874046027660369873046875},"37":{"id":"3675578","label":"Mallama","value":"3675578","lat":1.0833299999999999041477849459624849259853363037109375,"lon":-77.8166700000000020054358174093067646026611328125,"poi_name":"Mallama","parent_id":"3674021","long":-77.8166700000000020054358174093067646026611328125},"38":{"id":"3674296","label":"Mosquera","value":"3674296","lat":2.49138999999999999346300683100707828998565673828125,"lon":-78.443070000000005848050932399928569793701171875,"poi_name":"Mosquera","parent_id":"3674021","long":-78.443070000000005848050932399928569793701171875},"39":{"id":"9609527","label":"Nari\u00f1o","value":"9609527","lat":1.3029200000000000780886466600350104272365570068359375,"lon":-77.3459500000000019781509763561189174652099609375,"poi_name":"Nari\u00f1o","parent_id":"3674021","long":-77.3459500000000019781509763561189174652099609375},"40":{"id":"9172359","label":"Olaya Herrera","value":"9172359","lat":2.2192699999999998539124135277234017848968505859375,"lon":-78.322350000000000136424205265939235687255859375,"poi_name":"Olaya Herrera","parent_id":"3674021","long":-78.322350000000000136424205265939235687255859375},"41":{"id":"3673483","label":"Ospina","value":"3673483","lat":1.029619999999999979678477757261134684085845947265625,"lon":-77.5525200000000012323653209023177623748779296875,"poi_name":"Ospina","parent_id":"3674021","long":-77.5525200000000012323653209023177623748779296875},"42":{"id":"3672779","label":"Pasto","value":"3672779","lat":1.2146699999999999164401742746122181415557861328125,"lon":-77.278649999999998954081092961132526397705078125,"poi_name":"Pasto","parent_id":"3674021","long":-77.278649999999998954081092961132526397705078125},"43":{"id":"9172334","label":"Policarpa","value":"9172334","lat":1.732979999999999964899188853451050817966461181640625,"lon":-77.4918100000000009686118573881685733795166015625,"poi_name":"Policarpa","parent_id":"3674021","long":-77.4918100000000009686118573881685733795166015625},"44":{"id":"3671849","label":"Potos\u00ed","value":"3671849","lat":0.75,"lon":-77.4166699999999963210939313285052776336669921875,"poi_name":"Potos\u00ed","parent_id":"3674021","long":-77.4166699999999963210939313285052776336669921875},"45":{"id":"9172332","label":"Providencia","value":"9172332","lat":1.2420400000000000328981286656926386058330535888671875,"lon":-77.604680000000001882654032669961452484130859375,"poi_name":"Providencia","parent_id":"3674021","long":-77.604680000000001882654032669961452484130859375},"46":{"id":"3671578","label":"Puerres","value":"3671578","lat":0.82121999999999995001331853927695192396640777587890625,"lon":-77.3197799999999944020601105876266956329345703125,"poi_name":"Puerres","parent_id":"3674021","long":-77.3197799999999944020601105876266956329345703125},"47":{"id":"3671229","label":"Pupiales","value":"3671229","lat":0.91666999999999998482991259152186103165149688720703125,"lon":-77.6666699999999963210939313285052776336669921875,"poi_name":"Pupiales","parent_id":"3674021","long":-77.6666699999999963210939313285052776336669921875},"48":{"id":"3670819","label":"Ricaurte","value":"3670819","lat":1.1878800000000000469668748337426222860813140869140625,"lon":-78.0553699999999963665686664171516895294189453125,"poi_name":"Ricaurte","parent_id":"3674021","long":-78.0553699999999963665686664171516895294189453125},"49":{"id":"3670681","label":"Roberto Pay\u00e1n","value":"3670681","lat":1.9166700000000000958522150540375150740146636962890625,"lon":-78.3333300000000036789060686714947223663330078125,"poi_name":"Roberto Pay\u00e1n","parent_id":"3674021","long":-78.3333300000000036789060686714947223663330078125},"50":{"id":"3670294","label":"Samaniego","value":"3670294","lat":1.4166700000000000958522150540375150740146636962890625,"lon":-77.6666699999999963210939313285052776336669921875,"poi_name":"Samaniego","parent_id":"3674021","long":-77.6666699999999963210939313285052776336669921875},"51":{"id":"9609528","label":"San Andres de Tumaco","value":"9609528","lat":1.637659999999999893560698183136992156505584716796875,"lon":-78.612179999999995061443769372999668121337890625,"poi_name":"San Andres de Tumaco","parent_id":"3674021","long":-78.612179999999995061443769372999668121337890625},"52":{"id":"9172338","label":"San Bernardo","value":"9172338","lat":1.5385899999999999021582652858342044055461883544921875,"lon":-77.037949999999995043253875337541103363037109375,"poi_name":"San Bernardo","parent_id":"3674021","long":-77.037949999999995043253875337541103363037109375},"53":{"id":"3669441","label":"San Lorenzo","value":"3669441","lat":1.5573099999999999720756704846280626952648162841796875,"lon":-77.2459900000000061481841839849948883056640625,"poi_name":"San Lorenzo","parent_id":"3674021","long":-77.2459900000000061481841839849948883056640625},"54":{"id":"3669217","label":"San Pablo","value":"3669217","lat":1.670199999999999906918901615426875650882720947265625,"lon":-77.0237300000000004729372449219226837158203125,"poi_name":"San Pablo","parent_id":"3674021","long":-77.0237300000000004729372449219226837158203125},"55":{"id":"9172330","label":"San Pedro de Cartago","value":"9172330","lat":1.555330000000000101323394119390286505222320556640625,"lon":-77.12984000000000150976120494306087493896484375,"poi_name":"San Pedro de Cartago","parent_id":"3674021","long":-77.12984000000000150976120494306087493896484375},"56":{"id":"3669939","label":"Sandon\u00e1","value":"3669939","lat":1.30722000000000004860112312599085271358489990234375,"lon":-77.4828399999999959391061565838754177093505859375,"poi_name":"Sandon\u00e1","parent_id":"3674021","long":-77.4828399999999959391061565838754177093505859375},"57":{"id":"3668921","label":"Santa B\u00e1rbara","value":"3668921","lat":2.333330000000000126192389870993793010711669921875,"lon":-77.9166699999999963210939313285052776336669921875,"poi_name":"Santa B\u00e1rbara","parent_id":"3674021","long":-77.9166699999999963210939313285052776336669921875},"58":{"id":"3668834","label":"Santacruz","value":"3668834","lat":1.3333299999999999041477849459624849259853363037109375,"lon":-77.7000000000000028421709430404007434844970703125,"poi_name":"Santacruz","parent_id":"3674021","long":-77.7000000000000028421709430404007434844970703125},"59":{"id":"3668269","label":"Sapuyes","value":"3668269","lat":1.0595399999999999263167183016776107251644134521484375,"lon":-77.7066200000000009140421752817928791046142578125,"poi_name":"Sapuyes","parent_id":"3674021","long":-77.7066200000000009140421752817928791046142578125},"60":{"id":"3667472","label":"Taminango","value":"3667472","lat":1.593879999999999963478103381930850446224212646484375,"lon":-77.355220000000002755768946371972560882568359375,"poi_name":"Taminango","parent_id":"3674021","long":-77.355220000000002755768946371972560882568359375},"61":{"id":"3667448","label":"Tangua","value":"3667448","lat":1.0918900000000000272137867796118371188640594482421875,"lon":-77.386449999999996407495927996933460235595703125,"poi_name":"Tangua","parent_id":"3674021","long":-77.386449999999996407495927996933460235595703125},"62":{"id":"3666583","label":"T\u00faquerres","value":"3666583","lat":1.135450000000000070343730840249918401241302490234375,"lon":-77.630889999999993733581504784524440765380859375,"poi_name":"T\u00faquerres","parent_id":"3674021","long":-77.630889999999993733581504784524440765380859375},"63":{"id":"3665812","label":"Yacuanquer","value":"3665812","lat":1.1250400000000000400035560232936404645442962646484375,"lon":-77.4241999999999990222931955941021442413330078125,"poi_name":"Yacuanquer","parent_id":"3674021","long":-77.4241999999999990222931955941021442413330078125}}