{"success":true,"remaining_lookups":9536,"0":{"id":"3690578","label":"Acac\u00edas","value":"3690578","lat":4.00929000000000002046363078989088535308837890625,"lon":-73.780169999999998253770172595977783203125,"poi_name":"Acac\u00edas","parent_id":"3674810","long":-73.780169999999998253770172595977783203125},"1":{"id":"9172395","label":"Barranca de Up\u00eda","value":"9172395","lat":4.474479999999999790816218592226505279541015625,"lon":-72.9936699999999945021045277826488018035888671875,"poi_name":"Barranca de Up\u00eda","parent_id":"3674810","long":-72.9936699999999945021045277826488018035888671875},"2":{"id":"9172369","label":"Cabuyaro","value":"9172369","lat":4.2853300000000000835598257253877818584442138671875,"lon":-72.980279999999993378878571093082427978515625,"poi_name":"Cabuyaro","parent_id":"3674810","long":-72.980279999999993378878571093082427978515625},"3":{"id":"3687085","label":"Castilla la Nueva","value":"3687085","lat":3.79999999999999982236431605997495353221893310546875,"lon":-73.5833300000000036789060686714947223663330078125,"poi_name":"Castilla la Nueva","parent_id":"3674810","long":-73.5833300000000036789060686714947223663330078125},"4":{"id":"9172368","label":"Cubarral","value":"9172368","lat":3.826709999999999833875108379288576543331146240234375,"lon":-74.0767100000000056070348364301025867462158203125,"poi_name":"Cubarral","parent_id":"3674810","long":-74.0767100000000056070348364301025867462158203125},"5":{"id":"3685446","label":"Cumaral","value":"3685446","lat":4.25,"lon":-73.3333300000000036789060686714947223663330078125,"poi_name":"Cumaral","parent_id":"3674810","long":-73.3333300000000036789060686714947223663330078125},"6":{"id":"3684771","label":"El Calvario","value":"3684771","lat":4.354260000000000019326762412674725055694580078125,"lon":-73.7443099999999986948751029558479785919189453125,"poi_name":"El Calvario","parent_id":"3674810","long":-73.7443099999999986948751029558479785919189453125},"7":{"id":"9172168","label":"El Castillo","value":"9172168","lat":3.5772300000000001318767317570745944976806640625,"lon":-73.9644299999999930150806903839111328125,"poi_name":"El Castillo","parent_id":"3674810","long":-73.9644299999999930150806903839111328125},"8":{"id":"9172367","label":"El Dorado","value":"9172367","lat":3.7077200000000001267608240596018731594085693359375,"lon":-73.832459999999997535269358195364475250244140625,"poi_name":"El Dorado","parent_id":"3674810","long":-73.832459999999997535269358195364475250244140625},"9":{"id":"9172364","label":"Fuente de Oro","value":"9172364","lat":3.341670000000000140261136039043776690959930419921875,"lon":-73.6295099999999962392394081689417362213134765625,"poi_name":"Fuente de Oro","parent_id":"3674810","long":-73.6295099999999962392394081689417362213134765625},"10":{"id":"3681961","label":"Granada","value":"3681961","lat":3.48589999999999999857891452847979962825775146484375,"lon":-73.7621299999999990859578247182071208953857421875,"poi_name":"Granada","parent_id":"3674810","long":-73.7621299999999990859578247182071208953857421875},"11":{"id":"3681607","label":"Guamal","value":"3681607","lat":3.916669999999999873807610129006206989288330078125,"lon":-74,"poi_name":"Guamal","parent_id":"3674810","long":-74},"12":{"id":"6826880","label":"La Macarena","value":"6826880","lat":2.00701999999999980417442202451638877391815185546875,"lon":-74.0731999999999999317878973670303821563720703125,"poi_name":"La Macarena","parent_id":"3674810","long":-74.0731999999999999317878973670303821563720703125},"13":{"id":"9172361","label":"Lejan\u00edas","value":"9172361","lat":3.529180000000000205773176276125013828277587890625,"lon":-74.0238200000000006184563972055912017822265625,"poi_name":"Lejan\u00edas","parent_id":"3674810","long":-74.0238200000000006184563972055912017822265625},"14":{"id":"9172408","label":"Mapirip\u00e1n","value":"9172408","lat":3.09705999999999992411403582082130014896392822265625,"lon":-71.9496400000000022600943339057266712188720703125,"poi_name":"Mapirip\u00e1n","parent_id":"3674810","long":-71.9496400000000022600943339057266712188720703125},"15":{"id":"7015557","label":"Mesetas","value":"7015557","lat":3.155580000000000051585402616183273494243621826171875,"lon":-74.0993799999999964711605571210384368896484375,"poi_name":"Mesetas","parent_id":"3674810","long":-74.0993799999999964711605571210384368896484375},"16":{"id":"7017789","label":"Puerto Concordia","value":"7017789","lat":2.622570000000000067785776991513557732105255126953125,"lon":-72.7610800000000068621375248767435550689697265625,"poi_name":"Puerto Concordia","parent_id":"3674810","long":-72.7610800000000068621375248767435550689697265625},"17":{"id":"9172360","label":"Puerto Gait\u00e1n","value":"9172360","lat":3.993819999999999925677229839493520557880401611328125,"lon":-71.637010000000003628883860073983669281005859375,"poi_name":"Puerto Gait\u00e1n","parent_id":"3674810","long":-71.637010000000003628883860073983669281005859375},"18":{"id":"3671425","label":"Puerto Lleras","value":"3671425","lat":3.217940000000000022595258997171185910701751708984375,"lon":-73.2321500000000042973624658770859241485595703125,"poi_name":"Puerto Lleras","parent_id":"3674810","long":-73.2321500000000042973624658770859241485595703125},"19":{"id":"3671422","label":"Puerto L\u00f3pez","value":"3671422","lat":4.083330000000000126192389870993793010711669921875,"lon":-72.966669999999993478922988288104534149169921875,"poi_name":"Puerto L\u00f3pez","parent_id":"3674810","long":-72.966669999999993478922988288104534149169921875},"20":{"id":"9172267","label":"Puerto Rico","value":"9172267","lat":2.78272999999999992581933838664554059505462646484375,"lon":-73.1395600000000030149749363772571086883544921875,"poi_name":"Puerto Rico","parent_id":"3674810","long":-73.1395600000000030149749363772571086883544921875},"21":{"id":"3670859","label":"Restrepo","value":"3670859","lat":4.29413999999999962398078423575498163700103759765625,"lon":-73.5955799999999982219378580339252948760986328125,"poi_name":"Restrepo","parent_id":"3674810","long":-73.5955799999999982219378580339252948760986328125},"22":{"id":"9172358","label":"San Carlos de Guaroa","value":"9172358","lat":3.79842000000000012960299500264227390289306640625,"lon":-73.217860000000001718944986350834369659423828125,"poi_name":"San Carlos de Guaroa","parent_id":"3674810","long":-73.217860000000001718944986350834369659423828125},"23":{"id":"9172356","label":"San Juan de Arama","value":"9172356","lat":3.290340000000000042490455598453991115093231201171875,"lon":-73.8206500000000005456968210637569427490234375,"poi_name":"San Juan de Arama","parent_id":"3674810","long":-73.8206500000000005456968210637569427490234375},"24":{"id":"9172165","label":"San Juanito","value":"9172165","lat":4.42905999999999977490006131120026111602783203125,"lon":-73.696359999999998535713530145585536956787109375,"poi_name":"San Juanito","parent_id":"3674810","long":-73.696359999999998535713530145585536956787109375},"25":{"id":"3669334","label":"San Mart\u00edn","value":"3669334","lat":3.70000000000000017763568394002504646778106689453125,"lon":-73.7000000000000028421709430404007434844970703125,"poi_name":"San Mart\u00edn","parent_id":"3674810","long":-73.7000000000000028421709430404007434844970703125},"26":{"id":"9609525","label":"Uribe","value":"9609525","lat":3.0264600000000001500666257925331592559814453125,"lon":-74.436139999999994643076206557452678680419921875,"poi_name":"Uribe","parent_id":"3674810","long":-74.436139999999994643076206557452678680419921875},"27":{"id":"3665901","label":"Villavicencio","value":"3665901","lat":4.074239999999999639612724422477185726165771484375,"lon":-73.491500000000002046363078989088535308837890625,"poi_name":"Villavicencio","parent_id":"3674810","long":-73.491500000000002046363078989088535308837890625},"28":{"id":"7015714","label":"Vistahermosa","value":"7015714","lat":2.90406999999999992922994351829402148723602294921875,"lon":-73.5321200000000061436367104761302471160888671875,"poi_name":"Vistahermosa","parent_id":"3674810","long":-73.5321200000000061436367104761302471160888671875}}