{"success":true,"remaining_lookups":9552,"0":{"id":"9179910","label":"Albania","value":"9179910","lat":11.1597000000000008412825991399586200714111328125,"lon":-72.5855999999999994543031789362430572509765625,"poi_name":"Albania","parent_id":"3678847","long":-72.5855999999999994543031789362430572509765625},"1":{"id":"3689165","label":"Barrancas","value":"3689165","lat":11,"lon":-72.75,"poi_name":"Barrancas","parent_id":"3678847","long":-72.75},"2":{"id":"9179556","label":"Dibulla","value":"9179556","lat":11.2666699999999995185362422489561140537261962890625,"lon":-73.2999999999999971578290569595992565155029296875,"poi_name":"Dibulla","parent_id":"3678847","long":-73.2999999999999971578290569595992565155029296875},"3":{"id":"9179904","label":"Distracci\u00f3n","value":"9179904","lat":10.9000000000000003552713678800500929355621337890625,"lon":-72.8833300000000008367351256310939788818359375,"poi_name":"Distracci\u00f3n","parent_id":"3678847","long":-72.8833300000000008367351256310939788818359375},"4":{"id":"9178719","label":"El Molino","value":"9178719","lat":10.5946200000000008145661922753788530826568603515625,"lon":-72.8538999999999958845364744774997234344482421875,"poi_name":"El Molino","parent_id":"3678847","long":-72.8538999999999958845364744774997234344482421875},"5":{"id":"3682376","label":"Fonseca","value":"3682376","lat":10.833330000000000126192389870993793010711669921875,"lon":-72.8333300000000036789060686714947223663330078125,"poi_name":"Fonseca","parent_id":"3678847","long":-72.8333300000000036789060686714947223663330078125},"6":{"id":"9179911","label":"Hatonuevo","value":"9179911","lat":11.0693999999999999062083588796667754650115966796875,"lon":-72.7669000000000067984728957526385784149169921875,"poi_name":"Hatonuevo","parent_id":"3678847","long":-72.7669000000000067984728957526385784149169921875},"7":{"id":"9609524","label":"La Jagua del Pilar","value":"9609524","lat":10.4580900000000003302602635812945663928985595703125,"lon":-73.072280000000006339178071357309818267822265625,"poi_name":"La Jagua del Pilar","parent_id":"3678847","long":-73.072280000000006339178071357309818267822265625},"8":{"id":"3675659","label":"Maicao","value":"3675659","lat":11.333330000000000126192389870993793010711669921875,"lon":-72.3333300000000036789060686714947223663330078125,"poi_name":"Maicao","parent_id":"3678847","long":-72.3333300000000036789060686714947223663330078125},"9":{"id":"9172387","label":"Manaure","value":"9172387","lat":11.581739999999999923829818726517260074615478515625,"lon":-72.5651500000000027057467377744615077972412109375,"poi_name":"Manaure","parent_id":"3678847","long":-72.5651500000000027057467377744615077972412109375},"10":{"id":"3670747","label":"Riohacha","value":"3670747","lat":11.166669999999999873807610129006206989288330078125,"lon":-73.0833300000000036789060686714947223663330078125,"poi_name":"Riohacha","parent_id":"3678847","long":-73.0833300000000036789060686714947223663330078125},"11":{"id":"3669470","label":"San Juan del Cesar","value":"3669470","lat":10.833330000000000126192389870993793010711669921875,"lon":-73.0833300000000036789060686714947223663330078125,"poi_name":"San Juan del Cesar","parent_id":"3678847","long":-73.0833300000000036789060686714947223663330078125},"12":{"id":"3666412","label":"Uribia","value":"3666412","lat":11.916669999999999873807610129006206989288330078125,"lon":-72,"poi_name":"Uribia","parent_id":"3678847","long":-72},"13":{"id":"9172388","label":"Urumita","value":"9172388","lat":10.4981700000000000017053025658242404460906982421875,"lon":-72.975920000000002119122655130922794342041015625,"poi_name":"Urumita","parent_id":"3678847","long":-72.975920000000002119122655130922794342041015625},"14":{"id":"3665960","label":"Villanueva","value":"3665960","lat":10.583330000000000126192389870993793010711669921875,"lon":-73,"poi_name":"Villanueva","parent_id":"3678847","long":-73}}