{"success":true,"remaining_lookups":9553,"0":{"id":"3689382","label":"Ayapel","value":"3689382","lat":8.25,"lon":-75.25,"poi_name":"Ayapel","parent_id":"3685889","long":-75.25},"1":{"id":"9172322","label":"Buenavista","value":"9172322","lat":8.176970000000000737827576813288033008575439453125,"lon":-75.4448100000000039244696381501853466033935546875,"poi_name":"Buenavista","parent_id":"3685889","long":-75.4448100000000039244696381501853466033935546875},"2":{"id":"9165835","label":"Canalete","value":"9165835","lat":8.7487300000000001176658770418725907802581787109375,"lon":-76.258769999999998390194377861917018890380859375,"poi_name":"Canalete","parent_id":"3685889","long":-76.258769999999998390194377861917018890380859375},"3":{"id":"3686923","label":"Ceret\u00e9","value":"3686923","lat":8.8820800000000001972466634470038115978240966796875,"lon":-75.8218200000000024374458007514476776123046875,"poi_name":"Ceret\u00e9","parent_id":"3685889","long":-75.8218200000000024374458007514476776123046875},"4":{"id":"3686607","label":"Chim\u00e1","value":"3686607","lat":9.083330000000000126192389870993793010711669921875,"lon":-75.6333300000000008367351256310939788818359375,"poi_name":"Chim\u00e1","parent_id":"3685889","long":-75.6333300000000008367351256310939788818359375},"5":{"id":"3686541","label":"Chin\u00fa","value":"3686541","lat":9.083330000000000126192389870993793010711669921875,"lon":-75.3333300000000036789060686714947223663330078125,"poi_name":"Chin\u00fa","parent_id":"3685889","long":-75.3333300000000036789060686714947223663330078125},"6":{"id":"3686273","label":"Ci\u00e9naga de Oro","value":"3686273","lat":8.833330000000000126192389870993793010711669921875,"lon":-75.6666699999999963210939313285052776336669921875,"poi_name":"Ci\u00e9naga de Oro","parent_id":"3685889","long":-75.6666699999999963210939313285052776336669921875},"7":{"id":"9165867","label":"Cotorra","value":"9165867","lat":9.0571699999999992769517120905220508575439453125,"lon":-75.779169999999993478922988288104534149169921875,"poi_name":"Cotorra","parent_id":"3685889","long":-75.779169999999993478922988288104534149169921875},"8":{"id":"9179942","label":"La Apartada","value":"9179942","lat":8.047869999999999635065250913612544536590576171875,"lon":-75.300970000000006621121428906917572021484375,"poi_name":"La Apartada","parent_id":"3685889","long":-75.300970000000006621121428906917572021484375},"9":{"id":"3676400","label":"Lorica","value":"3676400","lat":9.166669999999999873807610129006206989288330078125,"lon":-75.8333300000000036789060686714947223663330078125,"poi_name":"Lorica","parent_id":"3685889","long":-75.8333300000000036789060686714947223663330078125},"10":{"id":"9172340","label":"Los C\u00f3rdobas","value":"9172340","lat":8.871719999999999828332875040359795093536376953125,"lon":-76.2908699999999981855580699630081653594970703125,"poi_name":"Los C\u00f3rdobas","parent_id":"3685889","long":-76.2908699999999981855580699630081653594970703125},"11":{"id":"9172342","label":"Momil","value":"9172342","lat":9.234719999999999373585524153895676136016845703125,"lon":-75.635660000000001446096575818955898284912109375,"poi_name":"Momil","parent_id":"3685889","long":-75.635660000000001446096575818955898284912109375},"12":{"id":"3674471","label":"Montel\u00edbano","value":"3674471","lat":7.76126000000000004774847184307873249053955078125,"lon":-75.921739999999999781721271574497222900390625,"poi_name":"Montel\u00edbano","parent_id":"3685889","long":-75.921739999999999781721271574497222900390625},"13":{"id":"3674454","label":"Monter\u00eda","value":"3674454","lat":8.666669999999999873807610129006206989288330078125,"lon":-76,"poi_name":"Monter\u00eda","parent_id":"3685889","long":-76},"14":{"id":"9172344","label":"Mo\u00f1itos","value":"9172344","lat":9.226150000000000517275111633352935314178466796875,"lon":-76.1359400000000050567905418574810028076171875,"poi_name":"Mo\u00f1itos","parent_id":"3685889","long":-76.1359400000000050567905418574810028076171875},"15":{"id":"3672069","label":"Planeta Rica","value":"3672069","lat":8.333330000000000126192389870993793010711669921875,"lon":-75.5833300000000036789060686714947223663330078125,"poi_name":"Planeta Rica","parent_id":"3685889","long":-75.5833300000000036789060686714947223663330078125},"16":{"id":"3671664","label":"Pueblo Nuevo","value":"3671664","lat":8.5,"lon":-75.4166699999999963210939313285052776336669921875,"poi_name":"Pueblo Nuevo","parent_id":"3685889","long":-75.4166699999999963210939313285052776336669921875},"17":{"id":"3671471","label":"Puerto Escondido","value":"3671471","lat":8.949999999999999289457264239899814128875732421875,"lon":-76.25,"poi_name":"Puerto Escondido","parent_id":"3685889","long":-76.25},"18":{"id":"9172419","label":"Puerto Libertador","value":"9172419","lat":7.68180999999999958305352265597321093082427978515625,"lon":-75.78311999999999670762917958199977874755859375,"poi_name":"Puerto Libertador","parent_id":"3685889","long":-75.78311999999999670762917958199977874755859375},"19":{"id":"3671204","label":"Pur\u00edsima","value":"3671204","lat":9.24954999999999927240423858165740966796875,"lon":-75.7118099999999998317434801720082759857177734375,"poi_name":"Pur\u00edsima","parent_id":"3685889","long":-75.7118099999999998317434801720082759857177734375},"20":{"id":"3670420","label":"Sahag\u00fan","value":"3670420","lat":8.833330000000000126192389870993793010711669921875,"lon":-75.4166699999999963210939313285052776336669921875,"poi_name":"Sahag\u00fan","parent_id":"3685889","long":-75.4166699999999963210939313285052776336669921875},"21":{"id":"3670208","label":"San Andr\u00e9s Sotavento","value":"3670208","lat":9.121829999999999216697688098065555095672607421875,"lon":-75.5162700000000057798388297669589519500732421875,"poi_name":"San Andr\u00e9s Sotavento","parent_id":"3685889","long":-75.5162700000000057798388297669589519500732421875},"22":{"id":"3670200","label":"San Antero","value":"3670200","lat":9.3499999999999996447286321199499070644378662109375,"lon":-75.75,"poi_name":"San Antero","parent_id":"3685889","long":-75.75},"23":{"id":"3670019","label":"San Bernardo del Viento","value":"3670019","lat":9.25,"lon":-76,"poi_name":"San Bernardo del Viento","parent_id":"3685889","long":-76},"24":{"id":"3670009","label":"San Carlos","value":"3670009","lat":8.699999999999999289457264239899814128875732421875,"lon":-75.7000000000000028421709430404007434844970703125,"poi_name":"San Carlos","parent_id":"3685889","long":-75.7000000000000028421709430404007434844970703125},"25":{"id":"9609508","label":"San Jose De Ure","value":"9609508","lat":7.75328999999999979308995534665882587432861328125,"lon":-75.56589999999999918145476840436458587646484375,"poi_name":"San Jose De Ure","parent_id":"3685889","long":-75.56589999999999918145476840436458587646484375},"26":{"id":"3669085","label":"San Pelayo","value":"3669085","lat":9,"lon":-75.9166699999999963210939313285052776336669921875,"poi_name":"San Pelayo","parent_id":"3685889","long":-75.9166699999999963210939313285052776336669921875},"27":{"id":"3667159","label":"Tierralta","value":"3667159","lat":7.916669999999999873807610129006206989288330078125,"lon":-76.1666699999999963210939313285052776336669921875,"poi_name":"Tierralta","parent_id":"3685889","long":-76.1666699999999963210939313285052776336669921875},"28":{"id":"9609509","label":"Tuchin","value":"9609509","lat":9.2233900000000001995204002014361321926116943359375,"lon":-75.5451800000000019963408703915774822235107421875,"poi_name":"Tuchin","parent_id":"3685889","long":-75.5451800000000019963408703915774822235107421875},"29":{"id":"3666330","label":"Valencia","value":"3666330","lat":8.300000000000000710542735760100185871124267578125,"lon":-76.1666699999999963210939313285052776336669921875,"poi_name":"Valencia","parent_id":"3685889","long":-76.1666699999999963210939313285052776336669921875}}