{"success":true,"remaining_lookups":9541,"0":{"id":"3690573","label":"Acand\u00ed","value":"3690573","lat":8.4246800000000003905142875737510621547698974609375,"lon":-77.29279999999999972715158946812152862548828125,"poi_name":"Acand\u00ed","parent_id":"3686431","long":-77.29279999999999972715158946812152862548828125},"1":{"id":"3690070","label":"Alto Baudo","value":"3690070","lat":5.604639999999999844249032321386039257049560546875,"lon":-77.0697499999999990905052982270717620849609375,"poi_name":"Alto Baudo","parent_id":"3686431","long":-77.0697499999999990905052982270717620849609375},"2":{"id":"9179541","label":"Atrato","value":"9179541","lat":5.5736200000000000187583282240666449069976806640625,"lon":-76.6406300000000015870682545937597751617431640625,"poi_name":"Atrato","parent_id":"3686431","long":-76.6406300000000015870682545937597751617431640625},"3":{"id":"3689337","label":"Bagad\u00f3","value":"3689337","lat":5.5,"lon":-76.25,"poi_name":"Bagad\u00f3","parent_id":"3686431","long":-76.25},"4":{"id":"3667869","label":"Bah\u00eda Solano","value":"3667869","lat":6.22520000000000006679101716144941747188568115234375,"lon":-77.391469999999998208295437507331371307373046875,"poi_name":"Bah\u00eda Solano","parent_id":"3686431","long":-77.391469999999998208295437507331371307373046875},"5":{"id":"3689318","label":"Bajo Baud\u00f3","value":"3689318","lat":4.90181000000000022254198484006337821483612060546875,"lon":-77.2277100000000018553691916167736053466796875,"poi_name":"Bajo Baud\u00f3","parent_id":"3686431","long":-77.2277100000000018553691916167736053466796875},"6":{"id":"3688672","label":"Bojaya","value":"3688672","lat":6.5,"lon":-77.099999999999994315658113919198513031005859375,"poi_name":"Bojaya","parent_id":"3686431","long":-77.099999999999994315658113919198513031005859375},"7":{"id":"9179529","label":"Carmen del Darien","value":"9179529","lat":7.03638999999999992240873325499705970287322998046875,"lon":-76.9522199999999969577402225695550441741943359375,"poi_name":"Carmen del Darien","parent_id":"3686431","long":-76.9522199999999969577402225695550441741943359375},"8":{"id":"3686003","label":"Condoto","value":"3686003","lat":5.10602999999999962454921842436306178569793701171875,"lon":-76.4516100000000022873791749589145183563232421875,"poi_name":"Condoto","parent_id":"3686431","long":-76.4516100000000022873791749589145183563232421875},"9":{"id":"9179552","label":"C\u00e9rtegui","value":"9179552","lat":5.4000000000000003552713678800500929355621337890625,"lon":-76.599999999999994315658113919198513031005859375,"poi_name":"C\u00e9rtegui","parent_id":"3686431","long":-76.599999999999994315658113919198513031005859375},"10":{"id":"9609519","label":"El Cant\u00f3n del San Pablo","value":"9609519","lat":5.35989000000000004320099833421409130096435546875,"lon":-76.7728000000000037061909097246825695037841796875,"poi_name":"El Cant\u00f3n del San Pablo","parent_id":"3686431","long":-76.7728000000000037061909097246825695037841796875},"11":{"id":"3684712","label":"El Carmen de Atrato","value":"3684712","lat":5.833330000000000126192389870993793010711669921875,"lon":-76.25,"poi_name":"El Carmen de Atrato","parent_id":"3686431","long":-76.25},"12":{"id":"9609520","label":"El Litoral del San Juan","value":"9609520","lat":4.2507000000000001449507180950604379177093505859375,"lon":-76.9692600000000055615601013414561748504638671875,"poi_name":"El Litoral del San Juan","parent_id":"3686431","long":-76.9692600000000055615601013414561748504638671875},"13":{"id":"3680454","label":"Istmina","value":"3680454","lat":4.98772000000000037545078157563693821430206298828125,"lon":-76.8052799999999962210495141334831714630126953125,"poi_name":"Istmina","parent_id":"3686431","long":-76.8052799999999962210495141334831714630126953125},"14":{"id":"3680091","label":"Jurad\u00f3","value":"3680091","lat":7.00424999999999986499688020558096468448638916015625,"lon":-77.65140999999999849023879505693912506103515625,"poi_name":"Jurad\u00f3","parent_id":"3686431","long":-77.65140999999999849023879505693912506103515625},"15":{"id":"3676478","label":"Llor\u00f3","value":"3676478","lat":5.583330000000000126192389870993793010711669921875,"lon":-76.4166699999999963210939313285052776336669921875,"poi_name":"Llor\u00f3","parent_id":"3686431","long":-76.4166699999999963210939313285052776336669921875},"16":{"id":"9179547","label":"Medio Atrato","value":"9179547","lat":5.99500000000000010658141036401502788066864013671875,"lon":-76.782499999999998863131622783839702606201171875,"poi_name":"Medio Atrato","parent_id":"3686431","long":-76.782499999999998863131622783839702606201171875},"17":{"id":"9179553","label":"Medio Baud\u00f3","value":"9179553","lat":5.04999999999999982236431605997495353221893310546875,"lon":-77.0499999999999971578290569595992565155029296875,"poi_name":"Medio Baud\u00f3","parent_id":"3686431","long":-77.0499999999999971578290569595992565155029296875},"18":{"id":"9179528","label":"Medio San Juan","value":"9179528","lat":5.09278000000000030667024475405924022197723388671875,"lon":-76.695279999999996789483702741563320159912109375,"poi_name":"Medio San Juan","parent_id":"3686431","long":-76.695279999999996789483702741563320159912109375},"19":{"id":"3673691","label":"Nuqu\u00ed","value":"3673691","lat":5.670139999999999957935870043002068996429443359375,"lon":-77.28753000000000383806764148175716400146484375,"poi_name":"Nuqu\u00ed","parent_id":"3686431","long":-77.28753000000000383806764148175716400146484375},"20":{"id":"3673784","label":"N\u00f3vita","value":"3673784","lat":4.916669999999999873807610129006206989288330078125,"lon":-76.5833300000000036789060686714947223663330078125,"poi_name":"N\u00f3vita","parent_id":"3686431","long":-76.5833300000000036789060686714947223663330078125},"21":{"id":"3671117","label":"Quibd\u00f3","value":"3671117","lat":5.833330000000000126192389870993793010711669921875,"lon":-76.6666699999999963210939313285052776336669921875,"poi_name":"Quibd\u00f3","parent_id":"3686431","long":-76.6666699999999963210939313285052776336669921875},"22":{"id":"3670720","label":"Riosucio","value":"3670720","lat":7.416669999999999873807610129006206989288330078125,"lon":-77.1666699999999963210939313285052776336669921875,"poi_name":"Riosucio","parent_id":"3686431","long":-77.1666699999999963210939313285052776336669921875},"23":{"id":"9179554","label":"R\u00edo Iro","value":"9179554","lat":5.1833299999999997709210219909437000751495361328125,"lon":-76.4832999999999998408384271897375583648681640625,"poi_name":"R\u00edo Iro","parent_id":"3686431","long":-76.4832999999999998408384271897375583648681640625},"24":{"id":"9179548","label":"R\u00edo Quito","value":"9179548","lat":5.51667000000000040671466194908134639263153076171875,"lon":-76.75,"poi_name":"R\u00edo Quito","parent_id":"3686431","long":-76.75},"25":{"id":"3669550","label":"San Jos\u00e9 del Palmar","value":"3669550","lat":4.916669999999999873807610129006206989288330078125,"lon":-76.25,"poi_name":"San Jos\u00e9 del Palmar","parent_id":"3686431","long":-76.25},"26":{"id":"3667960","label":"Sip\u00ed","value":"3667960","lat":4.583330000000000126192389870993793010711669921875,"lon":-76.5,"poi_name":"Sip\u00ed","parent_id":"3686431","long":-76.5},"27":{"id":"3667580","label":"Tad\u00f3","value":"3667580","lat":5.333330000000000126192389870993793010711669921875,"lon":-76.4166699999999963210939313285052776336669921875,"poi_name":"Tad\u00f3","parent_id":"3686431","long":-76.4166699999999963210939313285052776336669921875},"28":{"id":"9172032","label":"Ungu\u00eda","value":"9172032","lat":8.1111799999999991683807820663787424564361572265625,"lon":-77.109160000000002810338628478348255157470703125,"poi_name":"Ungu\u00eda","parent_id":"3686431","long":-77.109160000000002810338628478348255157470703125},"29":{"id":"9179543","label":"Uni\u00f3n Panamericana","value":"9179543","lat":5.2813900000000000289901436190120875835418701171875,"lon":-76.6299999999999954525264911353588104248046875,"poi_name":"Uni\u00f3n Panamericana","parent_id":"3686431","long":-76.6299999999999954525264911353588104248046875}}