{"success":true,"remaining_lookups":9555,"0":{"id":"3690317","label":"Aguazul","value":"3690317","lat":5.09921999999999986386001182836480438709259033203125,"lon":-72.571629999999998972270986996591091156005859375,"poi_name":"Aguazul","parent_id":"3687173","long":-72.571629999999998972270986996591091156005859375},"1":{"id":"3686820","label":"Chameza","value":"3686820","lat":5.192370000000000374029696104116737842559814453125,"lon":-72.88952000000000452928361482918262481689453125,"poi_name":"Chameza","parent_id":"3687173","long":-72.88952000000000452928361482918262481689453125},"2":{"id":"3681010","label":"Hato Corozal","value":"3681010","lat":6.1627799999999997027089193579740822315216064453125,"lon":-70.9969399999999950523488223552703857421875,"poi_name":"Hato Corozal","parent_id":"3687173","long":-70.9969399999999950523488223552703857421875},"3":{"id":"6198139","label":"La Salina","value":"6198139","lat":6.18527999999999966718178256996907293796539306640625,"lon":-72.3444400000000058525984059087932109832763671875,"poi_name":"La Salina","parent_id":"3687173","long":-72.3444400000000058525984059087932109832763671875},"4":{"id":"3675454","label":"Man\u00ed","value":"3675454","lat":4.833330000000000126192389870993793010711669921875,"lon":-72.3333300000000036789060686714947223663330078125,"poi_name":"Man\u00ed","parent_id":"3687173","long":-72.3333300000000036789060686714947223663330078125},"5":{"id":"3674446","label":"Monterrey","value":"3674446","lat":4.8201499999999999346300683100707828998565673828125,"lon":-72.8790099999999938518158160150051116943359375,"poi_name":"Monterrey","parent_id":"3687173","long":-72.8790099999999938518158160150051116943359375},"6":{"id":"3673697","label":"Nunch\u00eda","value":"3673697","lat":5.5444399999999998129851519479416310787200927734375,"lon":-72.1013899999999949841367197223007678985595703125,"poi_name":"Nunch\u00eda","parent_id":"3687173","long":-72.1013899999999949841367197223007678985595703125},"7":{"id":"3673538","label":"Orocu\u00e9","value":"3673538","lat":4.92194000000000020378365661599673330783843994140625,"lon":-71.5972199999999929787009023129940032958984375,"poi_name":"Orocu\u00e9","parent_id":"3687173","long":-71.5972199999999929787009023129940032958984375},"8":{"id":"3672655","label":"Paz de Ariporo","value":"3672655","lat":5.88332999999999994855670593096874654293060302734375,"lon":-71.900000000000005684341886080801486968994140625,"poi_name":"Paz de Ariporo","parent_id":"3687173","long":-71.900000000000005684341886080801486968994140625},"9":{"id":"3671904","label":"Pore","value":"3671904","lat":5.67082999999999959328533805091865360736846923828125,"lon":-71.93000000000000682121026329696178436279296875,"poi_name":"Pore","parent_id":"3687173","long":-71.93000000000000682121026329696178436279296875},"10":{"id":"3670935","label":"Recetor","value":"3670935","lat":5.2284600000000001074340616469271481037139892578125,"lon":-72.7864299999999957435647957026958465576171875,"poi_name":"Recetor","parent_id":"3687173","long":-72.7864299999999957435647957026958465576171875},"11":{"id":"9178690","label":"Sabanalarga","value":"9178690","lat":4.7351299999999998391331246239133179187774658203125,"lon":-73.0082000000000022055246517993509769439697265625,"poi_name":"Sabanalarga","parent_id":"3687173","long":-73.0082000000000022055246517993509769439697265625},"12":{"id":"3669354","label":"San Luis de Palenque","value":"3669354","lat":5.28056000000000036465053199208341538906097412109375,"lon":-71.581940000000003010427462868392467498779296875,"poi_name":"San Luis de Palenque","parent_id":"3687173","long":-71.581940000000003010427462868392467498779296875},"13":{"id":"3670444","label":"S\u00e1cama","value":"3670444","lat":6.083330000000000126192389870993793010711669921875,"lon":-72.0833300000000036789060686714947223663330078125,"poi_name":"S\u00e1cama","parent_id":"3687173","long":-72.0833300000000036789060686714947223663330078125},"14":{"id":"9172036","label":"Tauramena","value":"9172036","lat":4.66448000000000018161472326028160750865936279296875,"lon":-72.650700000000000500222085975110530853271484375,"poi_name":"Tauramena","parent_id":"3687173","long":-72.650700000000000500222085975110530853271484375},"15":{"id":"3666722","label":"Trinidad","value":"3666722","lat":5.34778000000000020008883439004421234130859375,"lon":-71.2019399999999933470462565310299396514892578125,"poi_name":"Trinidad","parent_id":"3687173","long":-71.2019399999999933470462565310299396514892578125},"16":{"id":"3667517","label":"T\u00e1mara","value":"3667517","lat":5.88971999999999962227548166993074119091033935546875,"lon":-72.2130599999999986948751029558479785919189453125,"poi_name":"T\u00e1mara","parent_id":"3687173","long":-72.2130599999999986948751029558479785919189453125},"17":{"id":"9172246","label":"Villanueva","value":"9172246","lat":4.47820000000000018047785488306544721126556396484375,"lon":-72.822419999999993933670339174568653106689453125,"poi_name":"Villanueva","parent_id":"3687173","long":-72.822419999999993933670339174568653106689453125},"18":{"id":"3665690","label":"Yopal","value":"3665690","lat":5.2580600000000004001776687800884246826171875,"lon":-72.2644399999999933470462565310299396514892578125,"poi_name":"Yopal","parent_id":"3687173","long":-72.2644399999999933470462565310299396514892578125}}