{"success":true,"remaining_lookups":9544,"0":{"id":"8128836","label":"Albania","value":"8128836","lat":1.2632499999999999840127884453977458178997039794921875,"lon":-75.9536599999999992860466591082513332366943359375,"poi_name":"Albania","parent_id":"3687479","long":-75.9536599999999992860466591082513332366943359375},"1":{"id":"3688992","label":"Bel\u00e9n de Los Andaquies","value":"3688992","lat":1.4166700000000000958522150540375150740146636962890625,"lon":-75.9166699999999963210939313285052776336669921875,"poi_name":"Bel\u00e9n de Los Andaquies","parent_id":"3687479","long":-75.9166699999999963210939313285052776336669921875},"2":{"id":"9172287","label":"Cartagena del Chair\u00e1","value":"9172287","lat":0.8524599999999999955235807647113688290119171142578125,"lon":-74.6059000000000054342308430932462215423583984375,"poi_name":"Cartagena del Chair\u00e1","parent_id":"3687479","long":-74.6059000000000054342308430932462215423583984375},"3":{"id":"9172289","label":"Curillo","value":"9172289","lat":1.0986100000000000864730509420041926205158233642578125,"lon":-76.0304000000000002046363078989088535308837890625,"poi_name":"Curillo","parent_id":"3687479","long":-76.0304000000000002046363078989088535308837890625},"4":{"id":"6979260","label":"El Doncello","value":"6979260","lat":1.7085999999999998966160319469054229557514190673828125,"lon":-75.2858800000000059071680880151689052581787109375,"poi_name":"El Doncello","parent_id":"3687479","long":-75.2858800000000059071680880151689052581787109375},"5":{"id":"6979261","label":"El Paujil","value":"6979261","lat":1.57085000000000007958078640513122081756591796875,"lon":-75.31403000000000247382558882236480712890625,"poi_name":"El Paujil","parent_id":"3687479","long":-75.31403000000000247382558882236480712890625},"6":{"id":"3682428","label":"Florencia","value":"3682428","lat":1.75,"lon":-75.5833300000000036789060686714947223663330078125,"poi_name":"Florencia","parent_id":"3687479","long":-75.5833300000000036789060686714947223663330078125},"7":{"id":"3674528","label":"La Monta\u00f1ita","value":"3674528","lat":1.4638899999999999135269490579958073794841766357421875,"lon":-75.3036299999999982901499606668949127197265625,"poi_name":"La Monta\u00f1ita","parent_id":"3687479","long":-75.3036299999999982901499606668949127197265625},"8":{"id":"6977691","label":"Mil\u00e1n","value":"6977691","lat":1.153820000000000067785776991513557732105255126953125,"lon":-75.5460599999999971032593748532235622406005859375,"poi_name":"Mil\u00e1n","parent_id":"3687479","long":-75.5460599999999971032593748532235622406005859375},"9":{"id":"9172293","label":"Morelia","value":"9172293","lat":1.482299999999999950972551232553087174892425537109375,"lon":-75.720519999999993387973518110811710357666015625,"poi_name":"Morelia","parent_id":"3687479","long":-75.720519999999993387973518110811710357666015625},"10":{"id":"6979259","label":"Puerto Rico","value":"6979259","lat":1.96778999999999992809307514107786118984222412109375,"lon":-75.0333399999999954843588056974112987518310546875,"poi_name":"Puerto Rico","parent_id":"3687479","long":-75.0333399999999954843588056974112987518310546875},"11":{"id":"9172295","label":"San Jos\u00e9 del Fragua","value":"9172295","lat":1.3078000000000000735411731511703692376613616943359375,"lon":-76.165539999999992915036273188889026641845703125,"poi_name":"San Jos\u00e9 del Fragua","parent_id":"3687479","long":-76.165539999999992915036273188889026641845703125},"12":{"id":"3668291","label":"San Vicente del Cagu\u00e1n","value":"3668291","lat":2.152499999999999857891452847979962825775146484375,"lon":-74.7888899999999949841367197223007678985595703125,"poi_name":"San Vicente del Cagu\u00e1n","parent_id":"3687479","long":-74.7888899999999949841367197223007678985595703125},"13":{"id":"9172297","label":"Solano","value":"9172297","lat":0.228420000000000011919354392375680617988109588623046875,"lon":-73.275970000000000936779542826116085052490234375,"poi_name":"Solano","parent_id":"3687479","long":-73.275970000000000936779542826116085052490234375},"14":{"id":"6792005","label":"Solita","value":"6792005","lat":0.96979000000000004089173444299376569688320159912109375,"lon":-75.6553200000000032332536648027598857879638671875,"poi_name":"Solita","parent_id":"3687479","long":-75.6553200000000032332536648027598857879638671875},"15":{"id":"9172351","label":"Valpara\u00edso","value":"9172351","lat":1.0570600000000001106315039578475989401340484619140625,"lon":-75.759690000000006193658919073641300201416015625,"poi_name":"Valpara\u00edso","parent_id":"3687479","long":-75.759690000000006193658919073641300201416015625}}