{"success":true,"remaining_lookups":9561,"0":{"id":"9172023","label":"El Encanto","value":"9172023","lat":-1.5626100000000000544986278327996842563152313232421875,"lon":-73.2568399999999968486008583568036556243896484375,"poi_name":"El Encanto","parent_id":"3689982","long":-73.2568399999999968486008583568036556243896484375},"1":{"id":"9172025","label":"La Chorrera","value":"9172025","lat":-1.488939999999999930224703348358161747455596923828125,"lon":-72.7293499999999966121322358958423137664794921875,"poi_name":"La Chorrera","parent_id":"3689982","long":-72.7293499999999966121322358958423137664794921875},"2":{"id":"9172026","label":"La Pedrera","value":"9172026","lat":-1.6559600000000000985522774499258957803249359130859375,"lon":-70.2218600000000066074790083803236484527587890625,"poi_name":"La Pedrera","parent_id":"3689982","long":-70.2218600000000066074790083803236484527587890625},"3":{"id":"9172266","label":"La Victoria","value":"9172266","lat":-0.18310999999999999499067371289129368960857391357421875,"lon":-71.0375999999999976353137753903865814208984375,"poi_name":"La Victoria","parent_id":"3689982","long":-71.0375999999999976353137753903865814208984375},"4":{"id":"9172028","label":"Leticia","value":"9172028","lat":-3.65829000000000004177991286269389092922210693359375,"lon":-70.0281700000000029149305191822350025177001953125,"poi_name":"Leticia","parent_id":"3689982","long":-70.0281700000000029149305191822350025177001953125},"5":{"id":"9172030","label":"Miriti - Paran\u00e1","value":"9172030","lat":-0.81857999999999997431388010227237828075885772705078125,"lon":-70.7892499999999955662133288569748401641845703125,"poi_name":"Miriti - Paran\u00e1","parent_id":"3689982","long":-70.7892499999999955662133288569748401641845703125},"6":{"id":"9609512","label":"Puerto Alegr\u00eda","value":"9609512","lat":-0.9688600000000000544986278327996842563152313232421875,"lon":-73.74961999999999306965037249028682708740234375,"poi_name":"Puerto Alegr\u00eda","parent_id":"3689982","long":-73.74961999999999306965037249028682708740234375},"7":{"id":"9609513","label":"Puerto Arica","value":"9609513","lat":-1.9067700000000000759570184527547098696231842041015625,"lon":-71.1465299999999984947862685658037662506103515625,"poi_name":"Puerto Arica","parent_id":"3689982","long":-71.1465299999999984947862685658037662506103515625},"8":{"id":"9172031","label":"Puerto Nari\u00f1o","value":"9172031","lat":-3.605519999999999836148845133720897138118743896484375,"lon":-70.4145800000000008367351256310939788818359375,"poi_name":"Puerto Nari\u00f1o","parent_id":"3689982","long":-70.4145800000000008367351256310939788818359375},"9":{"id":"9172033","label":"Puerto Santander","value":"9172033","lat":-1.09870000000000000994759830064140260219573974609375,"lon":-71.939109999999999445208231918513774871826171875,"poi_name":"Puerto Santander","parent_id":"3689982","long":-71.939109999999999445208231918513774871826171875},"10":{"id":"9172034","label":"Tarapac\u00e1","value":"9172034","lat":-2.88544000000000000483169060316868126392364501953125,"lon":-69.7769200000000040517988963983952999114990234375,"poi_name":"Tarapac\u00e1","parent_id":"3689982","long":-69.7769200000000040517988963983952999114990234375}}