{"success":true,"remaining_lookups":7083,"0":{"id":"893405","label":"Chirumanzu District","value":"893405","lat":-19.299440000000000594582161284051835536956787109375,"lon":30.52132999999999896090230322442948818206787109375,"poi_name":"Chirumanzu District","parent_id":"886119","long":30.52132999999999896090230322442948818206787109375},"1":{"id":"890981","label":"Gokwe North District","value":"890981","lat":-17.530000000000001136868377216160297393798828125,"lon":28.910000000000000142108547152020037174224853515625,"poi_name":"Gokwe North District","parent_id":"886119","long":28.910000000000000142108547152020037174224853515625},"2":{"id":"8260609","label":"Gokwe South District","value":"8260609","lat":-18.239999999999998436805981327779591083526611328125,"lon":28.64999999999999857891452847979962825775146484375,"poi_name":"Gokwe South District","parent_id":"886119","long":28.64999999999999857891452847979962825775146484375},"3":{"id":"890420","label":"Gweru District","value":"890420","lat":-19.456649999999999778310666442848742008209228515625,"lon":29.64495000000000146656020660884678363800048828125,"poi_name":"Gweru District","parent_id":"886119","long":29.64495000000000146656020660884678363800048828125},"4":{"id":"888708","label":"Kwekwe District","value":"888708","lat":-18.75,"lon":29.5,"poi_name":"Kwekwe District","parent_id":"886119","long":29.5},"5":{"id":"886328","label":"Mberengwa District","value":"886328","lat":-20.725789999999999935198502498678863048553466796875,"lon":30.009620000000001738271748763509094715118408203125,"poi_name":"Mberengwa District","parent_id":"886119","long":30.009620000000001738271748763509094715118408203125},"6":{"id":"881163","label":"Shurugwi District","value":"881163","lat":-19.75,"lon":30.166669999999999873807610129006206989288330078125,"poi_name":"Shurugwi District","parent_id":"886119","long":30.166669999999999873807610129006206989288330078125},"7":{"id":"878548","label":"Zvishavane District","value":"878548","lat":-20.303450000000001551825334900058805942535400390625,"lon":30.075140000000001094804247259162366390228271484375,"poi_name":"Zvishavane District","parent_id":"886119","long":30.075140000000001094804247259162366390228271484375}}