{"success":true,"remaining_lookups":7084,"0":{"id":"895268","label":"Beitbridge District","value":"895268","lat":-21.898289999999999366764313890598714351654052734375,"lon":30.074090000000001765556589816696941852569580078125,"poi_name":"Beitbridge District","parent_id":"886747","long":30.074090000000001765556589816696941852569580078125},"1":{"id":"10800403","label":"Bulilima District","value":"10800403","lat":-20.2323999999999983856469043530523777008056640625,"lon":27.650999999999999801048033987171947956085205078125,"poi_name":"Bulilima District","parent_id":"886747","long":27.650999999999999801048033987171947956085205078125},"2":{"id":"890515","label":"Gwanda District","value":"890515","lat":-21.209289999999999309920895029790699481964111328125,"lon":29.17557000000000044792614062316715717315673828125,"poi_name":"Gwanda District","parent_id":"886747","long":29.17557000000000044792614062316715717315673828125},"3":{"id":"889793","label":"Insiza District","value":"889793","lat":-20.264309999999998268549461499787867069244384765625,"lon":29.47391999999999967485564411617815494537353515625,"poi_name":"Insiza District","parent_id":"886747","long":29.47391999999999967485564411617815494537353515625},"4":{"id":"894702","label":"Mangwe District","value":"894702","lat":-20.9554499999999990222931955941021442413330078125,"lon":27.98292000000000001591615728102624416351318359375,"poi_name":"Mangwe District","parent_id":"886747","long":27.98292000000000001591615728102624416351318359375},"5":{"id":"886636","label":"Matobo","value":"886636","lat":-20.9554499999999990222931955941021442413330078125,"lon":28.494630000000000791260390542447566986083984375,"poi_name":"Matobo","parent_id":"886747","long":28.494630000000000791260390542447566986083984375},"6":{"id":"879611","label":"Umzingwane District","value":"879611","lat":-20.34703999999999979308995534665882587432861328125,"lon":28.949940000000001560920281917788088321685791015625,"poi_name":"Umzingwane District","parent_id":"886747","long":28.949940000000001560920281917788088321685791015625}}