{"success":true,"remaining_lookups":7089,"0":{"id":"895060","label":"Bindura District","value":"895060","lat":-17.212299999999999045030563138425350189208984375,"lon":31.303000000000000824229573481716215610504150390625,"poi_name":"Bindura District","parent_id":"886843","long":31.303000000000000824229573481716215610504150390625},"1":{"id":"894459","label":"Centenary District","value":"894459","lat":-16.416669999999999873807610129006206989288330078125,"lon":31.166669999999999873807610129006206989288330078125,"poi_name":"Centenary District","parent_id":"886843","long":31.166669999999999873807610129006206989288330078125},"2":{"id":"890599","label":"Guruve District","value":"890599","lat":-16.372060000000001167563823400996625423431396484375,"lon":30.606069999999998998418959672562777996063232421875,"poi_name":"Guruve District","parent_id":"886843","long":30.606069999999998998418959672562777996063232421875},"3":{"id":"886383","label":"Mazowe District","value":"886383","lat":-17.28079999999999927240423858165740966796875,"lon":30.932310000000001082298695109784603118896484375,"poi_name":"Mazowe District","parent_id":"886843","long":30.932310000000001082298695109784603118896484375},"4":{"id":"892597","label":"Mount Darwin","value":"892597","lat":-16.60792000000000001591615728102624416351318359375,"lon":31.68578000000000116642695502378046512603759765625,"poi_name":"Mount Darwin","parent_id":"886843","long":31.68578000000000116642695502378046512603759765625},"5":{"id":"882083","label":"Rushinga District","value":"882083","lat":-16.60792000000000001591615728102624416351318359375,"lon":32.3143400000000013960743672214448451995849609375,"poi_name":"Rushinga District","parent_id":"886843","long":32.3143400000000013960743672214448451995849609375},"6":{"id":"881344","label":"Shamva District","value":"881344","lat":-17.123660000000000991349224932491779327392578125,"lon":31.641459999999998586872607120312750339508056640625,"poi_name":"Shamva District","parent_id":"886843","long":31.641459999999998586872607120312750339508056640625}}