{"success":true,"remaining_lookups":7088,"0":{"id":"894293","label":"Chikomba District","value":"894293","lat":-18.888459999999998473185769398696720600128173828125,"lon":31.09750999999999976353137753903865814208984375,"poi_name":"Chikomba District","parent_id":"886842","long":31.09750999999999976353137753903865814208984375},"1":{"id":"890848","label":"Goromonzi District","value":"890848","lat":-17.806950000000000500222085975110530853271484375,"lon":31.36372000000000070940586738288402557373046875,"poi_name":"Goromonzi District","parent_id":"886842","long":31.36372000000000070940586738288402557373046875},"2":{"id":"879178","label":"Hwedza District","value":"879178","lat":-18.727289999999999992041921359486877918243408203125,"lon":31.653549999999999187139110290445387363433837890625,"poi_name":"Hwedza District","parent_id":"886842","long":31.653549999999999187139110290445387363433837890625},"3":{"id":"886989","label":"Marondera District","value":"886989","lat":-18.292139999999999844249032321386039257049560546875,"lon":31.512519999999998532302925013937056064605712890625,"poi_name":"Marondera District","parent_id":"886842","long":31.512519999999998532302925013937056064605712890625},"4":{"id":"885457","label":"Mudzi District","value":"885457","lat":-17.047109999999999985220711096189916133880615234375,"lon":32.65279000000000309000824927352368831634521484375,"poi_name":"Mudzi District","parent_id":"886842","long":32.65279000000000309000824927352368831634521484375},"5":{"id":"885172","label":"Murehwa District","value":"885172","lat":-17.80057000000000044792614062316715717315673828125,"lon":31.83082999999999884721546550281345844268798828125,"poi_name":"Murehwa District","parent_id":"886842","long":31.83082999999999884721546550281345844268798828125},"6":{"id":"884926","label":"Mutoko District","value":"884926","lat":-17.466149999999998954081092961132526397705078125,"lon":32.2941900000000003956301952712237834930419921875,"poi_name":"Mutoko District","parent_id":"886842","long":32.2941900000000003956301952712237834930419921875},"7":{"id":"881519","label":"Seke District","value":"881519","lat":-18.235730000000000217141860048286616802215576171875,"lon":30.956489999999998730118022649548947811126708984375,"poi_name":"Seke District","parent_id":"886842","long":30.956489999999998730118022649548947811126708984375},"8":{"id":"10800411","label":"Uzumba-Maramba-Pfungwe District","value":"10800411","lat":-17.037749999999999062083588796667754650115966796875,"lon":32.025700000000000500222085975110530853271484375,"poi_name":"Uzumba-Maramba-Pfungwe District","parent_id":"886842","long":32.025700000000000500222085975110530853271484375}}