{"success":true,"remaining_lookups":7090,"0":{"id":"894711","label":"Buhera District","value":"894711","lat":-19.456579999999998875637174933217465877532958984375,"lon":31.931560000000001053876985679380595684051513671875,"poi_name":"Buhera District","parent_id":"887358","long":31.931560000000001053876985679380595684051513671875},"1":{"id":"893811","label":"Chimanimani District","value":"893811","lat":-19.782949999999999590727384202182292938232421875,"lon":32.7333799999999968122210702858865261077880859375,"poi_name":"Chimanimani District","parent_id":"887358","long":32.7333799999999968122210702858865261077880859375},"2":{"id":"893548","label":"Chipinge District","value":"893548","lat":-20.549589999999998468638295889832079410552978515625,"lon":32.4311000000000007048583938740193843841552734375,"poi_name":"Chipinge District","parent_id":"887358","long":32.4311000000000007048583938740193843841552734375},"3":{"id":"887718","label":"Makoni District","value":"887718","lat":-18.335499999999999687361196265555918216705322265625,"lon":32.14650000000000318323145620524883270263671875,"poi_name":"Makoni District","parent_id":"887358","long":32.14650000000000318323145620524883270263671875},"4":{"id":"11204515","label":"Mossurize District","value":"11204515","lat":-20.45821000000000111640474642626941204071044921875,"lon":32.44588999999999856527210795320570468902587890625,"poi_name":"Mossurize District","parent_id":"887358","long":32.44588999999999856527210795320570468902587890625},"5":{"id":"884978","label":"Mutare District","value":"884978","lat":-19.255120000000001567741492181085050106048583984375,"lon":32.4432699999999982765075401403009891510009765625,"poi_name":"Mutare District","parent_id":"887358","long":32.4432699999999982765075401403009891510009765625},"6":{"id":"884977","label":"Mutasa District","value":"884977","lat":-18.6628299999999995861799106933176517486572265625,"lon":32.7454699999999974124875734560191631317138671875,"poi_name":"Mutasa District","parent_id":"887358","long":32.7454699999999974124875734560191631317138671875},"7":{"id":"883480","label":"Nyanga District","value":"883480","lat":-17.92951000000000050249582272954285144805908203125,"lon":32.76561000000000234422259381972253322601318359375,"poi_name":"Nyanga District","parent_id":"887358","long":32.76561000000000234422259381972253322601318359375}}