{"success":true,"remaining_lookups":9685,"0":{"id":"9171803","label":"Bugarama","value":"9171803","lat":-3.69047999999999998266275724745355546474456787109375,"lon":29.40041000000000082081896835006773471832275390625,"poi_name":"Bugarama","parent_id":"11184798","long":29.40041000000000082081896835006773471832275390625},"1":{"id":"7670592","label":"Buyengero","value":"7670592","lat":-3.850410000000000110276232589967548847198486328125,"lon":29.52747000000000099362296168692409992218017578125,"poi_name":"Buyengero","parent_id":"11184798","long":29.52747000000000099362296168692409992218017578125},"2":{"id":"9881326","label":"Commune of Burambi","value":"9881326","lat":-3.81721999999999983543830239796079695224761962890625,"lon":29.377780000000001336957211606204509735107421875,"poi_name":"Commune of Burambi","parent_id":"11184798","long":29.377780000000001336957211606204509735107421875},"3":{"id":"9158023","label":"Commune of Rumonge","value":"9158023","lat":-3.966670000000000140261136039043776690959930419921875,"lon":29.433330000000001547277861391194164752960205078125,"poi_name":"Commune of Rumonge","parent_id":"11184798","long":29.433330000000001547277861391194164752960205078125},"4":{"id":"7670606","label":"Muhuta","value":"7670606","lat":-3.6223299999999998277644408517517149448394775390625,"lon":29.418279999999999319015842047519981861114501953125,"poi_name":"Muhuta","parent_id":"11184798","long":29.418279999999999319015842047519981861114501953125}}