{"success":true,"remaining_lookups":9690,"0":{"id":"9072891","label":"Commune of Makamba","value":"9072891","lat":-4.1347199999999997288568920339457690715789794921875,"lon":29.80499999999999971578290569595992565155029296875,"poi_name":"Commune of Makamba","parent_id":"422233","long":29.80499999999999971578290569595992565155029296875},"1":{"id":"9171820","label":"Kayogoro","value":"9171820","lat":-4.1500000000000003552713678800500929355621337890625,"lon":30.0237300000000004729372449219226837158203125,"poi_name":"Kayogoro","parent_id":"422233","long":30.0237300000000004729372449219226837158203125},"2":{"id":"9171823","label":"Kibago","value":"9171823","lat":-4.2902100000000000790123522165231406688690185546875,"lon":29.89114000000000004320099833421409130096435546875,"poi_name":"Kibago","parent_id":"422233","long":29.89114000000000004320099833421409130096435546875},"3":{"id":"7670603","label":"Mabanda","value":"7670603","lat":-4.30346000000000028506974558695219457149505615234375,"lon":29.76823999999999870169631321914494037628173828125,"poi_name":"Mabanda","parent_id":"422233","long":29.76823999999999870169631321914494037628173828125},"4":{"id":"9171854","label":"Nyanza-Lac","value":"9171854","lat":-4.30252000000000034418690120219253003597259521484375,"lon":29.646629999999998261728251236490905284881591796875,"poi_name":"Nyanza-Lac","parent_id":"422233","long":29.646629999999998261728251236490905284881591796875},"5":{"id":"9171810","label":"Vugizo","value":"9171810","lat":-4.15383999999999975472064761561341583728790283203125,"lon":29.678490000000000037516656448133289813995361328125,"poi_name":"Vugizo","parent_id":"422233","long":29.678490000000000037516656448133289813995361328125}}