{"success":true,"remaining_lookups":9694,"0":{"id":"7670933","label":"Bugendana","value":"7670933","lat":-3.25199999999999977973175191436894237995147705078125,"lon":29.946999999999999175770426518283784389495849609375,"poi_name":"Bugendana","parent_id":"426271","long":29.946999999999999175770426518283784389495849609375},"1":{"id":"9171845","label":"Bukirasazi","value":"9171845","lat":-3.701769999999999782858139951713383197784423828125,"lon":29.966750000000001108446667785756289958953857421875,"poi_name":"Bukirasazi","parent_id":"426271","long":29.966750000000001108446667785756289958953857421875},"2":{"id":"7670589","label":"Buraza","value":"7670589","lat":-3.75753000000000003666400516522116959095001220703125,"lon":29.911979999999999790816218592226505279541015625,"poi_name":"Buraza","parent_id":"426271","long":29.911979999999999790816218592226505279541015625},"3":{"id":"8692994","label":"Commune of Itaba","value":"8692994","lat":-3.654339999999999921698190519236959517002105712890625,"lon":30.015010000000000189857018995098769664764404296875,"poi_name":"Commune of Itaba","parent_id":"426271","long":30.015010000000000189857018995098769664764404296875},"4":{"id":"7670931","label":"Giheta","value":"7670931","lat":-3.34100000000000019184653865522705018520355224609375,"lon":29.89099999999999823785401531495153903961181640625,"poi_name":"Giheta","parent_id":"426271","long":29.89099999999999823785401531495153903961181640625},"5":{"id":"9171843","label":"Gishubi","value":"9171843","lat":-3.615299999999999958077978590154089033603668212890625,"lon":29.8901800000000008594724931754171848297119140625,"poi_name":"Gishubi","parent_id":"426271","long":29.8901800000000008594724931754171848297119140625},"6":{"id":"7670597","label":"Gitega","value":"7670597","lat":-3.43813000000000013045564628555439412593841552734375,"lon":29.954809999999998382236299221403896808624267578125,"poi_name":"Gitega","parent_id":"426271","long":29.954809999999998382236299221403896808624267578125},"7":{"id":"424739","label":"Makebuko","value":"424739","lat":-3.596670000000000033679725675028748810291290283203125,"lon":30.001940000000001163016349892131984233856201171875,"poi_name":"Makebuko","parent_id":"426271","long":30.001940000000001163016349892131984233856201171875},"8":{"id":"7670823","label":"Mutaho","value":"7670823","lat":-3.14405000000000001136868377216160297393798828125,"lon":29.8701200000000000045474735088646411895751953125,"poi_name":"Mutaho","parent_id":"426271","long":29.8701200000000000045474735088646411895751953125},"9":{"id":"9171842","label":"Nyanrusange","value":"9171842","lat":-3.5680800000000001404032445861957967281341552734375,"lon":29.8301900000000017598722479306161403656005859375,"poi_name":"Nyanrusange","parent_id":"426271","long":29.8301900000000017598722479306161403656005859375},"10":{"id":"7874080","label":"Ryansoro","value":"7874080","lat":-3.722910000000000163566937771975062787532806396484375,"lon":29.79829000000000149839252117089927196502685546875,"poi_name":"Ryansoro","parent_id":"426271","long":29.79829000000000149839252117089927196502685546875}}