{"success":true,"remaining_lookups":9683,"0":{"id":"11819937","label":"Butaganzwa","value":"11819937","lat":-3.53136999999999989796606314484961330890655517578125,"lon":30.145589999999998553903424181044101715087890625,"poi_name":"Butaganzwa","parent_id":"426699","long":30.145589999999998553903424181044101715087890625},"1":{"id":"9171856","label":"Butezi","value":"9171856","lat":-3.353920000000000012363443602225743234157562255859375,"lon":30.197449999999999903366187936626374721527099609375,"poi_name":"Butezi","parent_id":"426699","long":30.197449999999999903366187936626374721527099609375},"2":{"id":"9171859","label":"Bweru","value":"9171859","lat":-3.29666000000000014580336937797255814075469970703125,"lon":30.382690000000000196678229258395731449127197265625,"poi_name":"Bweru","parent_id":"426699","long":30.382690000000000196678229258395731449127197265625},"3":{"id":"9171841","label":"Gisuru","value":"9171841","lat":-3.44592000000000009407585821463726460933685302734375,"lon":30.497930000000000205773176276125013828277587890625,"poi_name":"Gisuru","parent_id":"426699","long":30.497930000000000205773176276125013828277587890625},"4":{"id":"9171844","label":"Kinyinya","value":"9171844","lat":-3.624099999999999877076106713502667844295501708984375,"lon":30.364200000000000301270119962282478809356689453125,"poi_name":"Kinyinya","parent_id":"426699","long":30.364200000000000301270119962282478809356689453125},"5":{"id":"9171851","label":"Nyabitsinda","value":"9171851","lat":-3.5781299999999998107114151935093104839324951171875,"lon":30.2703699999999997771737980656325817108154296875,"poi_name":"Nyabitsinda","parent_id":"426699","long":30.2703699999999997771737980656325817108154296875},"6":{"id":"7670616","label":"Ruyigi","value":"7670616","lat":-3.433190000000000186020088221994228661060333251953125,"lon":30.27474000000000131649358081631362438201904296875,"poi_name":"Ruyigi","parent_id":"426699","long":30.27474000000000131649358081631362438201904296875}}