{"success":true,"remaining_lookups":9695,"0":{"id":"7670588","label":"Bukinanvana","value":"7670588","lat":-2.868160000000000042774672692758031189441680908203125,"lon":29.358599999999999141664375201798975467681884765625,"poi_name":"Bukinanvana","parent_id":"430020","long":29.358599999999999141664375201798975467681884765625},"1":{"id":"8334579","label":"Commune of Buganda","value":"8334579","lat":-2.964799999999999879918277656543068587779998779296875,"lon":29.188739999999999241708792396821081638336181640625,"poi_name":"Commune of Buganda","parent_id":"430020","long":29.188739999999999241708792396821081638336181640625},"2":{"id":"9072889","label":"Commune of Mugina","value":"9072889","lat":-2.794169999999999820516904946998693048954010009765625,"lon":29.128060000000001394937498844228684902191162109375,"poi_name":"Commune of Mugina","parent_id":"430020","long":29.128060000000001394937498844228684902191162109375},"3":{"id":"7670613","label":"Commune of Rugombo","value":"7670613","lat":-2.823350000000000026290081223123706877231597900390625,"lon":29.10228000000000037061909097246825695037841796875,"poi_name":"Commune of Rugombo","parent_id":"430020","long":29.10228000000000037061909097246825695037841796875},"4":{"id":"7670604","label":"Mabayi","value":"7670604","lat":-2.720819999999999794226823723874986171722412109375,"lon":29.247910000000000962927515502087771892547607421875,"poi_name":"Mabayi","parent_id":"430020","long":29.247910000000000962927515502087771892547607421875},"5":{"id":"7670607","label":"Murwi","value":"7670607","lat":-2.90289000000000019241497284383513033390045166015625,"lon":29.249700000000000699174051987938582897186279296875,"poi_name":"Murwi","parent_id":"430020","long":29.249700000000000699174051987938582897186279296875}}