{"success":true,"remaining_lookups":9687,"0":{"id":"7670590","label":"Busiga","value":"7670590","lat":-2.8588100000000000733280103304423391819000244140625,"lon":29.706379999999999341753209591843187808990478515625,"poi_name":"Busiga","parent_id":"430567","long":29.706379999999999341753209591843187808990478515625},"1":{"id":"7670594","label":"Gashikanwa","value":"7670594","lat":-2.89388999999999985135445967898704111576080322265625,"lon":29.90753000000000128011379274539649486541748046875,"poi_name":"Gashikanwa","parent_id":"430567","long":29.90753000000000128011379274539649486541748046875},"2":{"id":"9171874","label":"Kiremba","value":"9171874","lat":-2.836069999999999868833810978685505688190460205078125,"lon":30.032450000000000756017470848746597766876220703125,"poi_name":"Kiremba","parent_id":"430567","long":30.032450000000000756017470848746597766876220703125},"3":{"id":"9171867","label":"Marangara","value":"9171867","lat":-2.734170000000000211315409615053795278072357177734375,"lon":29.962309999999998666453393525443971157073974609375,"poi_name":"Marangara","parent_id":"430567","long":29.962309999999998666453393525443971157073974609375},"4":{"id":"9171858","label":"Mwumba","value":"9171858","lat":-2.82500999999999979905851432704366743564605712890625,"lon":29.80057000000000044792614062316715717315673828125,"poi_name":"Mwumba","parent_id":"430567","long":29.80057000000000044792614062316715717315673828125},"5":{"id":"7670822","label":"Ngozi","value":"7670822","lat":-2.9480599999999999027977537480182945728302001953125,"lon":29.8304499999999990222931955941021442413330078125,"poi_name":"Ngozi","parent_id":"430567","long":29.8304499999999990222931955941021442413330078125},"6":{"id":"9171863","label":"Nyamurenza","value":"9171863","lat":-2.813629999999999853343979339115321636199951171875,"lon":29.88101999999999947021933621726930141448974609375,"poi_name":"Nyamurenza","parent_id":"430567","long":29.88101999999999947021933621726930141448974609375},"7":{"id":"7670614","label":"Ruhororo","value":"7670614","lat":-3.0089600000000000790123522165231406688690185546875,"lon":29.9389800000000008139977580867707729339599609375,"poi_name":"Ruhororo","parent_id":"430567","long":29.9389800000000008139977580867707729339599609375},"8":{"id":"7670617","label":"Tangara","value":"7670617","lat":-2.913580000000000058690829973784275352954864501953125,"lon":30.072440000000000281943357549607753753662109375,"poi_name":"Tangara","parent_id":"430567","long":30.072440000000000281943357549607753753662109375}}