{"success":true,"remaining_lookups":9692,"0":{"id":"8692984","label":"Butaganzwa","value":"8692984","lat":-3.102289999999999992041921359486877918243408203125,"lon":29.694790000000001128910298575647175312042236328125,"poi_name":"Butaganzwa","parent_id":"430951","long":29.694790000000001128910298575647175312042236328125},"1":{"id":"9072885","label":"Commune of Matongo","value":"9072885","lat":-3.089440000000000186020088221994228661060333251953125,"lon":29.611940000000000594582161284051835536956787109375,"poi_name":"Commune of Matongo","parent_id":"430951","long":29.611940000000000594582161284051835536956787109375},"2":{"id":"9171831","label":"Gahombo","value":"9171831","lat":-2.992780000000000217852402784046716988086700439453125,"lon":29.73246999999999928832039586268365383148193359375,"poi_name":"Gahombo","parent_id":"430951","long":29.73246999999999928832039586268365383148193359375},"3":{"id":"9171830","label":"Gatara","value":"9171830","lat":-2.9922599999999999198507794062606990337371826171875,"lon":29.677420000000001465423338231630623340606689453125,"poi_name":"Gatara","parent_id":"430951","long":29.677420000000001465423338231630623340606689453125},"4":{"id":"7670599","label":"Kabarore","value":"7670599","lat":-2.84457000000000004291678123991005122661590576171875,"lon":29.546279999999999432702679769136011600494384765625,"poi_name":"Kabarore","parent_id":"430951","long":29.546279999999999432702679769136011600494384765625},"5":{"id":"7670600","label":"Kayanza","value":"7670600","lat":-2.92126999999999981127984938211739063262939453125,"lon":29.644400000000000972022462519817054271697998046875,"poi_name":"Kayanza","parent_id":"430951","long":29.644400000000000972022462519817054271697998046875},"6":{"id":"9171868","label":"Muhanga","value":"9171868","lat":-3.044490000000000140545353133347816765308380126953125,"lon":29.8034099999999995134203345514833927154541015625,"poi_name":"Muhanga","parent_id":"430951","long":29.8034099999999995134203345514833927154541015625},"7":{"id":"7732510","label":"Muruta","value":"7732510","lat":-2.968409999999999993036681189551018178462982177734375,"lon":29.558029999999998693738234578631818294525146484375,"poi_name":"Muruta","parent_id":"430951","long":29.558029999999998693738234578631818294525146484375},"8":{"id":"9171817","label":"Rango","value":"9171817","lat":-3.15571000000000001506350599811412394046783447265625,"lon":29.762119999999999464534994331188499927520751953125,"poi_name":"Rango","parent_id":"430951","long":29.762119999999999464534994331188499927520751953125}}