{"success":true,"remaining_lookups":9688,"0":{"id":"9171832","label":"Buhinyuza","value":"9171832","lat":-2.9797799999999998732391759403981268405914306640625,"lon":30.37830999999999903593561612069606781005859375,"poi_name":"Buhinyuza","parent_id":"431747","long":30.37830999999999903593561612069606781005859375},"1":{"id":"9171829","label":"Butihinda","value":"9171829","lat":-2.710949999999999970867747833835892379283905029296875,"lon":30.322320000000001272155714104883372783660888671875,"poi_name":"Butihinda","parent_id":"431747","long":30.322320000000001272155714104883372783660888671875},"2":{"id":"7670595","label":"Gashoho","value":"7670595","lat":-2.76123999999999991672439136891625821590423583984375,"lon":30.172889999999998877910911687649786472320556640625,"poi_name":"Gashoho","parent_id":"431747","long":30.172889999999998877910911687649786472320556640625},"3":{"id":"9171884","label":"Gasorwe","value":"9171884","lat":-2.85116000000000013869794202037155628204345703125,"lon":30.235759999999999081410351209342479705810546875,"poi_name":"Gasorwe","parent_id":"431747","long":30.235759999999999081410351209342479705810546875},"4":{"id":"7670598","label":"Giteranyi","value":"7670598","lat":-2.46164000000000005030642569181509315967559814453125,"lon":30.446269999999998390194377861917018890380859375,"poi_name":"Giteranyi","parent_id":"431747","long":30.446269999999998390194377861917018890380859375},"5":{"id":"7670609","label":"Muyinga","value":"7670609","lat":-2.809480000000000199378291654284112155437469482421875,"lon":30.38517999999999830151864443905651569366455078125,"poi_name":"Muyinga","parent_id":"431747","long":30.38517999999999830151864443905651569366455078125},"6":{"id":"9171882","label":"Mwakiro","value":"9171882","lat":-3.095870000000000121787024909281171858310699462890625,"lon":30.3116500000000002046363078989088535308837890625,"poi_name":"Mwakiro","parent_id":"431747","long":30.3116500000000002046363078989088535308837890625}}