{"success":true,"remaining_lookups":9698,"0":{"id":"7670608","label":"Commune of Mutimbuzi","value":"7670608","lat":-3.29300000000000014921397450962103903293609619140625,"lon":29.324999999999999289457264239899814128875732421875,"poi_name":"Commune of Mutimbuzi","parent_id":"7303940","long":29.324999999999999289457264239899814128875732421875},"1":{"id":"9171821","label":"Isale","value":"9171821","lat":-3.363440000000000207336370294797234237194061279296875,"lon":29.470449999999999590727384202182292938232421875,"poi_name":"Isale","parent_id":"7303940","long":29.470449999999999590727384202182292938232421875},"2":{"id":"9171806","label":"Kabezi","value":"9171806","lat":-3.531099999999999905497816143906675279140472412109375,"lon":29.369969999999998577777660102583467960357666015625,"poi_name":"Kabezi","parent_id":"7303940","long":29.369969999999998577777660102583467960357666015625},"3":{"id":"9171805","label":"Kanyosha1","value":"9171805","lat":-3.430969999999999853201870791963301599025726318359375,"lon":29.415310000000001622311174287460744380950927734375,"poi_name":"Kanyosha1","parent_id":"7303940","long":29.415310000000001622311174287460744380950927734375},"4":{"id":"9171825","label":"Mubimbi","value":"9171825","lat":-3.295739999999999891855395617312751710414886474609375,"lon":29.484030000000000626414475846104323863983154296875,"poi_name":"Mubimbi","parent_id":"7303940","long":29.484030000000000626414475846104323863983154296875},"5":{"id":"9171815","label":"Mugongomanga","value":"9171815","lat":-3.441409999999999858033561395131982862949371337890625,"lon":29.548529999999999517967808060348033905029296875,"poi_name":"Mugongomanga","parent_id":"7303940","long":29.548529999999999517967808060348033905029296875},"6":{"id":"9171807","label":"Mukike","value":"9171807","lat":-3.564569999999999794226823723874986171722412109375,"lon":29.5139199999999988222043612040579319000244140625,"poi_name":"Mukike","parent_id":"7303940","long":29.5139199999999988222043612040579319000244140625},"7":{"id":"9171808","label":"Mutambu","value":"9171808","lat":-3.52850000000000019184653865522705018520355224609375,"lon":29.432790000000000674162947689183056354522705078125,"poi_name":"Mutambu","parent_id":"7303940","long":29.432790000000000674162947689183056354522705078125},"8":{"id":"9171809","label":"Nyabiraba","value":"9171809","lat":-3.457590000000000163282720677671022713184356689453125,"lon":29.4752399999999994406607584096491336822509765625,"poi_name":"Nyabiraba","parent_id":"7303940","long":29.4752399999999994406607584096491336822509765625}}