{"success":true,"remaining_lookups":9699,"0":{"id":"7670922","label":"Buterere","value":"7670922","lat":-3.33800000000000007815970093361102044582366943359375,"lon":29.336999999999999744204615126363933086395263671875,"poi_name":"Buterere","parent_id":"7303939","long":29.336999999999999744204615126363933086395263671875},"1":{"id":"9171883","label":"Bwiza","value":"9171883","lat":-3.372570000000000067785776991513557732105255126953125,"lon":29.369569999999999510009729419834911823272705078125,"poi_name":"Bwiza","parent_id":"7303939","long":29.369569999999999510009729419834911823272705078125},"2":{"id":"11819935","label":"Cibitoke","value":"11819935","lat":-3.341769999999999907203118709730915725231170654296875,"lon":29.37010000000000076170181273482739925384521484375,"poi_name":"Cibitoke","parent_id":"7303939","long":29.37010000000000076170181273482739925384521484375},"3":{"id":"8335225","label":"Commune of Buyenzi","value":"8335225","lat":-3.369000000000000216715534406830556690692901611328125,"lon":29.35900000000000176214598468504846096038818359375,"poi_name":"Commune of Buyenzi","parent_id":"7303939","long":29.35900000000000176214598468504846096038818359375},"4":{"id":"7670612","label":"Commune of Rohero","value":"7670612","lat":-3.383500000000000174082970261224545538425445556640625,"lon":29.371939999999998605062501155771315097808837890625,"poi_name":"Commune of Rohero","parent_id":"7303939","long":29.371939999999998605062501155771315097808837890625},"5":{"id":"7670927","label":"Gihosha","value":"7670927","lat":-3.358260000000000022879476091475225985050201416015625,"lon":29.392900000000000915179043659009039402008056640625,"poi_name":"Gihosha","parent_id":"7303939","long":29.392900000000000915179043659009039402008056640625},"6":{"id":"7670925","label":"Kamenge","value":"7670925","lat":-3.344489999999999962909669193322770297527313232421875,"lon":29.389330000000001064108801074326038360595703125,"poi_name":"Kamenge","parent_id":"7303939","long":29.389330000000001064108801074326038360595703125},"7":{"id":"9171888","label":"Kanyosha","value":"9171888","lat":-3.45511999999999996902033672085963189601898193359375,"lon":29.355940000000000367208485840819776058197021484375,"poi_name":"Kanyosha","parent_id":"7303939","long":29.355940000000000367208485840819776058197021484375},"8":{"id":"7670926","label":"Kinama","value":"7670926","lat":-3.32514999999999982804865794605575501918792724609375,"lon":29.392250000000000653699316899292171001434326171875,"poi_name":"Kinama","parent_id":"7303939","long":29.392250000000000653699316899292171001434326171875},"9":{"id":"9171890","label":"Kinindo","value":"9171890","lat":-3.40974000000000021515234038815833628177642822265625,"lon":29.353660000000001417674866388551890850067138671875,"poi_name":"Kinindo","parent_id":"7303939","long":29.353660000000001417674866388551890850067138671875},"10":{"id":"7670928","label":"Musaga","value":"7670928","lat":-3.412129999999999885318402448319830000400543212890625,"lon":29.3759000000000014551915228366851806640625,"poi_name":"Musaga","parent_id":"7303939","long":29.3759000000000014551915228366851806640625},"11":{"id":"8335224","label":"Ngagara","value":"8335224","lat":-3.35700000000000020605739337042905390262603759765625,"lon":29.35900000000000176214598468504846096038818359375,"poi_name":"Ngagara","parent_id":"7303939","long":29.35900000000000176214598468504846096038818359375},"12":{"id":"9171881","label":"Nyakabiga","value":"9171881","lat":-3.3759899999999998243538357201032340526580810546875,"lon":29.379829999999998335624695755541324615478515625,"poi_name":"Nyakabiga","parent_id":"7303939","long":29.379829999999998335624695755541324615478515625}}