{"success":true,"remaining_lookups":7842,"0":{"id":"11204213","label":"Cantagalo District","value":"11204213","lat":0.2166700000000000014832579608992091380059719085693359375,"lon":6.70000000000000017763568394002504646778106689453125,"poi_name":"Cantagalo District","parent_id":"2410764","long":6.70000000000000017763568394002504646778106689453125},"1":{"id":"8299560","label":"Lemba District","value":"8299560","lat":0.28117999999999998550492819049395620822906494140625,"lon":6.49943999999999988403942552395164966583251953125,"poi_name":"Lemba District","parent_id":"2410764","long":6.49943999999999988403942552395164966583251953125},"2":{"id":"8299561","label":"Lobata District","value":"8299561","lat":0.3687300000000000022026824808563105762004852294921875,"lon":6.63839999999999985647036737645976245403289794921875,"poi_name":"Lobata District","parent_id":"2410764","long":6.63839999999999985647036737645976245403289794921875},"3":{"id":"11203894","label":"M\u00e9-Z\u00f3chi District","value":"11203894","lat":0.25,"lon":6.666669999999999873807610129006206989288330078125,"poi_name":"M\u00e9-Z\u00f3chi District","parent_id":"2410764","long":6.666669999999999873807610129006206989288330078125},"4":{"id":"11203920","label":"\u00c1gua Grande District","value":"11203920","lat":0.33333000000000001517008740847813896834850311279296875,"lon":6.73332999999999959328533805091865360736846923828125,"poi_name":"\u00c1gua Grande District","parent_id":"2410764","long":6.73332999999999959328533805091865360736846923828125}}