{"success":true,"remaining_lookups":7367,"0":{"id":"8630843","label":"Bah\u00e7esaray \u0130l\u00e7esi","value":"8630843","lat":38.12635000000000218278728425502777099609375,"lon":42.8049299999999988131094141863286495208740234375,"poi_name":"Bah\u00e7esaray \u0130l\u00e7esi","parent_id":"298113","long":42.8049299999999988131094141863286495208740234375},"1":{"id":"8630841","label":"Ba\u015fkale \u0130l\u00e7esi","value":"8630841","lat":38.0530499999999989313437254168093204498291015625,"lon":44.0216300000000018144419300369918346405029296875,"poi_name":"Ba\u015fkale \u0130l\u00e7esi","parent_id":"298113","long":44.0216300000000018144419300369918346405029296875},"2":{"id":"7733001","label":"Edremit","value":"7733001","lat":38.3788899999999983947418513707816600799560546875,"lon":43.29717000000000126647137221880257129669189453125,"poi_name":"Edremit","parent_id":"298113","long":43.29717000000000126647137221880257129669189453125},"3":{"id":"7733002","label":"Erci\u015f","value":"7733002","lat":39.15122999999999819920049048960208892822265625,"lon":43.33704999999999785131876706145703792572021484375,"poi_name":"Erci\u015f","parent_id":"298113","long":43.33704999999999785131876706145703792572021484375},"4":{"id":"8630844","label":"Geva\u015f \u0130l\u00e7esi","value":"8630844","lat":38.29390000000000071622707764618098735809326171875,"lon":43.10529999999999972715158946812152862548828125,"poi_name":"Geva\u015f \u0130l\u00e7esi","parent_id":"298113","long":43.10529999999999972715158946812152862548828125},"5":{"id":"8630845","label":"G\u00fcrp\u0131nar \u0130l\u00e7esi","value":"8630845","lat":38.32395999999999958163243718445301055908203125,"lon":43.410359999999997171471477486193180084228515625,"poi_name":"G\u00fcrp\u0131nar \u0130l\u00e7esi","parent_id":"298113","long":43.410359999999997171471477486193180084228515625},"6":{"id":"7733003","label":"Merkez","value":"7733003","lat":38.514330000000001064108801074326038360595703125,"lon":43.361660000000000536601874046027660369873046875,"poi_name":"Merkez","parent_id":"298113","long":43.361660000000000536601874046027660369873046875},"7":{"id":"7911042","label":"Muradiye","value":"7911042","lat":38.97888999999999981582732289098203182220458984375,"lon":43.75374000000000052068571676500141620635986328125,"poi_name":"Muradiye","parent_id":"298113","long":43.75374000000000052068571676500141620635986328125},"8":{"id":"8630846","label":"Saray \u0130l\u00e7esi","value":"8630846","lat":38.6551299999999997680788510479032993316650390625,"lon":44.17730999999999852434484637342393398284912109375,"poi_name":"Saray \u0130l\u00e7esi","parent_id":"298113","long":44.17730999999999852434484637342393398284912109375},"9":{"id":"9550890","label":"Tu\u015fpa","value":"9550890","lat":38.484229999999996607584762386977672576904296875,"lon":43.4021800000000013142198440618813037872314453125,"poi_name":"Tu\u015fpa","parent_id":"298113","long":43.4021800000000013142198440618813037872314453125},"10":{"id":"8630842","label":"\u00c7ald\u0131ran \u0130l\u00e7esi","value":"8630842","lat":39.1505300000000033833202905952930450439453125,"lon":43.91414999999999935198502498678863048553466796875,"poi_name":"\u00c7ald\u0131ran \u0130l\u00e7esi","parent_id":"298113","long":43.91414999999999935198502498678863048553466796875},"11":{"id":"438700","label":"\u00c7atak \u0130l\u00e7esi","value":"438700","lat":38.007800000000003137756721116602420806884765625,"lon":43.06195000000000305817593471147119998931884765625,"poi_name":"\u00c7atak \u0130l\u00e7esi","parent_id":"298113","long":43.06195000000000305817593471147119998931884765625},"12":{"id":"8630847","label":"\u00d6zalp \u0130l\u00e7esi","value":"8630847","lat":38.6628299999999995861799106933176517486572265625,"lon":43.99602999999999752844814793206751346588134765625,"poi_name":"\u00d6zalp \u0130l\u00e7esi","parent_id":"298113","long":43.99602999999999752844814793206751346588134765625},"13":{"id":"9550938","label":"\u0130pekyolu","value":"9550938","lat":38.4904099999999971259967423975467681884765625,"lon":43.34689999999999798774297232739627361297607421875,"poi_name":"\u0130pekyolu","parent_id":"298113","long":43.34689999999999798774297232739627361297607421875}}