{"success":true,"remaining_lookups":7381,"0":{"id":"8631911","label":"Altunhisar \u0130l\u00e7esi","value":"8631911","lat":38.000439999999997553459252230823040008544921875,"lon":34.360669999999998935891198925673961639404296875,"poi_name":"Altunhisar \u0130l\u00e7esi","parent_id":"303826","long":34.360669999999998935891198925673961639404296875},"1":{"id":"7910467","label":"Bor","value":"7910467","lat":37.83539999999999992041921359486877918243408203125,"lon":34.50312999999999874489731155335903167724609375,"poi_name":"Bor","parent_id":"303826","long":34.50312999999999874489731155335903167724609375},"2":{"id":"7732948","label":"Merkez","value":"7732948","lat":38.10331999999999652573023922741413116455078125,"lon":34.801839999999998553903424181044101715087890625,"poi_name":"Merkez","parent_id":"303826","long":34.801839999999998553903424181044101715087890625},"3":{"id":"7910465","label":"Ulukisla","value":"7910465","lat":37.54592000000000240333974943496286869049072265625,"lon":34.58736999999999994770405464805662631988525390625,"poi_name":"Ulukisla","parent_id":"303826","long":34.58736999999999994770405464805662631988525390625},"4":{"id":"8631912","label":"\u00c7amard\u0131 \u0130l\u00e7esi","value":"8631912","lat":37.84156999999999726469468441791832447052001953125,"lon":34.9900499999999965439201332628726959228515625,"poi_name":"\u00c7amard\u0131 \u0130l\u00e7esi","parent_id":"303826","long":34.9900499999999965439201332628726959228515625},"5":{"id":"8631913","label":"\u00c7iftlik \u0130l\u00e7esi","value":"8631913","lat":38.1858399999999988949639373458921909332275390625,"lon":34.4746499999999969077180139720439910888671875,"poi_name":"\u00c7iftlik \u0130l\u00e7esi","parent_id":"303826","long":34.4746499999999969077180139720439910888671875}}