{"success":true,"remaining_lookups":7384,"0":{"id":"7733242","label":"Bodrum","value":"7733242","lat":37.06499999999999772626324556767940521240234375,"lon":27.49819000000000102090780274011194705963134765625,"poi_name":"Bodrum","parent_id":"304183","long":27.49819000000000102090780274011194705963134765625},"1":{"id":"8631959","label":"Dalaman","value":"8631959","lat":36.81691000000000002501110429875552654266357421875,"lon":28.878150000000001540456651127897202968597412109375,"poi_name":"Dalaman","parent_id":"304183","long":28.878150000000001540456651127897202968597412109375},"2":{"id":"8631963","label":"Dat\u00e7a \u0130l\u00e7esi","value":"8631963","lat":36.7688500000000004774847184307873249053955078125,"lon":27.662949999999998595967554138042032718658447265625,"poi_name":"Dat\u00e7a \u0130l\u00e7esi","parent_id":"304183","long":27.662949999999998595967554138042032718658447265625},"3":{"id":"7732940","label":"Fethiye","value":"7732940","lat":36.65482999999999691453922423534095287322998046875,"lon":29.126819999999998600515027646906673908233642578125,"poi_name":"Fethiye","parent_id":"304183","long":29.126819999999998600515027646906673908233642578125},"4":{"id":"7732941","label":"Kavakl\u0131dere","value":"7732941","lat":37.439289999999999736246536485850811004638671875,"lon":28.38401999999999958390617393888533115386962890625,"poi_name":"Kavakl\u0131dere","parent_id":"304183","long":28.38401999999999958390617393888533115386962890625},"5":{"id":"8631961","label":"K\u00f6yce\u011fiz \u0130l\u00e7esi","value":"8631961","lat":36.9779800000000022919266484677791595458984375,"lon":28.724180000000000489990270580165088176727294921875,"poi_name":"K\u00f6yce\u011fiz \u0130l\u00e7esi","parent_id":"304183","long":28.724180000000000489990270580165088176727294921875},"6":{"id":"7732942","label":"Marmaris","value":"7732942","lat":36.81054000000000314685166813433170318603515625,"lon":28.179069999999999396322891698218882083892822265625,"poi_name":"Marmaris","parent_id":"304183","long":28.179069999999999396322891698218882083892822265625},"7":{"id":"9548851","label":"Mente\u015fe","value":"9548851","lat":37.21446999999999860619936953298747539520263671875,"lon":28.36167999999999977944753482006490230560302734375,"poi_name":"Mente\u015fe","parent_id":"304183","long":28.36167999999999977944753482006490230560302734375},"8":{"id":"8632389","label":"Milas \u0130l\u00e7esi","value":"8632389","lat":37.32699000000000211230144486762583255767822265625,"lon":27.79520000000000123918653116561472415924072265625,"poi_name":"Milas \u0130l\u00e7esi","parent_id":"304183","long":27.79520000000000123918653116561472415924072265625},"9":{"id":"8631960","label":"Ortaca \u0130l\u00e7esi","value":"8631960","lat":36.83890000000000242152964347042143344879150390625,"lon":28.777300000000000324007487506605684757232666015625,"poi_name":"Ortaca \u0130l\u00e7esi","parent_id":"304183","long":28.777300000000000324007487506605684757232666015625},"10":{"id":"9548757","label":"Seydikemer","value":"9548757","lat":36.64307999999999765350366942584514617919921875,"lon":29.349289999999999878355083637870848178863525390625,"poi_name":"Seydikemer","parent_id":"304183","long":29.349289999999999878355083637870848178863525390625},"11":{"id":"8631962","label":"Ula \u0130l\u00e7esi","value":"8631962","lat":37.1151399999999966894392855465412139892578125,"lon":28.42732000000000169848135556094348430633544921875,"poi_name":"Ula \u0130l\u00e7esi","parent_id":"304183","long":28.42732000000000169848135556094348430633544921875},"12":{"id":"7732943","label":"Yata\u011fan","value":"7732943","lat":37.35864000000000118006937555037438869476318359375,"lon":28.11440999999999945657691569067537784576416015625,"poi_name":"Yata\u011fan","parent_id":"304183","long":28.11440999999999945657691569067537784576416015625}}