{"success":true,"remaining_lookups":7392,"0":{"id":"8632450","label":"Alt\u0131nta\u015f \u0130l\u00e7esi","value":"8632450","lat":39.06931999999999760575519758276641368865966796875,"lon":30.1204800000000005866240826435387134552001953125,"poi_name":"Alt\u0131nta\u015f \u0130l\u00e7esi","parent_id":"305267","long":30.1204800000000005866240826435387134552001953125},"1":{"id":"8632448","label":"Aslanapa \u0130l\u00e7esi","value":"8632448","lat":39.22587999999999652800397598184645175933837890625,"lon":29.882220000000000226236807066015899181365966796875,"poi_name":"Aslanapa \u0130l\u00e7esi","parent_id":"305267","long":29.882220000000000226236807066015899181365966796875},"2":{"id":"8632451","label":"Domani\u00e7 \u0130l\u00e7esi","value":"8632451","lat":39.80935000000000201225702767260372638702392578125,"lon":29.62205000000000154614099301397800445556640625,"poi_name":"Domani\u00e7 \u0130l\u00e7esi","parent_id":"305267","long":29.62205000000000154614099301397800445556640625},"3":{"id":"8632449","label":"Dumlup\u0131nar \u0130l\u00e7esi","value":"8632449","lat":38.8763900000000006684786058031022548675537109375,"lon":30.006389999999999673718775738961994647979736328125,"poi_name":"Dumlup\u0131nar \u0130l\u00e7esi","parent_id":"305267","long":30.006389999999999673718775738961994647979736328125},"4":{"id":"8632457","label":"Emet \u0130l\u00e7esi","value":"8632457","lat":39.35219000000000022509993868879973888397216796875,"lon":29.2743099999999998317434801720082759857177734375,"poi_name":"Emet \u0130l\u00e7esi","parent_id":"305267","long":29.2743099999999998317434801720082759857177734375},"5":{"id":"8632446","label":"Gediz \u0130l\u00e7esi","value":"8632446","lat":39.05272000000000076624928624369204044342041015625,"lon":29.41754999999999853343979339115321636199951171875,"poi_name":"Gediz \u0130l\u00e7esi","parent_id":"305267","long":29.41754999999999853343979339115321636199951171875},"6":{"id":"8632456","label":"Hisarc\u0131k \u0130l\u00e7esi","value":"8632456","lat":39.25986999999999937926986603997647762298583984375,"lon":29.24134000000000099817043519578874111175537109375,"poi_name":"Hisarc\u0131k \u0130l\u00e7esi","parent_id":"305267","long":29.24134000000000099817043519578874111175537109375},"7":{"id":"8632453","label":"Pazarlar \u0130l\u00e7esi","value":"8632453","lat":39.00509000000000270347300102002918720245361328125,"lon":29.135929999999998329940353869460523128509521484375,"poi_name":"Pazarlar \u0130l\u00e7esi","parent_id":"305267","long":29.135929999999998329940353869460523128509521484375},"8":{"id":"8632455","label":"Simav \u0130l\u00e7esi","value":"8632455","lat":39.098219999999997753548086620867252349853515625,"lon":28.964639999999999275814843713305890560150146484375,"poi_name":"Simav \u0130l\u00e7esi","parent_id":"305267","long":28.964639999999999275814843713305890560150146484375},"9":{"id":"8632452","label":"Tav\u015fanl\u0131 \u0130l\u00e7esi","value":"8632452","lat":39.54896999999999707142706029117107391357421875,"lon":29.516490000000001003854777081869542598724365234375,"poi_name":"Tav\u015fanl\u0131 \u0130l\u00e7esi","parent_id":"305267","long":29.516490000000001003854777081869542598724365234375},"10":{"id":"8632447","label":"\u00c7avdarhisar \u0130l\u00e7esi","value":"8632447","lat":39.20333000000000112095221993513405323028564453125,"lon":29.630939999999998946123014320619404315948486328125,"poi_name":"\u00c7avdarhisar \u0130l\u00e7esi","parent_id":"305267","long":29.630939999999998946123014320619404315948486328125},"11":{"id":"8632454","label":"\u015eaphane \u0130l\u00e7esi","value":"8632454","lat":39.035989999999998190105543471872806549072265625,"lon":29.227429999999998244675225578248500823974609375,"poi_name":"\u015eaphane \u0130l\u00e7esi","parent_id":"305267","long":29.227429999999998244675225578248500823974609375}}