{"success":true,"remaining_lookups":7393,"0":{"id":"8632103","label":"Ah\u0131rl\u0131 \u0130l\u00e7esi","value":"8632103","lat":37.24828000000000116642695502378046512603759765625,"lon":32.12418999999999869032762944698333740234375,"poi_name":"Ah\u0131rl\u0131 \u0130l\u00e7esi","parent_id":"306569","long":32.12418999999999869032762944698333740234375},"1":{"id":"8632104","label":"Ak\u00f6ren \u0130l\u00e7esi","value":"8632104","lat":37.46264999999999645297066308557987213134765625,"lon":32.37489000000000061163518694229423999786376953125,"poi_name":"Ak\u00f6ren \u0130l\u00e7esi","parent_id":"306569","long":32.37489000000000061163518694229423999786376953125},"2":{"id":"8632118","label":"Ak\u015fehir \u0130l\u00e7esi","value":"8632118","lat":38.3673000000000001818989403545856475830078125,"lon":31.419830000000001035687091643922030925750732421875,"poi_name":"Ak\u015fehir \u0130l\u00e7esi","parent_id":"306569","long":31.419830000000001035687091643922030925750732421875},"3":{"id":"8632095","label":"Alt\u0131nekin \u0130l\u00e7esi","value":"8632095","lat":38.317869999999999208739609457552433013916015625,"lon":32.874470000000002301021595485508441925048828125,"poi_name":"Alt\u0131nekin \u0130l\u00e7esi","parent_id":"306569","long":32.874470000000002301021595485508441925048828125},"4":{"id":"8632099","label":"Bey\u015fehir \u0130l\u00e7esi","value":"8632099","lat":37.68668000000000262161847786046564579010009765625,"lon":31.730509999999998882458385196514427661895751953125,"poi_name":"Bey\u015fehir \u0130l\u00e7esi","parent_id":"306569","long":31.730509999999998882458385196514427661895751953125},"5":{"id":"8632105","label":"Bozk\u0131r \u0130l\u00e7esi","value":"8632105","lat":37.19977999999999696001395932398736476898193359375,"lon":32.25233999999999667807060177437961101531982421875,"poi_name":"Bozk\u0131r \u0130l\u00e7esi","parent_id":"306569","long":32.25233999999999667807060177437961101531982421875},"6":{"id":"7932392","label":"Cihanbeyli District","value":"7932392","lat":38.67130999999999829697117093019187450408935546875,"lon":32.92522000000000303998604067601263523101806640625,"poi_name":"Cihanbeyli District","parent_id":"306569","long":32.92522000000000303998604067601263523101806640625},"7":{"id":"8632098","label":"Derbent \u0130l\u00e7esi","value":"8632098","lat":38.02403000000000332647687173448503017425537109375,"lon":32.0246300000000019281287677586078643798828125,"poi_name":"Derbent \u0130l\u00e7esi","parent_id":"306569","long":32.0246300000000019281287677586078643798828125},"8":{"id":"8632108","label":"Derebucak \u0130l\u00e7esi","value":"8632108","lat":37.40180000000000148929757415316998958587646484375,"lon":31.516649999999998499333742074668407440185546875,"poi_name":"Derebucak \u0130l\u00e7esi","parent_id":"306569","long":31.516649999999998499333742074668407440185546875},"9":{"id":"8632112","label":"Do\u011fanhisar \u0130l\u00e7esi","value":"8632112","lat":38.15650000000000119371179607696831226348876953125,"lon":31.6822599999999994224708643741905689239501953125,"poi_name":"Do\u011fanhisar \u0130l\u00e7esi","parent_id":"306569","long":31.6822599999999994224708643741905689239501953125},"10":{"id":"8632069","label":"Emirgazi \u0130l\u00e7esi","value":"8632069","lat":37.9122899999999987130649969913065433502197265625,"lon":33.8466599999999999681676854379475116729736328125,"poi_name":"Emirgazi \u0130l\u00e7esi","parent_id":"306569","long":33.8466599999999999681676854379475116729736328125},"11":{"id":"8632066","label":"Ere\u011fli \u0130l\u00e7esi","value":"8632066","lat":37.5230499999999977944753482006490230560302734375,"lon":34.05552999999999741476131021045148372650146484375,"poi_name":"Ere\u011fli \u0130l\u00e7esi","parent_id":"306569","long":34.05552999999999741476131021045148372650146484375},"12":{"id":"8632113","label":"G\u00fcneys\u0131n\u0131r \u0130l\u00e7esi","value":"8632113","lat":37.2797699999999991860022419132292270660400390625,"lon":32.73734999999999928377292235381901264190673828125,"poi_name":"G\u00fcneys\u0131n\u0131r \u0130l\u00e7esi","parent_id":"306569","long":32.73734999999999928377292235381901264190673828125},"13":{"id":"8632065","label":"Hadim \u0130l\u00e7esi","value":"8632065","lat":36.997939999999999827196006663143634796142578125,"lon":32.46117000000000274440026259981095790863037109375,"poi_name":"Hadim \u0130l\u00e7esi","parent_id":"306569","long":32.46117000000000274440026259981095790863037109375},"14":{"id":"8632068","label":"Halkap\u0131nar \u0130l\u00e7esi","value":"8632068","lat":37.44360999999999961573848850093781948089599609375,"lon":34.1933599999999984220266924239695072174072265625,"poi_name":"Halkap\u0131nar \u0130l\u00e7esi","parent_id":"306569","long":34.1933599999999984220266924239695072174072265625},"15":{"id":"8632117","label":"H\u00fcy\u00fck \u0130l\u00e7esi","value":"8632117","lat":37.96330999999999988858689903281629085540771484375,"lon":31.600100000000001188027454190887510776519775390625,"poi_name":"H\u00fcy\u00fck \u0130l\u00e7esi","parent_id":"306569","long":31.600100000000001188027454190887510776519775390625},"16":{"id":"8632107","label":"Ilg\u0131n \u0130l\u00e7esi","value":"8632107","lat":38.28941999999999978854248183779418468475341796875,"lon":31.919160000000001531361704110167920589447021484375,"poi_name":"Ilg\u0131n \u0130l\u00e7esi","parent_id":"306569","long":31.919160000000001531361704110167920589447021484375},"17":{"id":"8632096","label":"Kad\u0131nhan\u0131 \u0130l\u00e7esi","value":"8632096","lat":38.24958000000000168938640854321420192718505859375,"lon":32.21730000000000160298441187478601932525634765625,"poi_name":"Kad\u0131nhan\u0131 \u0130l\u00e7esi","parent_id":"306569","long":32.21730000000000160298441187478601932525634765625},"18":{"id":"8632070","label":"Karap\u0131nar \u0130l\u00e7esi","value":"8632070","lat":37.726370000000002846718416549265384674072265625,"lon":33.55758999999999758756530354730784893035888671875,"poi_name":"Karap\u0131nar \u0130l\u00e7esi","parent_id":"306569","long":33.55758999999999758756530354730784893035888671875},"19":{"id":"7732935","label":"Karatay","value":"7732935","lat":37.940010000000000900399754755198955535888671875,"lon":32.99828000000000116642695502378046512603759765625,"poi_name":"Karatay","parent_id":"306569","long":32.99828000000000116642695502378046512603759765625},"20":{"id":"8632092","label":"Kulu \u0130l\u00e7esi","value":"8632092","lat":39.10535999999999745568857179023325443267822265625,"lon":33.08858000000000032514435588382184505462646484375,"poi_name":"Kulu \u0130l\u00e7esi","parent_id":"306569","long":33.08858000000000032514435588382184505462646484375},"21":{"id":"8632115","label":"Meram \u0130l\u00e7esi","value":"8632115","lat":37.83984000000000236241248785518109798431396484375,"lon":32.47111000000000302634362014941871166229248046875,"poi_name":"Meram \u0130l\u00e7esi","parent_id":"306569","long":32.47111000000000302634362014941871166229248046875},"22":{"id":"8632094","label":"Saray\u00f6n\u00fc \u0130l\u00e7esi","value":"8632094","lat":38.27029999999999887450030655600130558013916015625,"lon":32.4118799999999964711605571210384368896484375,"poi_name":"Saray\u00f6n\u00fc \u0130l\u00e7esi","parent_id":"306569","long":32.4118799999999964711605571210384368896484375},"23":{"id":"7732933","label":"Selcuklu","value":"7732933","lat":38.0576099999999968304109643213450908660888671875,"lon":32.5408800000000013596945791505277156829833984375,"poi_name":"Selcuklu","parent_id":"306569","long":32.5408800000000013596945791505277156829833984375},"24":{"id":"8632100","label":"Seydi\u015fehir \u0130l\u00e7esi","value":"8632100","lat":37.4292999999999977944753482006490230560302734375,"lon":31.850460000000001770104063325561583042144775390625,"poi_name":"Seydi\u015fehir \u0130l\u00e7esi","parent_id":"306569","long":31.850460000000001770104063325561583042144775390625},"25":{"id":"8632106","label":"Ta\u015fkent \u0130l\u00e7esi","value":"8632106","lat":36.93392000000000052750692702829837799072265625,"lon":32.4952899999999971214492688886821269989013671875,"poi_name":"Ta\u015fkent \u0130l\u00e7esi","parent_id":"306569","long":32.4952899999999971214492688886821269989013671875},"26":{"id":"8632109","label":"Tuzluk\u00e7u \u0130l\u00e7esi","value":"8632109","lat":38.48787999999999698275132686831057071685791015625,"lon":31.630469999999998975681592128239572048187255859375,"poi_name":"Tuzluk\u00e7u \u0130l\u00e7esi","parent_id":"306569","long":31.630469999999998975681592128239572048187255859375},"27":{"id":"8632102","label":"Yal\u0131h\u00fcy\u00fck \u0130l\u00e7esi","value":"8632102","lat":37.31110000000000326281224261038005352020263671875,"lon":32.08923999999999665533323423005640506744384765625,"poi_name":"Yal\u0131h\u00fcy\u00fck \u0130l\u00e7esi","parent_id":"306569","long":32.08923999999999665533323423005640506744384765625},"28":{"id":"8632110","label":"Yunak \u0130l\u00e7esi","value":"8632110","lat":38.8237400000000008049028110690414905548095703125,"lon":31.737480000000001467697074986062943935394287109375,"poi_name":"Yunak \u0130l\u00e7esi","parent_id":"306569","long":31.737480000000001467697074986062943935394287109375},"29":{"id":"8632111","label":"\u00c7eltik \u0130l\u00e7esi","value":"8632111","lat":39.03388000000000346290107700042426586151123046875,"lon":31.79408000000000100726538221351802349090576171875,"poi_name":"\u00c7eltik \u0130l\u00e7esi","parent_id":"306569","long":31.79408000000000100726538221351802349090576171875},"30":{"id":"8632116","label":"\u00c7umra \u0130l\u00e7esi","value":"8632116","lat":37.58165000000000333102434524334967136383056640625,"lon":32.77971000000000145746525959111750125885009765625,"poi_name":"\u00c7umra \u0130l\u00e7esi","parent_id":"306569","long":32.77971000000000145746525959111750125885009765625}}