{"success":true,"remaining_lookups":7389,"0":{"id":"8631937","label":"Akp\u0131nar \u0130l\u00e7esi","value":"8631937","lat":39.45879000000000047521098167635500431060791015625,"lon":33.96974999999999766941982670687139034271240234375,"poi_name":"Akp\u0131nar \u0130l\u00e7esi","parent_id":"307513","long":33.96974999999999766941982670687139034271240234375},"1":{"id":"8631935","label":"Ak\u00e7akent \u0130l\u00e7esi","value":"8631935","lat":39.6318399999999968486008583568036556243896484375,"lon":34.08467999999999875626599532552063465118408203125,"poi_name":"Ak\u00e7akent \u0130l\u00e7esi","parent_id":"307513","long":34.08467999999999875626599532552063465118408203125},"2":{"id":"8631939","label":"Boztepe \u0130l\u00e7esi","value":"8631939","lat":39.27978999999999842884790268726646900177001953125,"lon":34.266570000000001527951098978519439697265625,"poi_name":"Boztepe \u0130l\u00e7esi","parent_id":"307513","long":34.266570000000001527951098978519439697265625},"3":{"id":"8631938","label":"Kaman \u0130l\u00e7esi","value":"8631938","lat":39.3671700000000015506884665228426456451416015625,"lon":33.7278400000000004865796654485166072845458984375,"poi_name":"Kaman \u0130l\u00e7esi","parent_id":"307513","long":33.7278400000000004865796654485166072845458984375},"4":{"id":"8631940","label":"Mucur \u0130l\u00e7esi","value":"8631940","lat":39.0714600000000018553691916167736053466796875,"lon":34.38669999999999760120772407390177249908447265625,"poi_name":"Mucur \u0130l\u00e7esi","parent_id":"307513","long":34.38669999999999760120772407390177249908447265625},"5":{"id":"8631936","label":"\u00c7i\u00e7ekda\u011f\u0131 \u0130l\u00e7esi","value":"8631936","lat":39.61643000000000114368958747945725917816162109375,"lon":34.41834000000000060026650317013263702392578125,"poi_name":"\u00c7i\u00e7ekda\u011f\u0131 \u0130l\u00e7esi","parent_id":"307513","long":34.41834000000000060026650317013263702392578125}}