{"success":true,"remaining_lookups":7359,"0":{"id":"7732712","label":"Alia\u011fa","value":"7732712","lat":38.800780000000003155946615152060985565185546875,"lon":27.043749999999999289457264239899814128875732421875,"poi_name":"Alia\u011fa","parent_id":"311044","long":27.043749999999999289457264239899814128875732421875},"1":{"id":"9543301","label":"Bal\u00e7ova","value":"9543301","lat":38.3730199999999967985786497592926025390625,"lon":27.087140000000001549551598145626485347747802734375,"poi_name":"Bal\u00e7ova","parent_id":"311044","long":27.087140000000001549551598145626485347747802734375},"2":{"id":"7732715","label":"Bayrakl\u0131","value":"7732715","lat":38.4622200000000020736479200422763824462890625,"lon":27.166669999999999873807610129006206989288330078125,"poi_name":"Bayrakl\u0131","parent_id":"311044","long":27.166669999999999873807610129006206989288330078125},"3":{"id":"8632420","label":"Bay\u0131nd\u0131r \u0130l\u00e7esi","value":"8632420","lat":38.22699999999999675992512493394315242767333984375,"lon":27.6552199999999999135980033315718173980712890625,"poi_name":"Bay\u0131nd\u0131r \u0130l\u00e7esi","parent_id":"311044","long":27.6552199999999999135980033315718173980712890625},"4":{"id":"7732716","label":"Bergama","value":"7732716","lat":39.1708799999999968122210702858865261077880859375,"lon":27.18918000000000034788172342814505100250244140625,"poi_name":"Bergama","parent_id":"311044","long":27.18918000000000034788172342814505100250244140625},"5":{"id":"7733239","label":"Beyda\u011f","value":"7733239","lat":38.08241000000000298086888506077229976654052734375,"lon":28.21609000000000122554411063902080059051513671875,"poi_name":"Beyda\u011f","parent_id":"311044","long":28.21609000000000122554411063902080059051513671875},"6":{"id":"7732711","label":"Bornova","value":"7732711","lat":38.4849200000000024601831682957708835601806640625,"lon":27.25234999999999985220711096189916133880615234375,"poi_name":"Bornova","parent_id":"311044","long":27.25234999999999985220711096189916133880615234375},"7":{"id":"7732718","label":"Buca","value":"7732718","lat":38.348129999999997608028934337198734283447265625,"lon":27.250530000000001251692083314992487430572509765625,"poi_name":"Buca","parent_id":"311044","long":27.250530000000001251692083314992487430572509765625},"8":{"id":"8632430","label":"Dikili \u0130l\u00e7esi","value":"8632430","lat":39.0784000000000020236257114447653293609619140625,"lon":26.906890000000000640056896372698247432708740234375,"poi_name":"Dikili \u0130l\u00e7esi","parent_id":"311044","long":26.906890000000000640056896372698247432708740234375},"9":{"id":"8632429","label":"Fo\u00e7a \u0130l\u00e7esi","value":"8632429","lat":38.6784899999999964848029776476323604583740234375,"lon":26.77214000000000027057467377744615077972412109375,"poi_name":"Fo\u00e7a \u0130l\u00e7esi","parent_id":"311044","long":26.77214000000000027057467377744615077972412109375},"10":{"id":"7732720","label":"Gaziemir","value":"7732720","lat":38.310980000000000700310920365154743194580078125,"lon":27.151779999999998693738234578631818294525146484375,"poi_name":"Gaziemir","parent_id":"311044","long":27.151779999999998693738234578631818294525146484375},"11":{"id":"9544174","label":"G\u00fczelbah\u00e7e","value":"9544174","lat":38.37046000000000134377842186950147151947021484375,"lon":26.869299999999999073452272568829357624053955078125,"poi_name":"G\u00fczelbah\u00e7e","parent_id":"311044","long":26.869299999999999073452272568829357624053955078125},"12":{"id":"9543231","label":"Karaba\u011flar","value":"9543231","lat":38.36912000000000233512764680199325084686279296875,"lon":27.126960000000000405862010666169226169586181640625,"poi_name":"Karaba\u011flar","parent_id":"311044","long":27.126960000000000405862010666169226169586181640625},"13":{"id":"8632428","label":"Karaburun \u0130l\u00e7esi","value":"8632428","lat":38.63546000000000191221261047758162021636962890625,"lon":26.496449999999999391775418189354240894317626953125,"poi_name":"Karaburun \u0130l\u00e7esi","parent_id":"311044","long":26.496449999999999391775418189354240894317626953125},"14":{"id":"8632424","label":"Kar\u015f\u0131yaka \u0130l\u00e7esi","value":"8632424","lat":38.46775000000000233058017329312860965728759765625,"lon":27.1150200000000012323653209023177623748779296875,"poi_name":"Kar\u015f\u0131yaka \u0130l\u00e7esi","parent_id":"311044","long":27.1150200000000012323653209023177623748779296875},"15":{"id":"7732724","label":"Kemalpa\u015fa","value":"7732724","lat":38.40883000000000180307324626483023166656494140625,"lon":27.4909999999999996589394868351519107818603515625,"poi_name":"Kemalpa\u015fa","parent_id":"311044","long":27.4909999999999996589394868351519107818603515625},"16":{"id":"8632422","label":"Kiraz \u0130l\u00e7esi","value":"8632422","lat":38.2408599999999978535925038158893585205078125,"lon":28.21379999999999910187398199923336505889892578125,"poi_name":"Kiraz \u0130l\u00e7esi","parent_id":"311044","long":28.21379999999999910187398199923336505889892578125},"17":{"id":"7732725","label":"Konak","value":"7732725","lat":38.414479999999997517079464159905910491943359375,"lon":27.1441200000000009140421752817928791046142578125,"poi_name":"Konak","parent_id":"311044","long":27.1441200000000009140421752817928791046142578125},"18":{"id":"8632419","label":"K\u0131n\u0131k \u0130l\u00e7esi","value":"8632419","lat":39.0969199999999972305886331014335155487060546875,"lon":27.388290000000001356283974018879234790802001953125,"poi_name":"K\u0131n\u0131k \u0130l\u00e7esi","parent_id":"311044","long":27.388290000000001356283974018879234790802001953125},"19":{"id":"7732726","label":"Menderes","value":"7732726","lat":38.15525000000000233058017329312860965728759765625,"lon":27.1189600000000012869350030086934566497802734375,"poi_name":"Menderes","parent_id":"311044","long":27.1189600000000012869350030086934566497802734375},"20":{"id":"7732727","label":"Menemen","value":"7732727","lat":38.6160799999999966303221299313008785247802734375,"lon":27.06315000000000026147972675971686840057373046875,"poi_name":"Menemen","parent_id":"311044","long":27.06315000000000026147972675971686840057373046875},"21":{"id":"9543771","label":"Narl\u0131dere","value":"9543771","lat":38.38956999999999908368408796377480030059814453125,"lon":27.0243099999999998317434801720082759857177734375,"poi_name":"Narl\u0131dere","parent_id":"311044","long":27.0243099999999998317434801720082759857177734375},"22":{"id":"7732732","label":"Seferihisar","value":"7732732","lat":38.18144000000000204408934223465621471405029296875,"lon":26.88877000000000094814822659827768802642822265625,"poi_name":"Seferihisar","parent_id":"311044","long":26.88877000000000094814822659827768802642822265625},"23":{"id":"8632426","label":"Sel\u00e7uk \u0130l\u00e7esi","value":"8632426","lat":37.95765000000000100044417195022106170654296875,"lon":27.380720000000000169393388205207884311676025390625,"poi_name":"Sel\u00e7uk \u0130l\u00e7esi","parent_id":"311044","long":27.380720000000000169393388205207884311676025390625},"24":{"id":"7732733","label":"Tire","value":"7732733","lat":38.065820000000002210072125308215618133544921875,"lon":27.7272999999999996134647517465054988861083984375,"poi_name":"Tire","parent_id":"311044","long":27.7272999999999996134647517465054988861083984375},"25":{"id":"7732734","label":"Torbal\u0131","value":"7732734","lat":38.176029999999997244231053628027439117431640625,"lon":27.3718199999999995952748577110469341278076171875,"poi_name":"Torbal\u0131","parent_id":"311044","long":27.3718199999999995952748577110469341278076171875},"26":{"id":"8632423","label":"Urla \u0130l\u00e7esi","value":"8632423","lat":38.33256000000000085492501966655254364013671875,"lon":26.76883000000000123463905765675008296966552734375,"poi_name":"Urla \u0130l\u00e7esi","parent_id":"311044","long":26.76883000000000123463905765675008296966552734375},"27":{"id":"8632427","label":"\u00c7e\u015fme \u0130l\u00e7esi","value":"8632427","lat":38.3165800000000018599166651256382465362548828125,"lon":26.3210100000000011277734301984310150146484375,"poi_name":"\u00c7e\u015fme \u0130l\u00e7esi","parent_id":"311044","long":26.3210100000000011277734301984310150146484375},"28":{"id":"7732714","label":"\u00c7i\u011fli","value":"7732714","lat":38.48801999999999878809830988757312297821044921875,"lon":26.965959999999999041619958006776869297027587890625,"poi_name":"\u00c7i\u011fli","parent_id":"311044","long":26.965959999999999041619958006776869297027587890625},"29":{"id":"8632421","label":"\u00d6demi\u015f \u0130l\u00e7esi","value":"8632421","lat":38.238190000000003010427462868392467498779296875,"lon":27.98010000000000019326762412674725055694580078125,"poi_name":"\u00d6demi\u015f \u0130l\u00e7esi","parent_id":"311044","long":27.98010000000000019326762412674725055694580078125}}