{"success":true,"remaining_lookups":7385,"0":{"id":"9542422","label":"Akdeniz","value":"9542422","lat":36.86424000000000233967512031085789203643798828125,"lon":34.67730999999999852434484637342393398284912109375,"poi_name":"Akdeniz","parent_id":"311728","long":34.67730999999999852434484637342393398284912109375},"1":{"id":"8632146","label":"Anamur \u0130l\u00e7esi","value":"8632146","lat":36.08361000000000018417267710901796817779541015625,"lon":32.8261499999999983856469043530523777008056640625,"poi_name":"Anamur \u0130l\u00e7esi","parent_id":"311728","long":32.8261499999999983856469043530523777008056640625},"2":{"id":"8632145","label":"Ayd\u0131nc\u0131k \u0130l\u00e7esi","value":"8632145","lat":36.15357999999999805140760145150125026702880859375,"lon":33.30396999999999962938090902753174304962158203125,"poi_name":"Ayd\u0131nc\u0131k \u0130l\u00e7esi","parent_id":"311728","long":33.30396999999999962938090902753174304962158203125},"3":{"id":"8632138","label":"Bozyaz\u0131 \u0130l\u00e7esi","value":"8632138","lat":36.11328999999999922465576673857867717742919921875,"lon":32.97885999999999739884515292942523956298828125,"poi_name":"Bozyaz\u0131 \u0130l\u00e7esi","parent_id":"311728","long":32.97885999999999739884515292942523956298828125},"4":{"id":"8632149","label":"Erdemli \u0130l\u00e7esi","value":"8632149","lat":36.61383000000000009777068044058978557586669921875,"lon":34.29601000000000254885890171863138675689697265625,"poi_name":"Erdemli \u0130l\u00e7esi","parent_id":"311728","long":34.29601000000000254885890171863138675689697265625},"5":{"id":"8632144","label":"G\u00fclnar \u0130l\u00e7esi","value":"8632144","lat":36.35289999999999821511664777062833309173583984375,"lon":33.4030800000000027694113668985664844512939453125,"poi_name":"G\u00fclnar \u0130l\u00e7esi","parent_id":"311728","long":33.4030800000000027694113668985664844512939453125},"6":{"id":"8632142","label":"Mezitli \u0130l\u00e7esi","value":"8632142","lat":36.89399999999999835154085303656756877899169921875,"lon":34.42987000000000108457243186421692371368408203125,"poi_name":"Mezitli \u0130l\u00e7esi","parent_id":"311728","long":34.42987000000000108457243186421692371368408203125},"7":{"id":"7910604","label":"Mut","value":"7910604","lat":36.71842000000000183490556082688271999359130859375,"lon":33.38718000000000074578565545380115509033203125,"poi_name":"Mut","parent_id":"311728","long":33.38718000000000074578565545380115509033203125},"8":{"id":"8632148","label":"Silifke \u0130l\u00e7esi","value":"8632148","lat":36.388689999999996871338225901126861572265625,"lon":33.94071999999999889041646383702754974365234375,"poi_name":"Silifke \u0130l\u00e7esi","parent_id":"311728","long":33.94071999999999889041646383702754974365234375},"9":{"id":"7732939","label":"Tarsus","value":"7732939","lat":37.0732799999999969031705404631793498992919921875,"lon":34.8549000000000006593836587853729724884033203125,"poi_name":"Tarsus","parent_id":"311728","long":34.8549000000000006593836587853729724884033203125},"10":{"id":"9542263","label":"Toroslar","value":"9542263","lat":36.8708299999999979945641825906932353973388671875,"lon":34.60298999999999836063580005429685115814208984375,"poi_name":"Toroslar","parent_id":"311728","long":34.60298999999999836063580005429685115814208984375},"11":{"id":"9542118","label":"Yeni\u015fehir","value":"9542118","lat":36.81602000000000174395609064958989620208740234375,"lon":34.57621000000000321961124427616596221923828125,"poi_name":"Yeni\u015fehir","parent_id":"311728","long":34.57621000000000321961124427616596221923828125},"12":{"id":"8632141","label":"\u00c7aml\u0131yayla \u0130l\u00e7esi","value":"8632141","lat":37.17999999999999971578290569595992565155029296875,"lon":34.6067800000000005411493475548923015594482421875,"poi_name":"\u00c7aml\u0131yayla \u0130l\u00e7esi","parent_id":"311728","long":34.6067800000000005411493475548923015594482421875}}