{"success":true,"remaining_lookups":7408,"0":{"id":"7733230","label":"Araban","value":"7733230","lat":37.42558999999999969077180139720439910888671875,"lon":37.7817500000000023874235921539366245269775390625,"poi_name":"Araban","parent_id":"314829","long":37.7817500000000023874235921539366245269775390625},"1":{"id":"436186","label":"Karkam\u0131\u015f \u0130l\u00e7esi","value":"436186","lat":36.86417000000000143700162880122661590576171875,"lon":37.92222000000000292629920295439660549163818359375,"poi_name":"Karkam\u0131\u015f \u0130l\u00e7esi","parent_id":"314829","long":37.92222000000000292629920295439660549163818359375},"2":{"id":"8630759","label":"Nizip \u0130l\u00e7esi","value":"8630759","lat":37.01100000000000278532752417959272861480712890625,"lon":37.79496000000000321961124427616596221923828125,"poi_name":"Nizip \u0130l\u00e7esi","parent_id":"314829","long":37.79496000000000321961124427616596221923828125},"3":{"id":"8630785","label":"Nurda\u011f\u0131 \u0130l\u00e7esi","value":"8630785","lat":37.18401999999999674173523089848458766937255859375,"lon":36.735950000000002546585164964199066162109375,"poi_name":"Nurda\u011f\u0131 \u0130l\u00e7esi","parent_id":"314829","long":36.735950000000002546585164964199066162109375},"4":{"id":"436187","label":"O\u011fuzeli \u0130l\u00e7esi","value":"436187","lat":36.8816699999999997316990629769861698150634765625,"lon":37.56277999999999650526660843752324581146240234375,"poi_name":"O\u011fuzeli \u0130l\u00e7esi","parent_id":"314829","long":37.56277999999999650526660843752324581146240234375},"5":{"id":"8630760","label":"Yavuzeli \u0130l\u00e7esi","value":"8630760","lat":37.3233900000000033969627111218869686126708984375,"lon":37.56956000000000273075784207321703433990478515625,"poi_name":"Yavuzeli \u0130l\u00e7esi","parent_id":"314829","long":37.56956000000000273075784207321703433990478515625},"6":{"id":"437252","label":"\u0130slahiye \u0130l\u00e7esi","value":"437252","lat":36.96527999999999991587174008600413799285888671875,"lon":36.70971999999999724195731687359511852264404296875,"poi_name":"\u0130slahiye \u0130l\u00e7esi","parent_id":"314829","long":36.70971999999999724195731687359511852264404296875},"7":{"id":"437630","label":"\u015eahinbey \u0130l\u00e7esi","value":"437630","lat":37.03741000000000127556631923653185367584228515625,"lon":37.37821999999999889041646383702754974365234375,"poi_name":"\u015eahinbey \u0130l\u00e7esi","parent_id":"314829","long":37.37821999999999889041646383702754974365234375},"8":{"id":"7732373","label":"\u015eehitkamil","value":"7732373","lat":37.17217000000000126647137221880257129669189453125,"lon":37.36974000000000017962520360015332698822021484375,"poi_name":"\u015eehitkamil","parent_id":"314829","long":37.36974000000000017962520360015332698822021484375}}