{"success":true,"remaining_lookups":7411,"0":{"id":"8631610","label":"Kemah \u0130l\u00e7esi","value":"8631610","lat":39.6012300000000010413714335300028324127197265625,"lon":39.03421999999999769670466776005923748016357421875,"poi_name":"Kemah \u0130l\u00e7esi","parent_id":"315372","long":39.03421999999999769670466776005923748016357421875},"1":{"id":"8631607","label":"Kemaliye \u0130l\u00e7esi","value":"8631607","lat":39.2716300000000018144419300369918346405029296875,"lon":38.50587999999999766487235319800674915313720703125,"poi_name":"Kemaliye \u0130l\u00e7esi","parent_id":"315372","long":38.50587999999999766487235319800674915313720703125},"2":{"id":"8631584","label":"Otlukbeli \u0130l\u00e7esi","value":"8631584","lat":39.97212999999999993860910763032734394073486328125,"lon":40.0213899999999966894392855465412139892578125,"poi_name":"Otlukbeli \u0130l\u00e7esi","parent_id":"315372","long":40.0213899999999966894392855465412139892578125},"3":{"id":"8631609","label":"Refahiye \u0130l\u00e7esi","value":"8631609","lat":39.90131999999999834471964277327060699462890625,"lon":38.76744999999999663486960344016551971435546875,"poi_name":"Refahiye \u0130l\u00e7esi","parent_id":"315372","long":38.76744999999999663486960344016551971435546875},"4":{"id":"8631605","label":"Tercan \u0130l\u00e7esi","value":"8631605","lat":39.77812000000000125510268844664096832275390625,"lon":40.38504999999999967030817060731351375579833984375,"poi_name":"Tercan \u0130l\u00e7esi","parent_id":"315372","long":40.38504999999999967030817060731351375579833984375},"5":{"id":"8631583","label":"\u00c7ay\u0131rl\u0131 \u0130l\u00e7esi","value":"8631583","lat":39.804540000000002919477992691099643707275390625,"lon":40.0372399999999970532371662557125091552734375,"poi_name":"\u00c7ay\u0131rl\u0131 \u0130l\u00e7esi","parent_id":"315372","long":40.0372399999999970532371662557125091552734375},"6":{"id":"8631606","label":"\u00dcz\u00fcml\u00fc \u0130l\u00e7esi","value":"8631606","lat":39.7094299999999975625541992485523223876953125,"lon":39.7012500000000017053025658242404460906982421875,"poi_name":"\u00dcz\u00fcml\u00fc \u0130l\u00e7esi","parent_id":"315372","long":39.7012500000000017053025658242404460906982421875},"7":{"id":"8631608","label":"\u0130li\u00e7 \u0130l\u00e7esi","value":"8631608","lat":39.45586999999999733290678705088794231414794921875,"lon":38.56409000000000020236257114447653293609619140625,"poi_name":"\u0130li\u00e7 \u0130l\u00e7esi","parent_id":"315372","long":38.56409000000000020236257114447653293609619140625}}