{"success":true,"remaining_lookups":7410,"0":{"id":"9538817","label":"Aziziye","value":"9538817","lat":39.940280000000001336957211606204509735107421875,"lon":41.1115300000000019053914002142846584320068359375,"poi_name":"Aziziye","parent_id":"315367","long":41.1115300000000019053914002142846584320068359375},"1":{"id":"8631390","label":"A\u015fkale \u0130l\u00e7esi","value":"8631390","lat":39.9308199999999970941644278354942798614501953125,"lon":40.6871799999999979036147124134004116058349609375,"poi_name":"A\u015fkale \u0130l\u00e7esi","parent_id":"315367","long":40.6871799999999979036147124134004116058349609375},"2":{"id":"8631376","label":"Horasan \u0130l\u00e7esi","value":"8631376","lat":40.04227999999999809688233654014766216278076171875,"lon":42.1672300000000035424818634055554866790771484375,"poi_name":"Horasan \u0130l\u00e7esi","parent_id":"315367","long":42.1672300000000035424818634055554866790771484375},"3":{"id":"8631387","label":"H\u0131n\u0131s \u0130l\u00e7esi","value":"8631387","lat":39.361040000000002692104317247867584228515625,"lon":41.697169999999999845385900698602199554443359375,"poi_name":"H\u0131n\u0131s \u0130l\u00e7esi","parent_id":"315367","long":41.697169999999999845385900698602199554443359375},"4":{"id":"8631386","label":"Karayaz\u0131 \u0130l\u00e7esi","value":"8631386","lat":39.70291999999999887904778006486594676971435546875,"lon":42.14502999999999843794284970499575138092041015625,"poi_name":"Karayaz\u0131 \u0130l\u00e7esi","parent_id":"315367","long":42.14502999999999843794284970499575138092041015625},"5":{"id":"8631388","label":"Kara\u00e7oban \u0130l\u00e7esi","value":"8631388","lat":39.35157000000000238060238189063966274261474609375,"lon":42.10969999999999657802618457935750484466552734375,"poi_name":"Kara\u00e7oban \u0130l\u00e7esi","parent_id":"315367","long":42.10969999999999657802618457935750484466552734375},"6":{"id":"8631379","label":"K\u00f6pr\u00fck\u00f6y \u0130l\u00e7esi","value":"8631379","lat":39.97178000000000253066900768317282199859619140625,"lon":41.86804000000000058889781939797103404998779296875,"poi_name":"K\u00f6pr\u00fck\u00f6y \u0130l\u00e7esi","parent_id":"315367","long":41.86804000000000058889781939797103404998779296875},"7":{"id":"8631377","label":"Narman \u0130l\u00e7esi","value":"8631377","lat":40.34492000000000189174897968769073486328125,"lon":41.8700299999999998590283212251961231231689453125,"poi_name":"Narman \u0130l\u00e7esi","parent_id":"315367","long":41.8700299999999998590283212251961231231689453125},"8":{"id":"8631381","label":"Oltu \u0130l\u00e7esi","value":"8631381","lat":40.5456199999999995498001226224005222320556640625,"lon":41.99582000000000192585503100417554378509521484375,"poi_name":"Oltu \u0130l\u00e7esi","parent_id":"315367","long":41.99582000000000192585503100417554378509521484375},"9":{"id":"8631375","label":"Olur \u0130l\u00e7esi","value":"8631375","lat":40.8266100000000022873791749589145183563232421875,"lon":42.1322899999999975761966197751462459564208984375,"poi_name":"Olur \u0130l\u00e7esi","parent_id":"315367","long":42.1322899999999975761966197751462459564208984375},"10":{"id":"9565016","label":"Paland\u00f6ken","value":"9565016","lat":39.85560000000000258069121628068387508392333984375,"lon":41.27974999999999994315658113919198513031005859375,"poi_name":"Paland\u00f6ken","parent_id":"315367","long":41.27974999999999994315658113919198513031005859375},"11":{"id":"8631382","label":"Pasinler \u0130l\u00e7esi","value":"8631382","lat":39.9773500000000012732925824820995330810546875,"lon":41.67848000000000041609382606111466884613037109375,"poi_name":"Pasinler \u0130l\u00e7esi","parent_id":"315367","long":41.67848000000000041609382606111466884613037109375},"12":{"id":"8631391","label":"Pazaryolu \u0130l\u00e7esi","value":"8631391","lat":40.4137699999999995270627550780773162841796875,"lon":40.7725300000000032696334528736770153045654296875,"poi_name":"Pazaryolu \u0130l\u00e7esi","parent_id":"315367","long":40.7725300000000032696334528736770153045654296875},"13":{"id":"8631384","label":"Tekman \u0130l\u00e7esi","value":"8631384","lat":39.649979999999999336068867705762386322021484375,"lon":41.5116000000000013869794202037155628204345703125,"poi_name":"Tekman \u0130l\u00e7esi","parent_id":"315367","long":41.5116000000000013869794202037155628204345703125},"14":{"id":"8631380","label":"Tortum \u0130l\u00e7esi","value":"8631380","lat":40.29699000000000097543306765146553516387939453125,"lon":41.55084000000000088448359747417271137237548828125,"poi_name":"Tortum \u0130l\u00e7esi","parent_id":"315367","long":41.55084000000000088448359747417271137237548828125},"15":{"id":"8631378","label":"Uzundere \u0130l\u00e7esi","value":"8631378","lat":40.5317500000000023874235921539366245269775390625,"lon":41.548259999999999081410351209342479705810546875,"poi_name":"Uzundere \u0130l\u00e7esi","parent_id":"315367","long":41.548259999999999081410351209342479705810546875},"16":{"id":"9538819","label":"Yakutiye","value":"9538819","lat":40.00131999999999976580511429347097873687744140625,"lon":41.30996999999999985675458447076380252838134765625,"poi_name":"Yakutiye","parent_id":"315367","long":41.30996999999999985675458447076380252838134765625},"17":{"id":"8631389","label":"\u00c7at \u0130l\u00e7esi","value":"8631389","lat":39.6105500000000034788172342814505100250244140625,"lon":40.978509999999999990905052982270717620849609375,"poi_name":"\u00c7at \u0130l\u00e7esi","parent_id":"315367","long":40.978509999999999990905052982270717620849609375},"18":{"id":"8631392","label":"\u0130spir \u0130l\u00e7esi","value":"8631392","lat":40.48304999999999864712663111276924610137939453125,"lon":40.99837000000000131194610730744898319244384765625,"poi_name":"\u0130spir \u0130l\u00e7esi","parent_id":"315367","long":40.99837000000000131194610730744898319244384765625},"19":{"id":"8631373","label":"\u015eenkaya \u0130l\u00e7esi","value":"8631373","lat":40.56221000000000032059688237495720386505126953125,"lon":42.34523999999999688270690967328846454620361328125,"poi_name":"\u015eenkaya \u0130l\u00e7esi","parent_id":"315367","long":42.34523999999999688270690967328846454620361328125}}