{"success":true,"remaining_lookups":7416,"0":{"id":"8632193","label":"Ac\u0131payam \u0130l\u00e7esi","value":"8632193","lat":37.43536000000000285581336356699466705322265625,"lon":29.36146000000000100271790870465338230133056640625,"poi_name":"Ac\u0131payam \u0130l\u00e7esi","parent_id":"317106","long":29.36146000000000100271790870465338230133056640625},"1":{"id":"8632205","label":"Babada\u011f \u0130l\u00e7esi","value":"8632205","lat":37.818229999999999790816218592226505279541015625,"lon":28.8682000000000016370904631912708282470703125,"poi_name":"Babada\u011f \u0130l\u00e7esi","parent_id":"317106","long":28.8682000000000016370904631912708282470703125},"2":{"id":"8632200","label":"Baklan \u0130l\u00e7esi","value":"8632200","lat":37.9876000000000004774847184307873249053955078125,"lon":29.62031999999999953843143885023891925811767578125,"poi_name":"Baklan \u0130l\u00e7esi","parent_id":"317106","long":29.62031999999999953843143885023891925811767578125},"3":{"id":"8632197","label":"Bekilli","value":"8632197","lat":38.24027000000000242607711697928607463836669921875,"lon":29.42558999999999969077180139720439910888671875,"poi_name":"Bekilli","parent_id":"317106","long":29.42558999999999969077180139720439910888671875},"4":{"id":"8632192","label":"Beya\u011fa\u00e7 \u0130l\u00e7esi","value":"8632192","lat":37.24546000000000134377842186950147151947021484375,"lon":28.90041000000000082081896835006773471832275390625,"poi_name":"Beya\u011fa\u00e7 \u0130l\u00e7esi","parent_id":"317106","long":28.90041000000000082081896835006773471832275390625},"5":{"id":"8632201","label":"Bozkurt","value":"8632201","lat":37.7758299999999991314325598068535327911376953125,"lon":29.608109999999999928377292235381901264190673828125,"poi_name":"Bozkurt","parent_id":"317106","long":29.608109999999999928377292235381901264190673828125},"6":{"id":"8632211","label":"Buldan \u0130l\u00e7esi","value":"8632211","lat":38.05536000000000029785951483063399791717529296875,"lon":28.840070000000000760564944357611238956451416015625,"poi_name":"Buldan \u0130l\u00e7esi","parent_id":"317106","long":28.840070000000000760564944357611238956451416015625},"7":{"id":"8632195","label":"G\u00fcney \u0130l\u00e7esi","value":"8632195","lat":38.1645400000000023510438040830194950103759765625,"lon":29.07323999999999841747921891510486602783203125,"poi_name":"G\u00fcney \u0130l\u00e7esi","parent_id":"317106","long":29.07323999999999841747921891510486602783203125},"8":{"id":"7732360","label":"Honaz","value":"7732360","lat":37.77145999999999759211277705617249011993408203125,"lon":29.344660000000001076614353223703801631927490234375,"poi_name":"Honaz","parent_id":"317106","long":29.344660000000001076614353223703801631927490234375},"9":{"id":"8632207","label":"Kale \u0130l\u00e7esi","value":"8632207","lat":37.445369999999996935002855025231838226318359375,"lon":28.85582000000000135742084239609539508819580078125,"poi_name":"Kale \u0130l\u00e7esi","parent_id":"317106","long":28.85582000000000135742084239609539508819580078125},"10":{"id":"7732364","label":"Merkez","value":"7732364","lat":37.826369999999997162376530468463897705078125,"lon":29.116769999999998930206857039593160152435302734375,"poi_name":"Merkez","parent_id":"317106","long":29.116769999999998930206857039593160152435302734375},"11":{"id":"9538816","label":"Merkezefendi \u0130l\u00e7esi","value":"9538816","lat":37.8061000000000007048583938740193843841552734375,"lon":29.0156199999999984129317454062402248382568359375,"poi_name":"Merkezefendi \u0130l\u00e7esi","parent_id":"317106","long":29.0156199999999984129317454062402248382568359375},"12":{"id":"8632212","label":"Pamukkale \u0130l\u00e7esi","value":"8632212","lat":37.9670899999999988949639373458921909332275390625,"lon":29.086349999999999482724888366647064685821533203125,"poi_name":"Pamukkale \u0130l\u00e7esi","parent_id":"317106","long":29.086349999999999482724888366647064685821533203125},"13":{"id":"7732660","label":"Sarayk\u00f6y","value":"7732660","lat":37.91579999999999728288457845337688922882080078125,"lon":28.87998999999999938381733954884111881256103515625,"poi_name":"Sarayk\u00f6y","parent_id":"317106","long":28.87998999999999938381733954884111881256103515625},"14":{"id":"8632210","label":"Serinhisar \u0130l\u00e7esi","value":"8632210","lat":37.59127000000000151658241520635783672332763671875,"lon":29.272459999999998814246282563544809818267822265625,"poi_name":"Serinhisar \u0130l\u00e7esi","parent_id":"317106","long":29.272459999999998814246282563544809818267822265625},"15":{"id":"8632208","label":"Tavas \u0130l\u00e7esi","value":"8632208","lat":37.58386999999999744659362477250397205352783203125,"lon":29.079699999999998993871486163698136806488037109375,"poi_name":"Tavas \u0130l\u00e7esi","parent_id":"317106","long":29.079699999999998993871486163698136806488037109375},"16":{"id":"8632198","label":"\u00c7al \u0130l\u00e7esi","value":"8632198","lat":38.0937100000000015143086784519255161285400390625,"lon":29.404669999999999419060259242542088031768798828125,"poi_name":"\u00c7al \u0130l\u00e7esi","parent_id":"317106","long":29.404669999999999419060259242542088031768798828125},"17":{"id":"8632194","label":"\u00c7ameli \u0130l\u00e7esi","value":"8632194","lat":37.08659999999999712372300564311444759368896484375,"lon":29.352250000000001506350599811412394046783447265625,"poi_name":"\u00c7ameli \u0130l\u00e7esi","parent_id":"317106","long":29.352250000000001506350599811412394046783447265625},"18":{"id":"7732353","label":"\u00c7ardak","value":"7732353","lat":37.7748500000000007048583938740193843841552734375,"lon":29.705929999999998614157448173500597476959228515625,"poi_name":"\u00c7ardak","parent_id":"317106","long":29.705929999999998614157448173500597476959228515625},"19":{"id":"8632190","label":"\u00c7ivril \u0130l\u00e7esi","value":"8632190","lat":38.3119099999999974670572555623948574066162109375,"lon":29.724299999999999499777914024889469146728515625,"poi_name":"\u00c7ivril \u0130l\u00e7esi","parent_id":"317106","long":29.724299999999999499777914024889469146728515625}}