{"success":true,"remaining_lookups":7432,"0":{"id":"8632043","label":"Akyurt \u0130l\u00e7esi","value":"8632043","lat":40.14139999999999730562194599770009517669677734375,"lon":33.097430000000002792148734442889690399169921875,"poi_name":"Akyurt \u0130l\u00e7esi","parent_id":"323784","long":33.097430000000002792148734442889690399169921875},"1":{"id":"7732081","label":"Alt\u0131nda\u011f","value":"7732081","lat":40.00110000000000098907548817805945873260498046875,"lon":32.9702199999999976398612488992512226104736328125,"poi_name":"Alt\u0131nda\u011f","parent_id":"323784","long":32.9702199999999976398612488992512226104736328125},"2":{"id":"8632061","label":"Aya\u015f \u0130l\u00e7esi","value":"8632061","lat":40.0248399999999975307218846864998340606689453125,"lon":32.34089000000000169166014529764652252197265625,"poi_name":"Aya\u015f \u0130l\u00e7esi","parent_id":"323784","long":32.34089000000000169166014529764652252197265625},"3":{"id":"8632047","label":"Bala \u0130l\u00e7esi","value":"8632047","lat":39.56374000000000279442247119732201099395751953125,"lon":33.1296200000000027330315788276493549346923828125,"poi_name":"Bala \u0130l\u00e7esi","parent_id":"323784","long":33.1296200000000027330315788276493549346923828125},"4":{"id":"7910611","label":"Beypazari","value":"7910611","lat":40.14694999999999680539986002258956432342529296875,"lon":31.919109999999999871533873374573886394500732421875,"poi_name":"Beypazari","parent_id":"323784","long":31.919109999999999871533873374573886394500732421875},"5":{"id":"8632039","label":"Elmada\u011f \u0130l\u00e7esi","value":"8632039","lat":39.93117000000000160753188538365066051483154296875,"lon":33.23812000000000210775397135876119136810302734375,"poi_name":"Elmada\u011f \u0130l\u00e7esi","parent_id":"323784","long":33.23812000000000210775397135876119136810302734375},"6":{"id":"8632058","label":"Etimesgut \u0130l\u00e7esi","value":"8632058","lat":39.96334999999999837427822058089077472686767578125,"lon":32.637439999999998008206603117287158966064453125,"poi_name":"Etimesgut \u0130l\u00e7esi","parent_id":"323784","long":32.637439999999998008206603117287158966064453125},"7":{"id":"8632037","label":"Evren \u0130l\u00e7esi","value":"8632037","lat":39.03000999999999720557752880267798900604248046875,"lon":33.7976699999999965484676067717373371124267578125,"poi_name":"Evren \u0130l\u00e7esi","parent_id":"323784","long":33.7976699999999965484676067717373371124267578125},"8":{"id":"7732107","label":"G\u00f6lba\u015f\u0131","value":"7732107","lat":39.80747999999999819920049048960208892822265625,"lon":32.7941900000000003956301952712237834930419921875,"poi_name":"G\u00f6lba\u015f\u0131","parent_id":"323784","long":32.7941900000000003956301952712237834930419921875},"9":{"id":"8632056","label":"G\u00fcd\u00fcl \u0130l\u00e7esi","value":"8632056","lat":40.21954000000000206682670977897942066192626953125,"lon":32.24884999999999735109668108634650707244873046875,"poi_name":"G\u00fcd\u00fcl \u0130l\u00e7esi","parent_id":"323784","long":32.24884999999999735109668108634650707244873046875},"10":{"id":"8632057","label":"Haymana \u0130l\u00e7esi","value":"8632057","lat":39.4401500000000027057467377744615077972412109375,"lon":32.48852000000000117552190204150974750518798828125,"poi_name":"Haymana \u0130l\u00e7esi","parent_id":"323784","long":32.48852000000000117552190204150974750518798828125},"11":{"id":"7732167","label":"Kahramankazan","value":"7732167","lat":40.165019999999998390194377861917018890380859375,"lon":32.63904000000000138470568344928324222564697265625,"poi_name":"Kahramankazan","parent_id":"323784","long":32.63904000000000138470568344928324222564697265625},"12":{"id":"8632041","label":"Kalecik \u0130l\u00e7esi","value":"8632041","lat":40.1063400000000029876900953240692615509033203125,"lon":33.4197300000000012687451089732348918914794921875,"poi_name":"Kalecik \u0130l\u00e7esi","parent_id":"323784","long":33.4197300000000012687451089732348918914794921875},"13":{"id":"11791803","label":"Kazan \u0130l\u00e7esi","value":"11791803","lat":40.24166000000000309455572278238832950592041015625,"lon":32.69140999999999763758751214481890201568603515625,"poi_name":"Kazan \u0130l\u00e7esi","parent_id":"323784","long":32.69140999999999763758751214481890201568603515625},"14":{"id":"7733221","label":"Ke\u00e7i\u00f6ren","value":"7733221","lat":40.02105999999999852434484637342393398284912109375,"lon":32.83102000000000231239027925767004489898681640625,"poi_name":"Ke\u00e7i\u00f6ren","parent_id":"323784","long":32.83102000000000231239027925767004489898681640625},"15":{"id":"8632063","label":"K\u0131z\u0131lcahamam \u0130l\u00e7esi","value":"8632063","lat":40.48011000000000336740413331426680088043212890625,"lon":32.65545999999999793317329022102057933807373046875,"poi_name":"K\u0131z\u0131lcahamam \u0130l\u00e7esi","parent_id":"323784","long":32.65545999999999793317329022102057933807373046875},"16":{"id":"8632046","label":"Mamak \u0130l\u00e7esi","value":"8632046","lat":39.9458699999999993224264471791684627532958984375,"lon":32.90811000000000063892002799548208713531494140625,"poi_name":"Mamak \u0130l\u00e7esi","parent_id":"323784","long":32.90811000000000063892002799548208713531494140625},"17":{"id":"8632052","label":"Nall\u0131han \u0130l\u00e7esi","value":"8632052","lat":40.1943600000000031968738767318427562713623046875,"lon":31.36316000000000059344529290683567523956298828125,"poi_name":"Nall\u0131han \u0130l\u00e7esi","parent_id":"323784","long":31.36316000000000059344529290683567523956298828125},"18":{"id":"7732180","label":"Polatl\u0131","value":"7732180","lat":39.479950000000002319211489520967006683349609375,"lon":32.15507000000000203954186872579157352447509765625,"poi_name":"Polatl\u0131","parent_id":"323784","long":32.15507000000000203954186872579157352447509765625},"19":{"id":"9551354","label":"Pursaklar","value":"9551354","lat":40.03961000000000325371729559265077114105224609375,"lon":32.90138999999999924739313428290188312530517578125,"poi_name":"Pursaklar","parent_id":"323784","long":32.90138999999999924739313428290188312530517578125},"20":{"id":"7732181","label":"Sincan \u0130l\u00e7esi","value":"7732181","lat":39.9594299999999975625541992485523223876953125,"lon":32.49566999999999694637153879739344120025634765625,"poi_name":"Sincan \u0130l\u00e7esi","parent_id":"323784","long":32.49566999999999694637153879739344120025634765625},"21":{"id":"7732184","label":"Yenimahalle","value":"7732184","lat":39.99043000000000347426976077258586883544921875,"lon":32.695549999999997226041159592568874359130859375,"poi_name":"Yenimahalle","parent_id":"323784","long":32.695549999999997226041159592568874359130859375},"22":{"id":"8632062","label":"\u00c7aml\u0131dere \u0130l\u00e7esi","value":"8632062","lat":40.49994000000000227146301767788827419281005859375,"lon":32.479860000000002173692337237298488616943359375,"poi_name":"\u00c7aml\u0131dere \u0130l\u00e7esi","parent_id":"323784","long":32.479860000000002173692337237298488616943359375},"23":{"id":"7732084","label":"\u00c7ankaya","value":"7732084","lat":39.86093000000000330373950419016182422637939453125,"lon":32.84176000000000072986949817277491092681884765625,"poi_name":"\u00c7ankaya","parent_id":"323784","long":32.84176000000000072986949817277491092681884765625},"24":{"id":"8632045","label":"\u00c7ubuk \u0130l\u00e7esi","value":"8632045","lat":40.23984999999999701003616792149841785430908203125,"lon":33.0470600000000018781065591610968112945556640625,"poi_name":"\u00c7ubuk \u0130l\u00e7esi","parent_id":"323784","long":33.0470600000000018781065591610968112945556640625},"25":{"id":"8632050","label":"\u015eerefliko\u00e7hisar \u0130l\u00e7esi","value":"8632050","lat":38.95450000000000301270119962282478809356689453125,"lon":33.54800999999999788769855513237416744232177734375,"poi_name":"\u015eerefliko\u00e7hisar \u0130l\u00e7esi","parent_id":"323784","long":33.54800999999999788769855513237416744232177734375}}