{"success":true,"remaining_lookups":7431,"0":{"id":"8632154","label":"Akseki \u0130l\u00e7esi","value":"8632154","lat":37.05819999999999936335370875895023345947265625,"lon":31.8015299999999996316546457819640636444091796875,"poi_name":"Akseki \u0130l\u00e7esi","parent_id":"323776","long":31.8015299999999996316546457819640636444091796875},"1":{"id":"9535333","label":"Aksu","value":"9535333","lat":36.92793999999999954297891235910356044769287109375,"lon":30.823519999999998475459506153129041194915771484375,"poi_name":"Aksu","parent_id":"323776","long":30.823519999999998475459506153129041194915771484375},"2":{"id":"7732185","label":"Alanya","value":"7732185","lat":36.5617299999999971760189509950578212738037109375,"lon":32.02309000000000338559402734972536563873291015625,"poi_name":"Alanya","parent_id":"323776","long":32.02309000000000338559402734972536563873291015625},"3":{"id":"8632162","label":"Demre \u0130l\u00e7esi","value":"8632162","lat":36.255099999999998772182152606546878814697265625,"lon":29.997879999999998545945345540530979633331298828125,"poi_name":"Demre \u0130l\u00e7esi","parent_id":"323776","long":29.997879999999998545945345540530979633331298828125},"4":{"id":"9535332","label":"D\u00f6\u015femealt\u0131 \u0130l\u00e7esi","value":"9535332","lat":37.02365999999999957026375341229140758514404296875,"lon":30.590399999999998925659383530728518962860107421875,"poi_name":"D\u00f6\u015femealt\u0131 \u0130l\u00e7esi","parent_id":"323776","long":30.590399999999998925659383530728518962860107421875},"5":{"id":"8632165","label":"Elmal\u0131 \u0130l\u00e7esi","value":"8632165","lat":36.746409999999997353370417840778827667236328125,"lon":29.92323999999999983856469043530523777008056640625,"poi_name":"Elmal\u0131 \u0130l\u00e7esi","parent_id":"323776","long":29.92323999999999983856469043530523777008056640625},"6":{"id":"7732189","label":"Finike","value":"7732189","lat":36.42354999999999876081346883438527584075927734375,"lon":30.066449999999999675992512493394315242767333984375,"poi_name":"Finike","parent_id":"323776","long":30.066449999999999675992512493394315242767333984375},"7":{"id":"8632151","label":"Gazipa\u015fa \u0130l\u00e7esi","value":"8632151","lat":36.2801199999999965939423418603837490081787109375,"lon":32.3057000000000016370904631912708282470703125,"poi_name":"Gazipa\u015fa \u0130l\u00e7esi","parent_id":"323776","long":32.3057000000000016370904631912708282470703125},"8":{"id":"8632153","label":"G\u00fcndo\u011fmu\u015f \u0130l\u00e7esi","value":"8632153","lat":36.8244600000000019690560293383896350860595703125,"lon":32.00679000000000229420038522221148014068603515625,"poi_name":"G\u00fcndo\u011fmu\u015f \u0130l\u00e7esi","parent_id":"323776","long":32.00679000000000229420038522221148014068603515625},"9":{"id":"8632166","label":"Ka\u015f \u0130l\u00e7esi","value":"8632166","lat":36.2120699999999970941644278354942798614501953125,"lon":29.65605000000000046611603465862572193145751953125,"poi_name":"Ka\u015f \u0130l\u00e7esi","parent_id":"323776","long":29.65605000000000046611603465862572193145751953125},"10":{"id":"7732191","label":"Kemer \u0130l\u00e7esi","value":"7732191","lat":36.6024900000000030786395655013620853424072265625,"lon":30.48038999999999987267074175179004669189453125,"poi_name":"Kemer \u0130l\u00e7esi","parent_id":"323776","long":30.48038999999999987267074175179004669189453125},"11":{"id":"9535336","label":"Kepez \u0130l\u00e7esi","value":"9535336","lat":37.0118700000000018235368770547211170196533203125,"lon":30.759660000000000223963070311583578586578369140625,"poi_name":"Kepez \u0130l\u00e7esi","parent_id":"323776","long":30.759660000000000223963070311583578586578369140625},"12":{"id":"9535334","label":"Konyaalt\u0131","value":"9535334","lat":36.86424000000000233967512031085789203643798828125,"lon":30.627140000000000696900315233506262302398681640625,"poi_name":"Konyaalt\u0131","parent_id":"323776","long":30.627140000000000696900315233506262302398681640625},"13":{"id":"8632164","label":"Korkuteli \u0130l\u00e7esi","value":"8632164","lat":37.07580999999999704641595599241554737091064453125,"lon":30.202929999999998500470610451884567737579345703125,"poi_name":"Korkuteli \u0130l\u00e7esi","parent_id":"323776","long":30.202929999999998500470610451884567737579345703125},"14":{"id":"7911038","label":"Kumluca","value":"7911038","lat":36.5799999999999982946974341757595539093017578125,"lon":30.300000000000000710542735760100185871124267578125,"poi_name":"Kumluca","parent_id":"323776","long":30.300000000000000710542735760100185871124267578125},"15":{"id":"7732193","label":"Manavgat \u0130l\u00e7esi","value":"7732193","lat":36.7900800000000032241587177850306034088134765625,"lon":31.46285999999999916099113761447370052337646484375,"poi_name":"Manavgat \u0130l\u00e7esi","parent_id":"323776","long":31.46285999999999916099113761447370052337646484375},"16":{"id":"7732194","label":"Merkez","value":"7732194","lat":37.00695999999999941110218060202896595001220703125,"lon":30.620509999999999450892573804594576358795166015625,"poi_name":"Merkez","parent_id":"323776","long":30.620509999999999450892573804594576358795166015625},"17":{"id":"9535335","label":"Muratpa\u015fa \u0130l\u00e7esi","value":"9535335","lat":36.8790699999999986857801559381186962127685546875,"lon":30.768589999999999662350091966800391674041748046875,"poi_name":"Muratpa\u015fa \u0130l\u00e7esi","parent_id":"323776","long":30.768589999999999662350091966800391674041748046875},"18":{"id":"7732195","label":"Serik","value":"7732195","lat":37.07742999999999966576069709844887256622314453125,"lon":31.006769999999999498641045647673308849334716796875,"poi_name":"Serik","parent_id":"323776","long":31.006769999999999498641045647673308849334716796875},"19":{"id":"8632156","label":"\u0130brad\u0131 \u0130l\u00e7esi","value":"8632156","lat":37.10757000000000260797605733387172222137451171875,"lon":31.609690000000000509317032992839813232421875,"poi_name":"\u0130brad\u0131 \u0130l\u00e7esi","parent_id":"323776","long":31.609690000000000509317032992839813232421875}}