{"success":true,"remaining_lookups":7436,"0":{"id":"8630872","label":"Aral\u0131k \u0130l\u00e7esi","value":"8630872","lat":39.883139999999997371560311876237392425537109375,"lon":44.52329999999999898818714427761733531951904296875,"poi_name":"Aral\u0131k \u0130l\u00e7esi","parent_id":"325329","long":44.52329999999999898818714427761733531951904296875},"1":{"id":"8631681","label":"Besni \u0130l\u00e7esi","value":"8631681","lat":37.7014199999999988222043612040579319000244140625,"lon":37.87086000000000041154635255225002765655517578125,"poi_name":"Besni \u0130l\u00e7esi","parent_id":"325329","long":37.87086000000000041154635255225002765655517578125},"2":{"id":"8631677","label":"Gerger \u0130l\u00e7esi","value":"8631677","lat":38.028559999999998808561940677464008331298828125,"lon":39.0328099999999977853804011829197406768798828125,"poi_name":"Gerger \u0130l\u00e7esi","parent_id":"325329","long":39.0328099999999977853804011829197406768798828125},"3":{"id":"8631684","label":"G\u00f6lba\u015f\u0131 \u0130l\u00e7esi","value":"8631684","lat":37.78999999999999914734871708787977695465087890625,"lon":37.649889999999999190549715422093868255615234375,"poi_name":"G\u00f6lba\u015f\u0131 \u0130l\u00e7esi","parent_id":"325329","long":37.649889999999999190549715422093868255615234375},"4":{"id":"8631679","label":"K\u00e2hta \u0130l\u00e7esi","value":"8631679","lat":37.794769999999999754436430521309375762939453125,"lon":38.63118999999999658712113159708678722381591796875,"poi_name":"K\u00e2hta \u0130l\u00e7esi","parent_id":"325329","long":38.63118999999999658712113159708678722381591796875},"5":{"id":"7732069","label":"Merkez","value":"7732069","lat":37.744540000000000645741238258779048919677734375,"lon":38.26800999999999675083017791621387004852294921875,"poi_name":"Merkez","parent_id":"325329","long":38.26800999999999675083017791621387004852294921875},"6":{"id":"8631678","label":"Samsat \u0130l\u00e7esi","value":"8631678","lat":37.5856500000000011141310096718370914459228515625,"lon":38.48946000000000111640474642626941204071044921875,"poi_name":"Samsat \u0130l\u00e7esi","parent_id":"325329","long":38.48946000000000111640474642626941204071044921875},"7":{"id":"8631683","label":"Sincik \u0130l\u00e7esi","value":"8631683","lat":38.03372999999999848341758479364216327667236328125,"lon":38.613190000000003010427462868392467498779296875,"poi_name":"Sincik \u0130l\u00e7esi","parent_id":"325329","long":38.613190000000003010427462868392467498779296875},"8":{"id":"8631682","label":"Tut \u0130l\u00e7esi","value":"8631682","lat":37.80528000000000332647687173448503017425537109375,"lon":37.9229600000000033332980819977819919586181640625,"poi_name":"Tut \u0130l\u00e7esi","parent_id":"325329","long":37.9229600000000033332980819977819919586181640625},"9":{"id":"8631680","label":"\u00c7elikhan \u0130l\u00e7esi","value":"8631680","lat":38.03275000000000005684341886080801486968994140625,"lon":38.23705000000000353566065314225852489471435546875,"poi_name":"\u00c7elikhan \u0130l\u00e7esi","parent_id":"325329","long":38.23705000000000353566065314225852489471435546875}}