{"success":true,"remaining_lookups":7357,"0":{"id":"438958","label":"Beyt\u00fc\u015f\u015febap","value":"438958","lat":37.57144000000000261252353084273636341094970703125,"lon":43.1651499999999970214048516936600208282470703125,"poi_name":"Beyt\u00fc\u015f\u015febap","parent_id":"443189","long":43.1651499999999970214048516936600208282470703125},"1":{"id":"438774","label":"Cizre \u0130l\u00e7esi","value":"438774","lat":37.3278499999999979763742885552346706390380859375,"lon":42.18721000000000032059688237495720386505126953125,"poi_name":"Cizre \u0130l\u00e7esi","parent_id":"443189","long":42.18721000000000032059688237495720386505126953125},"2":{"id":"441645","label":"G\u00fc\u00e7l\u00fckonak \u0130l\u00e7esi","value":"441645","lat":37.47133000000000180307324626483023166656494140625,"lon":41.91297999999999746023604529909789562225341796875,"poi_name":"G\u00fc\u00e7l\u00fckonak \u0130l\u00e7esi","parent_id":"443189","long":41.91297999999999746023604529909789562225341796875},"3":{"id":"438989","label":"Silopi \u0130l\u00e7esi","value":"438989","lat":37.2497800000000012232703738845884799957275390625,"lon":42.47173000000000087084117694757878780364990234375,"poi_name":"Silopi \u0130l\u00e7esi","parent_id":"443189","long":42.47173000000000087084117694757878780364990234375},"4":{"id":"438878","label":"Uludere \u0130l\u00e7esi","value":"438878","lat":37.4461500000000029331204132176935672760009765625,"lon":42.8522200000000026420821086503565311431884765625,"poi_name":"Uludere \u0130l\u00e7esi","parent_id":"443189","long":42.8522200000000026420821086503565311431884765625},"5":{"id":"442034","label":"\u0130dil \u0130l\u00e7esi","value":"442034","lat":37.341779999999999972715158946812152862548828125,"lon":41.88824000000000324916982208378612995147705078125,"poi_name":"\u0130dil \u0130l\u00e7esi","parent_id":"443189","long":41.88824000000000324916982208378612995147705078125},"6":{"id":"438773","label":"\u015e\u0131rnak \u0130l\u00e7esi","value":"438773","lat":37.53278000000000247382558882236480712890625,"lon":42.38917000000000001591615728102624416351318359375,"poi_name":"\u015e\u0131rnak \u0130l\u00e7esi","parent_id":"443189","long":42.38917000000000001591615728102624416351318359375}}