{"success":true,"remaining_lookups":7434,"0":{"id":"8631920","label":"A\u011fa\u00e7\u00f6ren \u0130l\u00e7esi","value":"8631920","lat":38.8845400000000012141754268668591976165771484375,"lon":33.9242100000000021964297047816216945648193359375,"poi_name":"A\u011fa\u00e7\u00f6ren \u0130l\u00e7esi","parent_id":"443185","long":33.9242100000000021964297047816216945648193359375},"1":{"id":"8631917","label":"Eskil \u0130l\u00e7esi","value":"8631917","lat":38.4115800000000007230482879094779491424560546875,"lon":33.419939999999996871338225901126861572265625,"poi_name":"Eskil \u0130l\u00e7esi","parent_id":"443185","long":33.419939999999996871338225901126861572265625},"2":{"id":"8631923","label":"G\u00fcla\u011fa\u00e7 \u0130l\u00e7esi","value":"8631923","lat":38.40641000000000104819264379329979419708251953125,"lon":34.35070999999999941110218060202896595001220703125,"poi_name":"G\u00fcla\u011fa\u00e7 \u0130l\u00e7esi","parent_id":"443185","long":34.35070999999999941110218060202896595001220703125},"3":{"id":"8631925","label":"G\u00fczelyurt \u0130l\u00e7esi","value":"8631925","lat":38.28627999999999786950866109691560268402099609375,"lon":34.36189999999999855617716093547642230987548828125,"poi_name":"G\u00fczelyurt \u0130l\u00e7esi","parent_id":"443185","long":34.36189999999999855617716093547642230987548828125},"4":{"id":"7732073","label":"Merkez","value":"7732073","lat":38.37060000000000314912540488876402378082275390625,"lon":34.0284300000000001773514668457210063934326171875,"poi_name":"Merkez","parent_id":"443185","long":34.0284300000000001773514668457210063934326171875},"5":{"id":"8631922","label":"Ortak\u00f6y \u0130l\u00e7esi","value":"8631922","lat":38.74770000000000180762071977369487285614013671875,"lon":34.043509999999997717168298549950122833251953125,"poi_name":"Ortak\u00f6y \u0130l\u00e7esi","parent_id":"443185","long":34.043509999999997717168298549950122833251953125},"6":{"id":"8631919","label":"Sar\u0131yah\u015fi \u0130l\u00e7esi","value":"8631919","lat":38.992919999999998026396497152745723724365234375,"lon":33.8467600000000032878233469091355800628662109375,"poi_name":"Sar\u0131yah\u015fi \u0130l\u00e7esi","parent_id":"443185","long":33.8467600000000032878233469091355800628662109375},"7":{"id":"11789076","label":"Sultanhan\u0131","value":"11789076","lat":38.24383999999999872443368076346814632415771484375,"lon":33.5520700000000005047695594839751720428466796875,"poi_name":"Sultanhan\u0131","parent_id":"443185","long":33.5520700000000005047695594839751720428466796875}}