{"success":true,"remaining_lookups":7371,"0":{"id":"8631743","label":"Almus \u0130l\u00e7esi","value":"8631743","lat":40.38642999999999716465026722289621829986572265625,"lon":36.9128400000000027603164198808372020721435546875,"poi_name":"Almus \u0130l\u00e7esi","parent_id":"738742","long":36.9128400000000027603164198808372020721435546875},"1":{"id":"8631740","label":"Artova \u0130l\u00e7esi","value":"8631740","lat":40.12680999999999897909219725988805294036865234375,"lon":36.30727999999999866531652514822781085968017578125,"poi_name":"Artova \u0130l\u00e7esi","parent_id":"738742","long":36.30727999999999866531652514822781085968017578125},"2":{"id":"8631714","label":"Ba\u015f\u00e7iftlik \u0130l\u00e7esi","value":"8631714","lat":40.55727999999999866531652514822781085968017578125,"lon":37.17674000000000233967512031085789203643798828125,"poi_name":"Ba\u015f\u00e7iftlik \u0130l\u00e7esi","parent_id":"738742","long":37.17674000000000233967512031085789203643798828125},"3":{"id":"7732992","label":"Erbaa","value":"7732992","lat":40.71390000000000242152964347042143344879150390625,"lon":36.59364000000000061163518694229423999786376953125,"poi_name":"Erbaa","parent_id":"738742","long":36.59364000000000061163518694229423999786376953125},"4":{"id":"7911035","label":"Niksar","value":"7911035","lat":40.60508999999999701913111493922770023345947265625,"lon":36.9717399999999969395503285340964794158935546875,"poi_name":"Niksar","parent_id":"738742","long":36.9717399999999969395503285340964794158935546875},"5":{"id":"8631741","label":"Pazar \u0130l\u00e7esi","value":"8631741","lat":40.28703999999999751935320091433823108673095703125,"lon":36.29191999999999751480572740547358989715576171875,"poi_name":"Pazar \u0130l\u00e7esi","parent_id":"738742","long":36.29191999999999751480572740547358989715576171875},"6":{"id":"7911036","label":"Re\u015fadiye","value":"7911036","lat":40.43283999999999878127709962427616119384765625,"lon":37.376519999999999299689079634845256805419921875,"poi_name":"Re\u015fadiye","parent_id":"738742","long":37.376519999999999299689079634845256805419921875},"7":{"id":"8631717","label":"Sulusaray \u0130l\u00e7esi","value":"8631717","lat":40.00491000000000241243469645269215106964111328125,"lon":36.0897599999999982856024871580302715301513671875,"poi_name":"Sulusaray \u0130l\u00e7esi","parent_id":"738742","long":36.0897599999999982856024871580302715301513671875},"8":{"id":"8631742","label":"Turhal \u0130l\u00e7esi","value":"8631742","lat":40.39838999999999913370629656128585338592529296875,"lon":36.08735999999999677356754546053707599639892578125,"poi_name":"Turhal \u0130l\u00e7esi","parent_id":"738742","long":36.08735999999999677356754546053707599639892578125},"9":{"id":"8631738","label":"Ye\u015filyurt \u0130l\u00e7esi","value":"8631738","lat":39.9991600000000033787728170864284038543701171875,"lon":36.23478999999999672354533686302602291107177734375,"poi_name":"Ye\u015filyurt \u0130l\u00e7esi","parent_id":"738742","long":36.23478999999999672354533686302602291107177734375},"10":{"id":"8631744","label":"Zile \u0130l\u00e7esi","value":"8631744","lat":40.31425999999999731926436652429401874542236328125,"lon":35.893990000000002282831701450049877166748046875,"poi_name":"Zile \u0130l\u00e7esi","parent_id":"738742","long":35.893990000000002282831701450049877166748046875}}