{"success":true,"remaining_lookups":7374,"0":{"id":"7911054","label":"Ayanc\u0131k","value":"7911054","lat":41.8299999999999982946974341757595539093017578125,"lon":34.60000000000000142108547152020037174224853515625,"poi_name":"Ayanc\u0131k","parent_id":"739598","long":34.60000000000000142108547152020037174224853515625},"1":{"id":"8632034","label":"Boyabat \u0130l\u00e7esi","value":"8632034","lat":41.479140000000001009539118967950344085693359375,"lon":34.7717499999999972715158946812152862548828125,"poi_name":"Boyabat \u0130l\u00e7esi","parent_id":"739598","long":34.7717499999999972715158946812152862548828125},"2":{"id":"8632030","label":"Dikmen \u0130l\u00e7esi","value":"8632030","lat":41.65993999999999886085788602940738201141357421875,"lon":35.27047999999999916553861112333834171295166015625,"poi_name":"Dikmen \u0130l\u00e7esi","parent_id":"739598","long":35.27047999999999916553861112333834171295166015625},"3":{"id":"8632031","label":"Dura\u011fan \u0130l\u00e7esi","value":"8632031","lat":41.42555999999999727378963143564760684967041015625,"lon":35.05790999999999968395059113390743732452392578125,"poi_name":"Dura\u011fan \u0130l\u00e7esi","parent_id":"739598","long":35.05790999999999968395059113390743732452392578125},"4":{"id":"8632033","label":"Erfelek \u0130l\u00e7esi","value":"8632033","lat":41.88906999999999669626049580983817577362060546875,"lon":34.9265199999999964575181365944445133209228515625,"poi_name":"Erfelek \u0130l\u00e7esi","parent_id":"739598","long":34.9265199999999964575181365944445133209228515625},"5":{"id":"8632029","label":"Gerze \u0130l\u00e7esi","value":"8632029","lat":41.80996999999999985675458447076380252838134765625,"lon":35.19035000000000223963070311583578586578369140625,"poi_name":"Gerze \u0130l\u00e7esi","parent_id":"739598","long":35.19035000000000223963070311583578586578369140625},"6":{"id":"7733028","label":"Merkez","value":"7733028","lat":41.91834999999999666897565475665032863616943359375,"lon":35.00686999999999926558302831836044788360595703125,"poi_name":"Merkez","parent_id":"739598","long":35.00686999999999926558302831836044788360595703125},"7":{"id":"8632032","label":"Sarayd\u00fcz\u00fc \u0130l\u00e7esi","value":"8632032","lat":41.33731999999999828787622391246259212493896484375,"lon":34.853690000000000281943357549607753753662109375,"poi_name":"Sarayd\u00fcz\u00fc \u0130l\u00e7esi","parent_id":"739598","long":34.853690000000000281943357549607753753662109375},"8":{"id":"8632035","label":"T\u00fcrkeli \u0130l\u00e7esi","value":"8632035","lat":41.941969999999997753548086620867252349853515625,"lon":34.34821000000000168483893503434956073760986328125,"poi_name":"T\u00fcrkeli \u0130l\u00e7esi","parent_id":"739598","long":34.34821000000000168483893503434956073760986328125}}