{"success":true,"remaining_lookups":7413,"0":{"id":"8632575","label":"Enez \u0130l\u00e7esi","value":"8632575","lat":40.733890000000002373781171627342700958251953125,"lon":26.102429999999998244675225578248500823974609375,"poi_name":"Enez \u0130l\u00e7esi","parent_id":"747711","long":26.102429999999998244675225578248500823974609375},"1":{"id":"8632571","label":"Havsa \u0130l\u00e7esi","value":"8632571","lat":41.559809999999998808561940677464008331298828125,"lon":26.8339399999999983492671162821352481842041015625,"poi_name":"Havsa \u0130l\u00e7esi","parent_id":"747711","long":26.8339399999999983492671162821352481842041015625},"2":{"id":"8632574","label":"Ke\u015fan \u0130l\u00e7esi","value":"8632574","lat":40.86610999999999904730429989285767078399658203125,"lon":26.644239999999999923829818726517260074615478515625,"poi_name":"Ke\u015fan \u0130l\u00e7esi","parent_id":"747711","long":26.644239999999999923829818726517260074615478515625},"3":{"id":"8632569","label":"L\u00e2lapa\u015fa \u0130l\u00e7esi","value":"8632569","lat":41.850560000000001537046045996248722076416015625,"lon":26.748650000000001369926394545473158359527587890625,"poi_name":"L\u00e2lapa\u015fa \u0130l\u00e7esi","parent_id":"747711","long":26.748650000000001369926394545473158359527587890625},"4":{"id":"8632572","label":"Meri\u00e7 \u0130l\u00e7esi","value":"8632572","lat":41.201740000000000918589648790657520294189453125,"lon":26.434989999999999099600245244801044464111328125,"poi_name":"Meri\u00e7 \u0130l\u00e7esi","parent_id":"747711","long":26.434989999999999099600245244801044464111328125},"5":{"id":"8632570","label":"S\u00fclo\u011flu \u0130l\u00e7esi","value":"8632570","lat":41.77955999999999647798176738433539867401123046875,"lon":26.92602000000000117552190204150974750518798828125,"poi_name":"S\u00fclo\u011flu \u0130l\u00e7esi","parent_id":"747711","long":26.92602000000000117552190204150974750518798828125},"6":{"id":"8632568","label":"Uzunk\u00f6pr\u00fc \u0130l\u00e7esi","value":"8632568","lat":41.2768099999999975580067257396876811981201171875,"lon":26.696449999999998681232682429254055023193359375,"poi_name":"Uzunk\u00f6pr\u00fc \u0130l\u00e7esi","parent_id":"747711","long":26.696449999999998681232682429254055023193359375},"7":{"id":"8632573","label":"\u0130psala \u0130l\u00e7esi","value":"8632573","lat":40.932040000000000645741238258779048919677734375,"lon":26.39780999999999977490006131120026111602783203125,"poi_name":"\u0130psala \u0130l\u00e7esi","parent_id":"747711","long":26.39780999999999977490006131120026111602783203125}}