{"success":true,"remaining_lookups":9769,"0":{"id":"6320034","label":"Abaiara","value":"6320034","lat":-7.336420000000000385398379876278340816497802734375,"lon":-39.0612899999999996225596987642347812652587890625,"poi_name":"Abaiara","parent_id":"3402362","long":-39.0612899999999996225596987642347812652587890625},"1":{"id":"6320035","label":"Acarap\u00e9","value":"6320035","lat":-4.2056500000000003325340003357268869876861572265625,"lon":-38.69160000000000110276232589967548847198486328125,"poi_name":"Acarap\u00e9","parent_id":"3402362","long":-38.69160000000000110276232589967548847198486328125},"2":{"id":"6320036","label":"Acara\u00fa","value":"6320036","lat":-2.954239999999999977120523908524774014949798583984375,"lon":-40.085970000000003210516297258436679840087890625,"poi_name":"Acara\u00fa","parent_id":"3402362","long":-40.085970000000003210516297258436679840087890625},"3":{"id":"6324372","label":"Acopiara","value":"6324372","lat":-6.1131200000000003313971319585107266902923583984375,"lon":-39.517560000000003128661774098873138427734375,"poi_name":"Acopiara","parent_id":"3402362","long":-39.517560000000003128661774098873138427734375},"4":{"id":"3408131","label":"Aiuaba","value":"3408131","lat":-6.5889600000000001500666257925331592559814453125,"lon":-40.2394800000000003592504072003066539764404296875,"poi_name":"Aiuaba","parent_id":"3402362","long":-40.2394800000000003592504072003066539764404296875},"5":{"id":"6320037","label":"Alc\u00e2ntaras","value":"6320037","lat":-3.587330000000000129745103549794293940067291259765625,"lon":-40.55516999999999683268470107577741146087646484375,"poi_name":"Alc\u00e2ntaras","parent_id":"3402362","long":-40.55516999999999683268470107577741146087646484375},"6":{"id":"6320038","label":"Altaneira","value":"6320038","lat":-6.9873700000000003029754225281067192554473876953125,"lon":-39.7274000000000029331204132176935672760009765625,"poi_name":"Altaneira","parent_id":"3402362","long":-39.7274000000000029331204132176935672760009765625},"7":{"id":"6320039","label":"Alto Santo","value":"6320039","lat":-5.52409999999999978825826474349014461040496826171875,"lon":-38.2091599999999971259967423975467681884765625,"poi_name":"Alto Santo","parent_id":"3402362","long":-38.2091599999999971259967423975467681884765625},"8":{"id":"6320074","label":"Amontada","value":"6320074","lat":-3.279409999999999936193262328743003308773040771484375,"lon":-39.8058199999999970941644278354942798614501953125,"poi_name":"Amontada","parent_id":"3402362","long":-39.8058199999999970941644278354942798614501953125},"9":{"id":"6320041","label":"Antonina do Norte","value":"6320041","lat":-6.73622000000000031860736271482892334461212158203125,"lon":-39.9788199999999989131538313813507556915283203125,"poi_name":"Antonina do Norte","parent_id":"3402362","long":-39.9788199999999989131538313813507556915283203125},"10":{"id":"6319166","label":"Apuiar\u00e9s","value":"6319166","lat":-3.950039999999999995594635038287378847599029541015625,"lon":-39.303730000000001609805622138082981109619140625,"poi_name":"Apuiar\u00e9s","parent_id":"3402362","long":-39.303730000000001609805622138082981109619140625},"11":{"id":"6320042","label":"Aquiraz","value":"6320042","lat":-3.901569999999999982520648700301535427570343017578125,"lon":-38.39126999999999867441147216595709323883056640625,"poi_name":"Aquiraz","parent_id":"3402362","long":-38.39126999999999867441147216595709323883056640625},"12":{"id":"6324285","label":"Aracati","value":"6324285","lat":-4.565129999999999910187398199923336505889892578125,"lon":-37.7668800000000004501998773775994777679443359375,"poi_name":"Aracati","parent_id":"3402362","long":-37.7668800000000004501998773775994777679443359375},"13":{"id":"3407365","label":"Aracoiaba","value":"3407365","lat":-4.49045000000000005258016244624741375446319580078125,"lon":-38.677649999999999863575794734060764312744140625,"poi_name":"Aracoiaba","parent_id":"3402362","long":-38.677649999999999863575794734060764312744140625},"14":{"id":"6324286","label":"Ararend\u00e1","value":"6324286","lat":-4.77057999999999982065901349415071308612823486328125,"lon":-40.7538899999999983947418513707816600799560546875,"poi_name":"Ararend\u00e1","parent_id":"3402362","long":-40.7538899999999983947418513707816600799560546875},"15":{"id":"3407246","label":"Araripe","value":"3407246","lat":-7.2046200000000002461320036672987043857574462890625,"lon":-40.11426000000000158252078108489513397216796875,"poi_name":"Araripe","parent_id":"3402362","long":-40.11426000000000158252078108489513397216796875},"16":{"id":"6320043","label":"Aratuba","value":"6320043","lat":-4.41898000000000035214497984270565211772918701171875,"lon":-39.048180000000002110027708113193511962890625,"poi_name":"Aratuba","parent_id":"3402362","long":-39.048180000000002110027708113193511962890625},"17":{"id":"6320044","label":"Arneiroz","value":"6320044","lat":-6.2360699999999997800159690086729824542999267578125,"lon":-40.09400000000000119371179607696831226348876953125,"poi_name":"Arneiroz","parent_id":"3402362","long":-40.09400000000000119371179607696831226348876953125},"18":{"id":"3407009","label":"Assar\u00e9","value":"3407009","lat":-6.89745999999999970242470226367004215717315673828125,"lon":-39.829059999999998353814589790999889373779296875,"poi_name":"Assar\u00e9","parent_id":"3402362","long":-39.829059999999998353814589790999889373779296875},"19":{"id":"3406952","label":"Aurora","value":"3406952","lat":-7.00011000000000027654323275783099234104156494140625,"lon":-38.97041999999999717374521424062550067901611328125,"poi_name":"Aurora","parent_id":"3402362","long":-38.97041999999999717374521424062550067901611328125},"20":{"id":"3406622","label":"Baixio","value":"3406622","lat":-6.7072599999999997777422322542406618595123291015625,"lon":-38.7574800000000010413714335300028324127197265625,"poi_name":"Baixio","parent_id":"3402362","long":-38.7574800000000010413714335300028324127197265625},"21":{"id":"6324287","label":"Banabui\u00fa","value":"6324287","lat":-5.235549999999999926103555480949580669403076171875,"lon":-38.87456999999999851524989935569465160369873046875,"poi_name":"Banabui\u00fa","parent_id":"3402362","long":-38.87456999999999851524989935569465160369873046875},"22":{"id":"3406441","label":"Barbalha","value":"3406441","lat":-7.4360400000000002052047420875169336795806884765625,"lon":-39.35273000000000109821485239081084728240966796875,"poi_name":"Barbalha","parent_id":"3402362","long":-39.35273000000000109821485239081084728240966796875},"23":{"id":"6320045","label":"Barreira","value":"6320045","lat":-4.370490000000000208046913030557334423065185546875,"lon":-38.61021000000000213958628592081367969512939453125,"poi_name":"Barreira","parent_id":"3402362","long":-38.61021000000000213958628592081367969512939453125},"24":{"id":"3406080","label":"Barro","value":"3406080","lat":-7.1353699999999999903366187936626374721527099609375,"lon":-38.73373000000000132558852783404290676116943359375,"poi_name":"Barro","parent_id":"3402362","long":-38.73373000000000132558852783404290676116943359375},"25":{"id":"6320046","label":"Barroquinha","value":"6320046","lat":-2.992620000000000057838178690872155129909515380859375,"lon":-41.15458000000000282625478575937449932098388671875,"poi_name":"Barroquinha","parent_id":"3402362","long":-41.15458000000000282625478575937449932098388671875},"26":{"id":"3405953","label":"Baturit\u00e9","value":"3405953","lat":-4.3730799999999998561861502821557223796844482421875,"lon":-38.859149999999999636202119290828704833984375,"poi_name":"Baturit\u00e9","parent_id":"3402362","long":-38.859149999999999636202119290828704833984375},"27":{"id":"6320047","label":"Beberibe","value":"6320047","lat":-4.43897999999999992581933838664554059505462646484375,"lon":-38.07997999999999905185177340172231197357177734375,"poi_name":"Beberibe","parent_id":"3402362","long":-38.07997999999999905185177340172231197357177734375},"28":{"id":"6320048","label":"Bela Cruz","value":"6320048","lat":-3.06287999999999982492226990871131420135498046875,"lon":-40.25835000000000007958078640513122081756591796875,"poi_name":"Bela Cruz","parent_id":"3402362","long":-40.25835000000000007958078640513122081756591796875},"29":{"id":"3405614","label":"Boa Viagem","value":"3405614","lat":-5.02536000000000004916955731459893286228179931640625,"lon":-39.841689999999999827196006663143634796142578125,"poi_name":"Boa Viagem","parent_id":"3402362","long":-39.841689999999999827196006663143634796142578125},"30":{"id":"3404832","label":"Brejo Santo","value":"3404832","lat":-7.62228999999999956571627990342676639556884765625,"lon":-38.8819500000000033423930290155112743377685546875,"poi_name":"Brejo Santo","parent_id":"3402362","long":-38.8819500000000033423930290155112743377685546875},"31":{"id":"6320049","label":"Camocim","value":"6320049","lat":-2.936620000000000008100187187665142118930816650390625,"lon":-40.8388800000000031786839826963841915130615234375,"poi_name":"Camocim","parent_id":"3402362","long":-40.8388800000000031786839826963841915130615234375},"32":{"id":"3403533","label":"Campos Sales","value":"3403533","lat":-6.92527000000000025892177291098050773143768310546875,"lon":-40.22187999999999874489731155335903167724609375,"poi_name":"Campos Sales","parent_id":"3402362","long":-40.22187999999999874489731155335903167724609375},"33":{"id":"3403350","label":"Canind\u00e9","value":"3403350","lat":-4.40472999999999981213250066502951085567474365234375,"lon":-39.41745999999999838792064110748469829559326171875,"poi_name":"Canind\u00e9","parent_id":"3402362","long":-39.41745999999999838792064110748469829559326171875},"34":{"id":"3403145","label":"Capistrano","value":"3403145","lat":-4.46229999999999993320898283855058252811431884765625,"lon":-38.9207200000000028694557840935885906219482421875,"poi_name":"Capistrano","parent_id":"3402362","long":-38.9207200000000028694557840935885906219482421875},"35":{"id":"6320050","label":"Caridade","value":"6320050","lat":-4.20099999999999962341235004714690148830413818359375,"lon":-39.14148999999999745114109828136861324310302734375,"poi_name":"Caridade","parent_id":"3402362","long":-39.14148999999999745114109828136861324310302734375},"36":{"id":"3402881","label":"Cariria\u00e7u","value":"3402881","lat":-7.04169999999999962625452099018730223178863525390625,"lon":-39.25422999999999973397279973141849040985107421875,"poi_name":"Cariria\u00e7u","parent_id":"3402362","long":-39.25422999999999973397279973141849040985107421875},"37":{"id":"3402891","label":"Carir\u00e9","value":"3402891","lat":-3.9358599999999999141664375201798975467681884765625,"lon":-40.5467900000000014415491023100912570953369140625,"poi_name":"Carir\u00e9","parent_id":"3402362","long":-40.5467900000000014415491023100912570953369140625},"38":{"id":"3402874","label":"Cari\u00fas","value":"3402874","lat":-6.65618999999999960692775857751257717609405517578125,"lon":-39.47496000000000293539414997212588787078857421875,"poi_name":"Cari\u00fas","parent_id":"3402362","long":-39.47496000000000293539414997212588787078857421875},"39":{"id":"6320051","label":"Carnaubal","value":"6320051","lat":-4.12096999999999979991116560995578765869140625,"lon":-41.01368000000000080262907431460916996002197265625,"poi_name":"Carnaubal","parent_id":"3402362","long":-41.01368000000000080262907431460916996002197265625},"40":{"id":"6320052","label":"Cascavel","value":"6320052","lat":-4.2700399999999998357225194922648370265960693359375,"lon":-38.2737699999999989586285664699971675872802734375,"poi_name":"Cascavel","parent_id":"3402362","long":-38.2737699999999989586285664699971675872802734375},"41":{"id":"6320053","label":"Catarina","value":"6320053","lat":-6.25016000000000016001422409317456185817718505859375,"lon":-39.948700000000002319211489520967006683349609375,"poi_name":"Catarina","parent_id":"3402362","long":-39.948700000000002319211489520967006683349609375},"42":{"id":"6320054","label":"Catunda","value":"6320054","lat":-4.6046899999999997277200236567296087741851806640625,"lon":-40.1863000000000027966962079517543315887451171875,"poi_name":"Catunda","parent_id":"3402362","long":-40.1863000000000027966962079517543315887451171875},"43":{"id":"6320055","label":"Caucaia","value":"6320055","lat":-3.728600000000000136424205265939235687255859375,"lon":-38.65677000000000163026925292797386646270751953125,"poi_name":"Caucaia","parent_id":"3402362","long":-38.65677000000000163026925292797386646270751953125},"44":{"id":"3402329","label":"Cedro","value":"3402329","lat":-6.59103999999999956571627990342676639556884765625,"lon":-39.12042000000000285808710032142698764801025390625,"poi_name":"Cedro","parent_id":"3402362","long":-39.12042000000000285808710032142698764801025390625},"45":{"id":"6320056","label":"Chaval","value":"6320056","lat":-3.074969999999999981099563228781335055828094482421875,"lon":-41.2372299999999967212716001085937023162841796875,"poi_name":"Chaval","parent_id":"3402362","long":-41.2372299999999967212716001085937023162841796875},"46":{"id":"6320058","label":"Chorozinho","value":"6320058","lat":-4.2918099999999999027977537480182945728302001953125,"lon":-38.4889500000000026602720026858150959014892578125,"poi_name":"Chorozinho","parent_id":"3402362","long":-38.4889500000000026602720026858150959014892578125},"47":{"id":"6320057","label":"Chor\u00f3","value":"6320057","lat":-4.77277000000000040103032006300054490566253662109375,"lon":-39.1777900000000016689227777533233165740966796875,"poi_name":"Chor\u00f3","parent_id":"3402362","long":-39.1777900000000016689227777533233165740966796875},"48":{"id":"3401728","label":"Corea\u00fa","value":"3401728","lat":-3.68827000000000015944578990456648170948028564453125,"lon":-40.727249999999997953636921010911464691162109375,"poi_name":"Corea\u00fa","parent_id":"3402362","long":-40.727249999999997953636921010911464691162109375},"49":{"id":"3401547","label":"Crate\u00fas","value":"3401547","lat":-5.250840000000000173940861714072525501251220703125,"lon":-40.74334999999999951114659779705107212066650390625,"poi_name":"Crate\u00fas","parent_id":"3402362","long":-40.74334999999999951114659779705107212066650390625},"50":{"id":"3401544","label":"Crato","value":"3401544","lat":-7.14714000000000027057467377744615077972412109375,"lon":-39.47131999999999862893673707731068134307861328125,"poi_name":"Crato","parent_id":"3402362","long":-39.47131999999999862893673707731068134307861328125},"51":{"id":"6324288","label":"Croat\u00e1","value":"6324288","lat":-4.39092000000000037829295251867733895778656005859375,"lon":-40.86795000000000044337866711430251598358154296875,"poi_name":"Croat\u00e1","parent_id":"3402362","long":-40.86795000000000044337866711430251598358154296875},"52":{"id":"6320059","label":"Cruz","value":"6320059","lat":-2.89618999999999982009057930554263293743133544921875,"lon":-40.3357299999999980855136527679860591888427734375,"poi_name":"Cruz","parent_id":"3402362","long":-40.3357299999999980855136527679860591888427734375},"53":{"id":"6320060","label":"Deputado Irapuan Pinheiro","value":"6320060","lat":-5.88736999999999977006837070803157985210418701171875,"lon":-39.2592300000000022919266484677791595458984375,"poi_name":"Deputado Irapuan Pinheiro","parent_id":"3402362","long":-39.2592300000000022919266484677791595458984375},"54":{"id":"6324289","label":"Erer\u00ea","value":"6324289","lat":-5.99730999999999969674036037758924067020416259765625,"lon":-38.31179999999999807869244250468909740447998046875,"poi_name":"Erer\u00ea","parent_id":"3402362","long":-38.31179999999999807869244250468909740447998046875},"55":{"id":"6320061","label":"Eus\u00e9bio","value":"6320061","lat":-3.869499999999999939603867460391484200954437255859375,"lon":-38.4554499999999990222931955941021442413330078125,"poi_name":"Eus\u00e9bio","parent_id":"3402362","long":-38.4554499999999990222931955941021442413330078125},"56":{"id":"3400496","label":"Farias Brito","value":"3400496","lat":-6.88661999999999974164666127762757241725921630859375,"lon":-39.5340599999999966485120239667594432830810546875,"poi_name":"Farias Brito","parent_id":"3402362","long":-39.5340599999999966485120239667594432830810546875},"57":{"id":"6324290","label":"Forquilha","value":"6324290","lat":-3.83354000000000016967760529951192438602447509765625,"lon":-40.23431000000000068439476308412849903106689453125,"poi_name":"Forquilha","parent_id":"3402362","long":-40.23431000000000068439476308412849903106689453125},"58":{"id":"6320062","label":"Fortaleza","value":"6320062","lat":-3.72271000000000018559376258053816854953765869140625,"lon":-38.52465000000000117097442853264510631561279296875,"poi_name":"Fortaleza","parent_id":"3402362","long":-38.52465000000000117097442853264510631561279296875},"59":{"id":"6320063","label":"Fortim","value":"6320063","lat":-4.44714000000000009293898983742110431194305419921875,"lon":-37.8528900000000021464074961841106414794921875,"poi_name":"Fortim","parent_id":"3402362","long":-37.8528900000000021464074961841106414794921875},"60":{"id":"3399312","label":"Frecheirinha","value":"3399312","lat":-3.72815999999999991842969393474049866199493408203125,"lon":-40.82027000000000072077455115504562854766845703125,"poi_name":"Frecheirinha","parent_id":"3402362","long":-40.82027000000000072077455115504562854766845703125},"61":{"id":"6320064","label":"General Sampaio","value":"6320064","lat":-4.0501599999999999823785401531495153903961181640625,"lon":-39.44451000000000107093001133762300014495849609375,"poi_name":"General Sampaio","parent_id":"3402362","long":-39.44451000000000107093001133762300014495849609375},"62":{"id":"6324265","label":"Granja","value":"6324265","lat":-3.328930000000000166693325809319503605365753173828125,"lon":-40.9636899999999997135091689415276050567626953125,"poi_name":"Granja","parent_id":"3402362","long":-40.9636899999999997135091689415276050567626953125},"63":{"id":"6320065","label":"Granjeiro","value":"6320065","lat":-6.91744999999999965467623042059130966663360595703125,"lon":-39.27944000000000102090780274011194705963134765625,"poi_name":"Granjeiro","parent_id":"3402362","long":-39.27944000000000102090780274011194705963134765625},"64":{"id":"6324291","label":"Gra\u00e7a","value":"6324291","lat":-4.0662099999999998800603862036950886249542236328125,"lon":-40.79500999999999777401171741075813770294189453125,"poi_name":"Gra\u00e7a","parent_id":"3402362","long":-40.79500999999999777401171741075813770294189453125},"65":{"id":"6320066","label":"Groa\u00edras","value":"6320066","lat":-3.9211299999999997822897057631053030490875244140625,"lon":-40.37695999999999685314833186566829681396484375,"poi_name":"Groa\u00edras","parent_id":"3402362","long":-40.37695999999999685314833186566829681396484375},"66":{"id":"6320067","label":"Guai\u00faba","value":"6320067","lat":-4.11953999999999975756281855865381658077239990234375,"lon":-38.6827899999999971214492688886821269989013671875,"poi_name":"Guai\u00faba","parent_id":"3402362","long":-38.6827899999999971214492688886821269989013671875},"67":{"id":"3398568","label":"Guaraciaba do Norte","value":"3398568","lat":-4.2184100000000004371258910396136343479156494140625,"lon":-40.845089999999999008650775067508220672607421875,"poi_name":"Guaraciaba do Norte","parent_id":"3402362","long":-40.845089999999999008650775067508220672607421875},"68":{"id":"6320068","label":"Guaramiranga","value":"6320068","lat":-4.22177000000000024471091819577850401401519775390625,"lon":-38.96450999999999709189069108106195926666259765625,"poi_name":"Guaramiranga","parent_id":"3402362","long":-38.96450999999999709189069108106195926666259765625},"69":{"id":"6324270","label":"Hidrol\u00e2ndia","value":"6324270","lat":-4.4739000000000004320099833421409130096435546875,"lon":-40.3807699999999982765075401403009891510009765625,"poi_name":"Hidrol\u00e2ndia","parent_id":"3402362","long":-40.3807699999999982765075401403009891510009765625},"70":{"id":"6320069","label":"Horizonte","value":"6320069","lat":-4.114580000000000126192389870993793010711669921875,"lon":-38.51498000000000132558852783404290676116943359375,"poi_name":"Horizonte","parent_id":"3402362","long":-38.51498000000000132558852783404290676116943359375},"71":{"id":"6320070","label":"Ibaretama","value":"6320070","lat":-4.75044999999999983941734171821735799312591552734375,"lon":-38.66570999999999713736542616970837116241455078125,"poi_name":"Ibaretama","parent_id":"3402362","long":-38.66570999999999713736542616970837116241455078125},"72":{"id":"3398407","label":"Ibiapina","value":"3398407","lat":-3.93574000000000001620037437533028423786163330078125,"lon":-40.92757999999999896090230322442948818206787109375,"poi_name":"Ibiapina","parent_id":"3402362","long":-40.92757999999999896090230322442948818206787109375},"73":{"id":"6320071","label":"Ibicuitinga","value":"6320071","lat":-4.96187000000000022481572159449569880962371826171875,"lon":-38.5201899999999994861354934982955455780029296875,"poi_name":"Ibicuitinga","parent_id":"3402362","long":-38.5201899999999994861354934982955455780029296875},"74":{"id":"6320072","label":"Icapu\u00ed","value":"6320072","lat":-4.72337000000000006849631972727365791797637939453125,"lon":-37.41335000000000121644916362129151821136474609375,"poi_name":"Icapu\u00ed","parent_id":"3402362","long":-37.41335000000000121644916362129151821136474609375},"75":{"id":"3398375","label":"Ic\u00f3","value":"3398375","lat":-6.3518600000000002836486601154319941997528076171875,"lon":-38.75674000000000063437255448661744594573974609375,"poi_name":"Ic\u00f3","parent_id":"3402362","long":-38.75674000000000063437255448661744594573974609375},"76":{"id":"3398329","label":"Iguatu","value":"3398329","lat":-6.35550000000000014921397450962103903293609619140625,"lon":-39.27682999999999680085238651372492313385009765625,"poi_name":"Iguatu","parent_id":"3402362","long":-39.27682999999999680085238651372492313385009765625},"77":{"id":"3398253","label":"Independ\u00eancia","value":"3398253","lat":-5.47187000000000001165290086646564304828643798828125,"lon":-40.32314000000000220325091504491865634918212890625,"poi_name":"Independ\u00eancia","parent_id":"3402362","long":-40.32314000000000220325091504491865634918212890625},"78":{"id":"6320073","label":"Ipaporanga","value":"6320073","lat":-4.847409999999999996589394868351519107818603515625,"lon":-40.81027000000000271029421128332614898681640625,"poi_name":"Ipaporanga","parent_id":"3402362","long":-40.81027000000000271029421128332614898681640625},"79":{"id":"3398142","label":"Ipaumirim","value":"3398142","lat":-6.80881999999999987238652465748600661754608154296875,"lon":-38.732269999999999754436430521309375762939453125,"poi_name":"Ipaumirim","parent_id":"3402362","long":-38.732269999999999754436430521309375762939453125},"80":{"id":"3398110","label":"Ipu","value":"3398110","lat":-4.3493399999999997618260749732144176959991455078125,"lon":-40.65930999999999784222382004372775554656982421875,"poi_name":"Ipu","parent_id":"3402362","long":-40.65930999999999784222382004372775554656982421875},"81":{"id":"3398072","label":"Ipueiras","value":"3398072","lat":-4.62126999999999998891553332214243710041046142578125,"lon":-40.82191999999999865167410462163388729095458984375,"poi_name":"Ipueiras","parent_id":"3402362","long":-40.82191999999999865167410462163388729095458984375},"82":{"id":"3398051","label":"Iracema","value":"3398051","lat":-5.8127399999999997959321262896992266178131103515625,"lon":-38.35284999999999655528881703503429889678955078125,"poi_name":"Iracema","parent_id":"3402362","long":-38.35284999999999655528881703503429889678955078125},"83":{"id":"6324292","label":"Irau\u00e7uba","value":"6324292","lat":-3.897749999999999825917029738775454461574554443359375,"lon":-39.78856999999999999317878973670303821563720703125,"poi_name":"Irau\u00e7uba","parent_id":"3402362","long":-39.78856999999999999317878973670303821563720703125},"84":{"id":"6324293","label":"Itaitinga","value":"6324293","lat":-4.0303699999999995640109773376025259494781494140625,"lon":-38.5442699999999973670128383673727512359619140625,"poi_name":"Itaitinga","parent_id":"3402362","long":-38.5442699999999973670128383673727512359619140625},"85":{"id":"3397981","label":"Itai\u00e7aba","value":"3397981","lat":-4.7017100000000002779643182293511927127838134765625,"lon":-37.82907999999999759666025056503713130950927734375,"poi_name":"Itai\u00e7aba","parent_id":"3402362","long":-37.82907999999999759666025056503713130950927734375},"86":{"id":"3397946","label":"Itapag\u00e9","value":"3397946","lat":-3.7333899999999999863575794734060764312744140625,"lon":-39.56508000000000180307324626483023166656494140625,"poi_name":"Itapag\u00e9","parent_id":"3402362","long":-39.56508000000000180307324626483023166656494140625},"87":{"id":"6320040","label":"Itapipoca","value":"6320040","lat":-3.3727900000000001767830326571129262447357177734375,"lon":-39.5621900000000010777512216009199619293212890625,"poi_name":"Itapipoca","parent_id":"3402362","long":-39.5621900000000010777512216009199619293212890625},"88":{"id":"6324294","label":"Itapi\u00fana","value":"6324294","lat":-4.619180000000000063664629124104976654052734375,"lon":-38.93130000000000023874235921539366245269775390625,"poi_name":"Itapi\u00fana","parent_id":"3402362","long":-38.93130000000000023874235921539366245269775390625},"89":{"id":"6320075","label":"Itarema","value":"6320075","lat":-3.08335999999999987863930073217488825321197509765625,"lon":-39.8969799999999992223820299841463565826416015625,"poi_name":"Itarema","parent_id":"3402362","long":-39.8969799999999992223820299841463565826416015625},"90":{"id":"3397876","label":"Itatira","value":"3397876","lat":-4.567840000000000344471118296496570110321044921875,"lon":-39.57820000000000248974174610339105129241943359375,"poi_name":"Itatira","parent_id":"3402362","long":-39.57820000000000248974174610339105129241943359375},"91":{"id":"3397679","label":"Jaguaretama","value":"3397679","lat":-5.4832999999999998408384271897375583648681640625,"lon":-38.7559499999999985675458447076380252838134765625,"poi_name":"Jaguaretama","parent_id":"3402362","long":-38.7559499999999985675458447076380252838134765625},"92":{"id":"6324295","label":"Jaguaribara","value":"6324295","lat":-5.65026999999999990365040503093041479587554931640625,"lon":-38.51030999999999693272911827079951763153076171875,"poi_name":"Jaguaribara","parent_id":"3402362","long":-38.51030999999999693272911827079951763153076171875},"93":{"id":"3397670","label":"Jaguaribe","value":"3397670","lat":-5.9725599999999996470023688743822276592254638671875,"lon":-38.685710000000000263753463514149188995361328125,"poi_name":"Jaguaribe","parent_id":"3402362","long":-38.685710000000000263753463514149188995361328125},"94":{"id":"3397664","label":"Jaguaruana","value":"3397664","lat":-4.8140499999999999403144101961515843868255615234375,"lon":-37.7924799999999976307663018815219402313232421875,"poi_name":"Jaguaruana","parent_id":"3402362","long":-37.7924799999999976307663018815219402313232421875},"95":{"id":"3397572","label":"Jardim","value":"3397572","lat":-7.63820999999999994400923242210410535335540771484375,"lon":-39.2403699999999986403054208494722843170166015625,"poi_name":"Jardim","parent_id":"3402362","long":-39.2403699999999986403054208494722843170166015625},"96":{"id":"3397543","label":"Jati","value":"3397543","lat":-7.70469999999999988204990586382336914539337158203125,"lon":-38.94360999999999961573848850093781948089599609375,"poi_name":"Jati","parent_id":"3402362","long":-38.94360999999999961573848850093781948089599609375},"97":{"id":"6320076","label":"Jijoca de Jericoacoara","value":"6320076","lat":-2.871370000000000199946725842892192304134368896484375,"lon":-40.49161000000000143472789204679429531097412109375,"poi_name":"Jijoca de Jericoacoara","parent_id":"3402362","long":-40.49161000000000143472789204679429531097412109375},"98":{"id":"3397146","label":"Juazeiro do Norte","value":"3397146","lat":-7.14669000000000043115733205922879278659820556640625,"lon":-39.24696999999999746933099231682717800140380859375,"poi_name":"Juazeiro do Norte","parent_id":"3402362","long":-39.24696999999999746933099231682717800140380859375},"99":{"id":"3397117","label":"Juc\u00e1s","value":"3397117","lat":-6.44676999999999988943955031572841107845306396484375,"lon":-39.62004999999999910187398199923336505889892578125,"poi_name":"Juc\u00e1s","parent_id":"3402362","long":-39.62004999999999910187398199923336505889892578125}}