{"success":true,"remaining_lookups":9750,"0":{"id":"3472306","label":"Amparo de S\u00e3o Francisco","value":"3472306","lat":-10.1373599999999992604671206208877265453338623046875,"lon":-36.922190000000000509317032992839813232421875,"poi_name":"Amparo de S\u00e3o Francisco","parent_id":"3447799","long":-36.922190000000000509317032992839813232421875},"1":{"id":"3471899","label":"Aquidab\u00e3","value":"3471899","lat":-10.3161900000000006372147254296578466892242431640625,"lon":-37.10450999999999766032487968914210796356201171875,"poi_name":"Aquidab\u00e3","parent_id":"3447799","long":-37.10450999999999766032487968914210796356201171875},"2":{"id":"6320682","label":"Aracaju","value":"6320682","lat":-10.9823199999999996379074218566529452800750732421875,"lon":-37.103329999999999699866748414933681488037109375,"poi_name":"Aracaju","parent_id":"3447799","long":-37.103329999999999699866748414933681488037109375},"3":{"id":"6320683","label":"Arau\u00e1","value":"6320683","lat":-11.2437699999999995981170286540873348712921142578125,"lon":-37.5694799999999986539478413760662078857421875,"poi_name":"Arau\u00e1","parent_id":"3447799","long":-37.5694799999999986539478413760662078857421875},"4":{"id":"6320684","label":"Areia Branca","value":"6320684","lat":-10.74258999999999986130205797962844371795654296875,"lon":-37.30122999999999677811501896940171718597412109375,"poi_name":"Areia Branca","parent_id":"3447799","long":-37.30122999999999677811501896940171718597412109375},"5":{"id":"6320685","label":"Barra dos Coqueiros","value":"6320685","lat":-10.8276599999999998402699930011294782161712646484375,"lon":-36.96090000000000230784280574880540370941162109375,"poi_name":"Barra dos Coqueiros","parent_id":"3447799","long":-36.96090000000000230784280574880540370941162109375},"6":{"id":"6320686","label":"Boquim","value":"6320686","lat":-11.131099999999999994315658113919198513031005859375,"lon":-37.60943999999999931560523691587150096893310546875,"poi_name":"Boquim","parent_id":"3447799","long":-37.60943999999999931560523691587150096893310546875},"7":{"id":"6320687","label":"Brejo Grande","value":"6320687","lat":-10.49240999999999957026375341229140758514404296875,"lon":-36.45882999999999896090230322442948818206787109375,"poi_name":"Brejo Grande","parent_id":"3447799","long":-36.45882999999999896090230322442948818206787109375},"8":{"id":"3467779","label":"Campo do Brito","value":"3467779","lat":-10.772169999999999134843164938502013683319091796875,"lon":-37.5053199999999975489117787219583988189697265625,"poi_name":"Campo do Brito","parent_id":"3447799","long":-37.5053199999999975489117787219583988189697265625},"9":{"id":"3467499","label":"Canhoba","value":"3467499","lat":-10.148469999999999657802618457935750484466552734375,"lon":-37.0003099999999989222487783990800380706787109375,"poi_name":"Canhoba","parent_id":"3447799","long":-37.0003099999999989222487783990800380706787109375},"10":{"id":"6319169","label":"Canind\u00e9 de S\u00e3o Francisco","value":"6319169","lat":-9.7107799999999997453414835035800933837890625,"lon":-37.94572000000000144837031257338821887969970703125,"poi_name":"Canind\u00e9 de S\u00e3o Francisco","parent_id":"3447799","long":-37.94572000000000144837031257338821887969970703125},"11":{"id":"6320688","label":"Capela","value":"6320688","lat":-10.42830000000000012505552149377763271331787109375,"lon":-37.0567300000000017234924598596990108489990234375,"poi_name":"Capela","parent_id":"3447799","long":-37.0567300000000017234924598596990108489990234375},"12":{"id":"3466940","label":"Carira","value":"3466940","lat":-10.3655500000000007077005648170597851276397705078125,"lon":-37.749899999999996680344338528811931610107421875,"poi_name":"Carira","parent_id":"3447799","long":-37.749899999999996680344338528811931610107421875},"13":{"id":"6320689","label":"Carm\u00f3polis","value":"6320689","lat":-10.6670999999999995822008713730610907077789306640625,"lon":-36.9575099999999991950971889309585094451904296875,"poi_name":"Carm\u00f3polis","parent_id":"3447799","long":-36.9575099999999991950971889309585094451904296875},"14":{"id":"3466498","label":"Cedro de S\u00e3o Jo\u00e3o","value":"3466498","lat":-10.2804599999999997095301296212710440158843994140625,"lon":-36.8883000000000009777068044058978557586669921875,"poi_name":"Cedro de S\u00e3o Jo\u00e3o","parent_id":"3447799","long":-36.8883000000000009777068044058978557586669921875},"15":{"id":"6320690","label":"Cristin\u00e1polis","value":"6320690","lat":-11.495110000000000383124643121846020221710205078125,"lon":-37.71949000000000040699887904338538646697998046875,"poi_name":"Cristin\u00e1polis","parent_id":"3447799","long":-37.71949000000000040699887904338538646697998046875},"16":{"id":"3465015","label":"Cumbe","value":"3465015","lat":-10.34958999999999917918103164993226528167724609375,"lon":-37.17665000000000219415596802718937397003173828125,"poi_name":"Cumbe","parent_id":"3447799","long":-37.17665000000000219415596802718937397003173828125},"17":{"id":"6320691","label":"Divina Pastora","value":"6320691","lat":-10.6793499999999994543031789362430572509765625,"lon":-37.168170000000003483364707790315151214599609375,"poi_name":"Divina Pastora","parent_id":"3447799","long":-37.168170000000003483364707790315151214599609375},"18":{"id":"6320692","label":"Est\u00e2ncia","value":"6320692","lat":-11.2383100000000002438582669128663837909698486328125,"lon":-37.42045999999999850160747882910072803497314453125,"poi_name":"Est\u00e2ncia","parent_id":"3447799","long":-37.42045999999999850160747882910072803497314453125},"19":{"id":"6324315","label":"Feira Nova","value":"6324315","lat":-10.3172399999999999664623828721232712268829345703125,"lon":-37.33850000000000335376171278767287731170654296875,"poi_name":"Feira Nova","parent_id":"3447799","long":-37.33850000000000335376171278767287731170654296875},"20":{"id":"3462943","label":"Frei Paulo","value":"3462943","lat":-10.522240000000000037516656448133289813995361328125,"lon":-37.5802800000000019053914002142846584320068359375,"poi_name":"Frei Paulo","parent_id":"3447799","long":-37.5802800000000019053914002142846584320068359375},"21":{"id":"3462581","label":"Gararu","value":"3462581","lat":-10.0573099999999993059418557095341384410858154296875,"lon":-37.2527199999999965029928716830909252166748046875,"poi_name":"Gararu","parent_id":"3447799","long":-37.2527199999999965029928716830909252166748046875},"22":{"id":"6320693","label":"General Maynard","value":"6320693","lat":-10.6941199999999998482280716416426002979278564453125,"lon":-36.9830400000000025784174795262515544891357421875,"poi_name":"General Maynard","parent_id":"3447799","long":-36.9830400000000025784174795262515544891357421875},"23":{"id":"6324316","label":"Gracho Cardoso","value":"6324316","lat":-10.2349999999999994315658113919198513031005859375,"lon":-37.203890000000001236912794411182403564453125,"poi_name":"Gracho Cardoso","parent_id":"3447799","long":-37.203890000000001236912794411182403564453125},"24":{"id":"6320694","label":"Ilha das Flores","value":"6320694","lat":-10.44454999999999955662133288569748401641845703125,"lon":-36.564289999999999736246536485850811004638671875,"poi_name":"Ilha das Flores","parent_id":"3447799","long":-36.564289999999999736246536485850811004638671875},"25":{"id":"6320695","label":"Indiaroba","value":"6320695","lat":-11.4815400000000007452172212651930749416351318359375,"lon":-37.528379999999998517523636110126972198486328125,"poi_name":"Indiaroba","parent_id":"3447799","long":-37.528379999999998517523636110126972198486328125},"26":{"id":"6320696","label":"Itabaiana","value":"6320696","lat":-10.6865199999999997970689946669153869152069091796875,"lon":-37.4276899999999983492671162821352481842041015625,"poi_name":"Itabaiana","parent_id":"3447799","long":-37.4276899999999983492671162821352481842041015625},"27":{"id":"3460970","label":"Itabaianinha","value":"3460970","lat":-11.2699400000000000687805368215776979923248291015625,"lon":-37.7920500000000032514435588382184505462646484375,"poi_name":"Itabaianinha","parent_id":"3447799","long":-37.7920500000000032514435588382184505462646484375},"28":{"id":"3460961","label":"Itabi","value":"3460961","lat":-10.1088199999999996947508407174609601497650146484375,"lon":-37.20004000000000132786226458847522735595703125,"poi_name":"Itabi","parent_id":"3447799","long":-37.20004000000000132786226458847522735595703125},"29":{"id":"6320697","label":"Itaporanga d'Ajuda","value":"6320697","lat":-11.0708699999999993224264471791684627532958984375,"lon":-37.3329599999999999226929503493010997772216796875,"poi_name":"Itaporanga d'Ajuda","parent_id":"3447799","long":-37.3329599999999999226929503493010997772216796875},"30":{"id":"6320698","label":"Japaratuba","value":"6320698","lat":-10.528890000000000526370058651082217693328857421875,"lon":-36.8801399999999972578734741546213626861572265625,"poi_name":"Japaratuba","parent_id":"3447799","long":-36.8801399999999972578734741546213626861572265625},"31":{"id":"6324317","label":"Japoat\u00e3","value":"6324317","lat":-10.4224599999999991695176504435949027538299560546875,"lon":-36.82298999999999722376742283813655376434326171875,"poi_name":"Japoat\u00e3","parent_id":"3447799","long":-36.82298999999999722376742283813655376434326171875},"32":{"id":"3459337","label":"Lagarto","value":"3459337","lat":-10.89844000000000079353412729687988758087158203125,"lon":-37.6799299999999988131094141863286495208740234375,"poi_name":"Lagarto","parent_id":"3447799","long":-37.6799299999999988131094141863286495208740234375},"33":{"id":"6320699","label":"Laranjeiras","value":"6320699","lat":-10.8070000000000003836930773104541003704071044921875,"lon":-37.168959999999998444764059968292713165283203125,"poi_name":"Laranjeiras","parent_id":"3447799","long":-37.168959999999998444764059968292713165283203125},"34":{"id":"3458255","label":"Macambira","value":"3458255","lat":-10.685449999999999448618837050162255764007568359375,"lon":-37.60002999999999673264028388075530529022216796875,"poi_name":"Macambira","parent_id":"3447799","long":-37.60002999999999673264028388075530529022216796875},"35":{"id":"6320700","label":"Malhada dos Bois","value":"6320700","lat":-10.32806000000000068439476308412849903106689453125,"lon":-36.93572999999999950659912428818643093109130859375,"poi_name":"Malhada dos Bois","parent_id":"3447799","long":-36.93572999999999950659912428818643093109130859375},"36":{"id":"6320701","label":"Malhador","value":"6320701","lat":-10.6920199999999994133759173564612865447998046875,"lon":-37.26914000000000015688783605583012104034423828125,"poi_name":"Malhador","parent_id":"3447799","long":-37.26914000000000015688783605583012104034423828125},"37":{"id":"6320702","label":"Maruim","value":"6320702","lat":-10.72691999999999978854248183779418468475341796875,"lon":-37.110219999999998208295437507331371307373046875,"poi_name":"Maruim","parent_id":"3447799","long":-37.110219999999998208295437507331371307373046875},"38":{"id":"6320703","label":"Moita Bonita","value":"6320703","lat":-10.5907800000000005269384928396902978420257568359375,"lon":-37.33632999999999668716554879210889339447021484375,"poi_name":"Moita Bonita","parent_id":"3447799","long":-37.33632999999999668716554879210889339447021484375},"39":{"id":"3456878","label":"Monte Alegre de Sergipe","value":"3456878","lat":-10.072630000000000194404492503963410854339599609375,"lon":-37.60470000000000112549969344399869441986083984375,"poi_name":"Monte Alegre de Sergipe","parent_id":"3447799","long":-37.60470000000000112549969344399869441986083984375},"40":{"id":"6320704","label":"Muribeca","value":"6320704","lat":-10.389250000000000540012479177676141262054443359375,"lon":-36.976280000000002701199264265596866607666015625,"poi_name":"Muribeca","parent_id":"3447799","long":-36.976280000000002701199264265596866607666015625},"41":{"id":"3393936","label":"Ne\u00f3polis","value":"3393936","lat":-10.35698000000000007503331289626657962799072265625,"lon":-36.66870000000000118234311230480670928955078125,"poi_name":"Ne\u00f3polis","parent_id":"3447799","long":-36.66870000000000118234311230480670928955078125},"42":{"id":"6320705","label":"Nossa Senhora Aparecida","value":"6320705","lat":-10.2984600000000003916511559509672224521636962890625,"lon":-37.48812000000000210775397135876119136810302734375,"poi_name":"Nossa Senhora Aparecida","parent_id":"3447799","long":-37.48812000000000210775397135876119136810302734375},"43":{"id":"3456239","label":"Nossa Senhora da Gl\u00f3ria","value":"3456239","lat":-10.192930000000000489990270580165088176727294921875,"lon":-37.53291999999999717374521424062550067901611328125,"poi_name":"Nossa Senhora da Gl\u00f3ria","parent_id":"3447799","long":-37.53291999999999717374521424062550067901611328125},"44":{"id":"3456233","label":"Nossa Senhora das Dores","value":"3456233","lat":-10.453559999999999519104676437564194202423095703125,"lon":-37.246769999999997935447026975452899932861328125,"poi_name":"Nossa Senhora das Dores","parent_id":"3447799","long":-37.246769999999997935447026975452899932861328125},"45":{"id":"6320706","label":"Nossa Senhora de Lourdes","value":"6320706","lat":-10.1024100000000007781864042044617235660552978515625,"lon":-37.02767999999999659621607861481606960296630859375,"poi_name":"Nossa Senhora de Lourdes","parent_id":"3447799","long":-37.02767999999999659621607861481606960296630859375},"46":{"id":"6320707","label":"Nossa Senhora do Socorro","value":"6320707","lat":-10.8643900000000002137312549166381359100341796875,"lon":-37.17332999999999998408384271897375583648681640625,"poi_name":"Nossa Senhora do Socorro","parent_id":"3447799","long":-37.17332999999999998408384271897375583648681640625},"47":{"id":"6324258","label":"Pacatuba","value":"6324258","lat":-10.494659999999999655528881703503429889678955078125,"lon":-36.6038199999999989131538313813507556915283203125,"poi_name":"Pacatuba","parent_id":"3447799","long":-36.6038199999999989131538313813507556915283203125},"48":{"id":"6324318","label":"Pedra Mole","value":"6324318","lat":-10.664899999999999380406734417192637920379638671875,"lon":-37.68504999999999682813722756691277027130126953125,"poi_name":"Pedra Mole","parent_id":"3447799","long":-37.68504999999999682813722756691277027130126953125},"49":{"id":"6320708","label":"Pedrinhas","value":"6320708","lat":-11.2166599999999991865706761018373072147369384765625,"lon":-37.65664000000000299905877909623086452484130859375,"poi_name":"Pedrinhas","parent_id":"3447799","long":-37.65664000000000299905877909623086452484130859375},"50":{"id":"3453776","label":"Pinh\u00e3o","value":"3453776","lat":-10.5710499999999996134647517465054988861083984375,"lon":-37.78582000000000107320374809205532073974609375,"poi_name":"Pinh\u00e3o","parent_id":"3447799","long":-37.78582000000000107320374809205532073974609375},"51":{"id":"6320709","label":"Pirambu","value":"6320709","lat":-10.6907499999999995310417943983338773250579833984375,"lon":-36.84859000000000150976120494306087493896484375,"poi_name":"Pirambu","parent_id":"3447799","long":-36.84859000000000150976120494306087493896484375},"52":{"id":"3391393","label":"Porto da Folha","value":"3391393","lat":-9.9892699999999994275867720716632902622222900390625,"lon":-37.48058999999999940655470709316432476043701171875,"poi_name":"Porto da Folha","parent_id":"3447799","long":-37.48058999999999940655470709316432476043701171875},"53":{"id":"3391608","label":"Po\u00e7o Redondo","value":"3391608","lat":-9.8803300000000007230482879094779491424560546875,"lon":-37.77611999999999881083567743189632892608642578125,"poi_name":"Po\u00e7o Redondo","parent_id":"3447799","long":-37.77611999999999881083567743189632892608642578125},"54":{"id":"3453298","label":"Po\u00e7o Verde","value":"3453298","lat":-10.816359999999999530473360209725797176361083984375,"lon":-38.1505300000000033833202905952930450439453125,"poi_name":"Po\u00e7o Verde","parent_id":"3447799","long":-38.1505300000000033833202905952930450439453125},"55":{"id":"3452231","label":"Propri\u00e1","value":"3452231","lat":-10.2537900000000004041567081003449857234954833984375,"lon":-36.78578999999999865622157813049852848052978515625,"poi_name":"Propri\u00e1","parent_id":"3447799","long":-36.78578999999999865622157813049852848052978515625},"56":{"id":"6320710","label":"Riachuelo","value":"6320710","lat":-10.716049999999999187139110290445387363433837890625,"lon":-37.225020000000000663931132294237613677978515625,"poi_name":"Riachuelo","parent_id":"3447799","long":-37.225020000000000663931132294237613677978515625},"57":{"id":"3451475","label":"Riach\u00e3o do Dantas","value":"3451475","lat":-11.0128099999999999880628820392303168773651123046875,"lon":-37.78679000000000343106876243837177753448486328125,"poi_name":"Riach\u00e3o do Dantas","parent_id":"3447799","long":-37.78679000000000343106876243837177753448486328125},"58":{"id":"3451304","label":"Ribeir\u00f3polis","value":"3451304","lat":-10.521760000000000445652403868734836578369140625,"lon":-37.37832999999999827878127689473330974578857421875,"poi_name":"Ribeir\u00f3polis","parent_id":"3447799","long":-37.37832999999999827878127689473330974578857421875},"59":{"id":"6320711","label":"Ros\u00e1rio do Catete","value":"6320711","lat":-10.68551000000000072986949817277491092681884765625,"lon":-37.03446999999999889041646383702754974365234375,"poi_name":"Ros\u00e1rio do Catete","parent_id":"3447799","long":-37.03446999999999889041646383702754974365234375},"60":{"id":"6320712","label":"Salgado","value":"6320712","lat":-11.0744799999999994355448507121764123439788818359375,"lon":-37.46782999999999930196281638927757740020751953125,"poi_name":"Salgado","parent_id":"3447799","long":-37.46782999999999930196281638927757740020751953125},"61":{"id":"6320713","label":"Santa Luzia do Itanhy","value":"6320713","lat":-11.361489999999999866986399865709245204925537109375,"lon":-37.47847999999999757392288302071392536163330078125,"poi_name":"Santa Luzia do Itanhy","parent_id":"3447799","long":-37.47847999999999757392288302071392536163330078125},"62":{"id":"6320715","label":"Santa Rosa de Lima","value":"6320715","lat":-10.631389999999999673718775738961994647979736328125,"lon":-37.22865999999999786496118758805096149444580078125,"poi_name":"Santa Rosa de Lima","parent_id":"3447799","long":-37.22865999999999786496118758805096149444580078125},"63":{"id":"6320714","label":"Santana do S\u00e3o Francisco","value":"6320714","lat":-10.27647999999999939291228656657040119171142578125,"lon":-36.633139999999997371560311876237392425537109375,"poi_name":"Santana do S\u00e3o Francisco","parent_id":"3447799","long":-36.633139999999997371560311876237392425537109375},"64":{"id":"6320716","label":"Santo Amaro das Brotas","value":"6320716","lat":-10.777300000000000324007487506605684757232666015625,"lon":-36.95833999999999974761522025801241397857666015625,"poi_name":"Santo Amaro das Brotas","parent_id":"3447799","long":-36.95833999999999974761522025801241397857666015625},"65":{"id":"3447561","label":"Sim\u00e3o Dias","value":"3447561","lat":-10.7116299999999995407051756046712398529052734375,"lon":-37.77141999999999910642145550809800624847412109375,"poi_name":"Sim\u00e3o Dias","parent_id":"3447799","long":-37.77141999999999910642145550809800624847412109375},"66":{"id":"6320718","label":"Siriri","value":"6320718","lat":-10.5872399999999995401367414160631597042083740234375,"lon":-37.121229999999997062332113273441791534423828125,"poi_name":"Siriri","parent_id":"3447799","long":-37.121229999999997062332113273441791534423828125},"67":{"id":"6320717","label":"S\u00e3o Crist\u00f3v\u00e3o","value":"6320717","lat":-10.944520000000000692352841724641621112823486328125,"lon":-37.24114999999999753299562144093215465545654296875,"poi_name":"S\u00e3o Crist\u00f3v\u00e3o","parent_id":"3447799","long":-37.24114999999999753299562144093215465545654296875},"68":{"id":"6324319","label":"S\u00e3o Domingos","value":"6324319","lat":-10.781909999999999882902557146735489368438720703125,"lon":-37.5621799999999979036147124134004116058349609375,"poi_name":"S\u00e3o Domingos","parent_id":"3447799","long":-37.5621799999999979036147124134004116058349609375},"69":{"id":"6324371","label":"S\u00e3o Francisco","value":"6324371","lat":-10.330619999999999691908669774420559406280517578125,"lon":-36.86390000000000100044417195022106170654296875,"poi_name":"S\u00e3o Francisco","parent_id":"3447799","long":-36.86390000000000100044417195022106170654296875},"70":{"id":"6324320","label":"S\u00e3o Miguel do Aleixo","value":"6324320","lat":-10.3685899999999993070787240867502987384796142578125,"lon":-37.3585599999999971032593748532235622406005859375,"poi_name":"S\u00e3o Miguel do Aleixo","parent_id":"3447799","long":-37.3585599999999971032593748532235622406005859375},"71":{"id":"6320719","label":"Telha","value":"6320719","lat":-10.179429999999999978399500832892954349517822265625,"lon":-36.86753999999999820147422724403440952301025390625,"poi_name":"Telha","parent_id":"3447799","long":-36.86753999999999820147422724403440952301025390625},"72":{"id":"3446399","label":"Tobias Barreto","value":"3446399","lat":-11.0779200000000006554046194651164114475250244140625,"lon":-38.02177999999999968849806464277207851409912109375,"poi_name":"Tobias Barreto","parent_id":"3447799","long":-38.02177999999999968849806464277207851409912109375},"73":{"id":"3446362","label":"Tomar do Geru","value":"3446362","lat":-11.3741500000000002046363078989088535308837890625,"lon":-37.87536999999999665078576072119176387786865234375,"poi_name":"Tomar do Geru","parent_id":"3447799","long":-37.87536999999999665078576072119176387786865234375},"74":{"id":"6320720","label":"Umba\u00faba","value":"6320720","lat":-11.40044999999999930651028989814221858978271484375,"lon":-37.662700000000000954969436861574649810791015625,"poi_name":"Umba\u00faba","parent_id":"3447799","long":-37.662700000000000954969436861574649810791015625}}