{"success":true,"remaining_lookups":9751,"0":{"id":"6323039","label":"Abdon Batista","value":"6323039","lat":-27.58980999999999994543031789362430572509765625,"lon":-51.04023000000000109821485239081084728240966796875,"poi_name":"Abdon Batista","parent_id":"3450387","long":-51.04023000000000109821485239081084728240966796875},"1":{"id":"6323040","label":"Abelardo Luz","value":"6323040","lat":-26.59825000000000017053025658242404460906982421875,"lon":-52.22321000000000168483893503434956073760986328125,"poi_name":"Abelardo Luz","parent_id":"3450387","long":-52.22321000000000168483893503434956073760986328125},"2":{"id":"6323041","label":"Agrol\u00e2ndia","value":"6323041","lat":-27.4638700000000000045474735088646411895751953125,"lon":-49.83758999999999872443368076346814632415771484375,"poi_name":"Agrol\u00e2ndia","parent_id":"3450387","long":-49.83758999999999872443368076346814632415771484375},"3":{"id":"6323042","label":"Agron\u00f4mica","value":"6323042","lat":-27.316579999999998307202986325137317180633544921875,"lon":-49.73116999999999876536094234324991703033447265625,"poi_name":"Agron\u00f4mica","parent_id":"3450387","long":-49.73116999999999876536094234324991703033447265625},"4":{"id":"6323047","label":"Alfredo Wagner","value":"6323047","lat":-27.704809999999998382236299221403896808624267578125,"lon":-49.34069000000000215777617995627224445343017578125,"poi_name":"Alfredo Wagner","parent_id":"3450387","long":-49.34069000000000215777617995627224445343017578125},"5":{"id":"6323048","label":"Alto Bela Vista","value":"6323048","lat":-27.40999000000000052068571676500141620635986328125,"lon":-51.9314499999999981127984938211739063262939453125,"poi_name":"Alto Bela Vista","parent_id":"3450387","long":-51.9314499999999981127984938211739063262939453125},"6":{"id":"6323049","label":"Anchieta","value":"6323049","lat":-26.52665999999999968395059113390743732452392578125,"lon":-53.354590000000001737134880386292934417724609375,"poi_name":"Anchieta","parent_id":"3450387","long":-53.354590000000001737134880386292934417724609375},"7":{"id":"6323050","label":"Angelina","value":"6323050","lat":-27.53450000000000130739863379858434200286865234375,"lon":-49.08558000000000021145751816220581531524658203125,"poi_name":"Angelina","parent_id":"3450387","long":-49.08558000000000021145751816220581531524658203125},"8":{"id":"6323051","label":"Anita Garibaldi","value":"6323051","lat":-27.72616000000000013869794202037155628204345703125,"lon":-51.05837999999999965439201332628726959228515625,"poi_name":"Anita Garibaldi","parent_id":"3450387","long":-51.05837999999999965439201332628726959228515625},"9":{"id":"6323052","label":"Anit\u00e1polis","value":"6323052","lat":-27.8690399999999982583176461048424243927001953125,"lon":-49.1320300000000003137756721116602420806884765625,"poi_name":"Anit\u00e1polis","parent_id":"3450387","long":-49.1320300000000003137756721116602420806884765625},"10":{"id":"6323053","label":"Ant\u00f4nio Carlos","value":"6323053","lat":-27.4980699999999984584064804948866367340087890625,"lon":-48.83917999999999892679625190794467926025390625,"poi_name":"Ant\u00f4nio Carlos","parent_id":"3450387","long":-48.83917999999999892679625190794467926025390625},"11":{"id":"6323054","label":"Api\u00fana","value":"6323054","lat":-27.107359999999999899955582804977893829345703125,"lon":-49.38128999999999990677679306827485561370849609375,"poi_name":"Api\u00fana","parent_id":"3450387","long":-49.38128999999999990677679306827485561370849609375},"12":{"id":"6323055","label":"Arabut\u00e3","value":"6323055","lat":-27.141420000000000101181285572238266468048095703125,"lon":-52.18124999999999857891452847979962825775146484375,"poi_name":"Arabut\u00e3","parent_id":"3450387","long":-52.18124999999999857891452847979962825775146484375},"13":{"id":"6323056","label":"Araquari","value":"6323056","lat":-26.46833000000000168938640854321420192718505859375,"lon":-48.80082999999999771034708828665316104888916015625,"poi_name":"Araquari","parent_id":"3450387","long":-48.80082999999999771034708828665316104888916015625},"14":{"id":"6323057","label":"Ararangu\u00e1","value":"6323057","lat":-28.93954000000000092995833256281912326812744140625,"lon":-49.51118999999999914507498033344745635986328125,"poi_name":"Ararangu\u00e1","parent_id":"3450387","long":-49.51118999999999914507498033344745635986328125},"15":{"id":"6323058","label":"Armaz\u00e9m","value":"6323058","lat":-28.224090000000000344471118296496570110321044921875,"lon":-49.0077899999999999636202119290828704833984375,"poi_name":"Armaz\u00e9m","parent_id":"3450387","long":-49.0077899999999999636202119290828704833984375},"16":{"id":"6323059","label":"Arroio Trinta","value":"6323059","lat":-26.91617000000000103909769677557051181793212890625,"lon":-51.345269999999999299689079634845256805419921875,"poi_name":"Arroio Trinta","parent_id":"3450387","long":-51.345269999999999299689079634845256805419921875},"17":{"id":"6323060","label":"Arvoredo","value":"6323060","lat":-27.0690799999999995861799106933176517486572265625,"lon":-52.4489200000000010959411156363785266876220703125,"poi_name":"Arvoredo","parent_id":"3450387","long":-52.4489200000000010959411156363785266876220703125},"18":{"id":"6323061","label":"Ascurra","value":"6323061","lat":-26.98577999999999832425601198337972164154052734375,"lon":-49.3708400000000011687006917782127857208251953125,"poi_name":"Ascurra","parent_id":"3450387","long":-49.3708400000000011687006917782127857208251953125},"19":{"id":"6323062","label":"Atalanta","value":"6323062","lat":-27.442959999999999354258761741220951080322265625,"lon":-49.7608900000000033969627111218869686126708984375,"poi_name":"Atalanta","parent_id":"3450387","long":-49.7608900000000033969627111218869686126708984375},"20":{"id":"6324261","label":"Aurora","value":"6324261","lat":-27.33930000000000148929757415316998958587646484375,"lon":-49.57822999999999780129655846394598484039306640625,"poi_name":"Aurora","parent_id":"3450387","long":-49.57822999999999780129655846394598484039306640625},"21":{"id":"6323063","label":"Balne\u00e1rio Arroio do Silva","value":"6323063","lat":-29.006989999999998275370671763084828853607177734375,"lon":-49.47849000000000074805939220823347568511962890625,"poi_name":"Balne\u00e1rio Arroio do Silva","parent_id":"3450387","long":-49.47849000000000074805939220823347568511962890625},"22":{"id":"6323065","label":"Balne\u00e1rio Barra do Sul","value":"6323065","lat":-26.41890000000000071622707764618098735809326171875,"lon":-48.6514700000000033242031349800527095794677734375,"poi_name":"Balne\u00e1rio Barra do Sul","parent_id":"3450387","long":-48.6514700000000033242031349800527095794677734375},"23":{"id":"6323064","label":"Balne\u00e1rio Cambori\u00fa","value":"6323064","lat":-27.0046999999999997044142219237983226776123046875,"lon":-48.62039999999999650981408194638788700103759765625,"poi_name":"Balne\u00e1rio Cambori\u00fa","parent_id":"3450387","long":-48.62039999999999650981408194638788700103759765625},"24":{"id":"6323066","label":"Balne\u00e1rio Gaivota","value":"6323066","lat":-29.1300600000000002864908310584723949432373046875,"lon":-49.61187000000000324462234857492148876190185546875,"poi_name":"Balne\u00e1rio Gaivota","parent_id":"3450387","long":-49.61187000000000324462234857492148876190185546875},"25":{"id":"6323224","label":"Balne\u00e1rio Pi\u00e7arras","value":"6323224","lat":-26.75580000000000069348971010185778141021728515625,"lon":-48.75999999999999801048033987171947956085205078125,"poi_name":"Balne\u00e1rio Pi\u00e7arras","parent_id":"3450387","long":-48.75999999999999801048033987171947956085205078125},"26":{"id":"8581575","label":"Balne\u00e1rio Rinc\u00e3o","value":"8581575","lat":-28.826789999999999025703800725750625133514404296875,"lon":-49.2542499999999989768184605054557323455810546875,"poi_name":"Balne\u00e1rio Rinc\u00e3o","parent_id":"3450387","long":-49.2542499999999989768184605054557323455810546875},"27":{"id":"6323067","label":"Bandeirante","value":"6323067","lat":-26.768570000000000419504431192763149738311767578125,"lon":-53.64907000000000181216819328255951404571533203125,"poi_name":"Bandeirante","parent_id":"3450387","long":-53.64907000000000181216819328255951404571533203125},"28":{"id":"6323068","label":"Barra Bonita","value":"6323068","lat":-26.68536999999999892452251515351235866546630859375,"lon":-53.41393000000000057525539887137711048126220703125,"poi_name":"Barra Bonita","parent_id":"3450387","long":-53.41393000000000057525539887137711048126220703125},"29":{"id":"6323069","label":"Barra Velha","value":"6323069","lat":-26.649969999999999714646037318743765354156494140625,"lon":-48.73778999999999683723217458464205265045166015625,"poi_name":"Barra Velha","parent_id":"3450387","long":-48.73778999999999683723217458464205265045166015625},"30":{"id":"6323070","label":"Bela Vista do Toldo","value":"6323070","lat":-26.459440000000000736690708436071872711181640625,"lon":-50.5106099999999997862687450833618640899658203125,"poi_name":"Bela Vista do Toldo","parent_id":"3450387","long":-50.5106099999999997862687450833618640899658203125},"31":{"id":"6323071","label":"Belmonte","value":"6323071","lat":-26.85316999999999865167410462163388729095458984375,"lon":-53.61399000000000114596332423388957977294921875,"poi_name":"Belmonte","parent_id":"3450387","long":-53.61399000000000114596332423388957977294921875},"32":{"id":"6323072","label":"Benedito Novo","value":"6323072","lat":-26.785920000000000840145730762742459774017333984375,"lon":-49.4360300000000023601387511007487773895263671875,"poi_name":"Benedito Novo","parent_id":"3450387","long":-49.4360300000000023601387511007487773895263671875},"33":{"id":"6323073","label":"Bigua\u00e7u","value":"6323073","lat":-27.411680000000000489990270580165088176727294921875,"lon":-48.70815999999999945657691569067537784576416015625,"poi_name":"Bigua\u00e7u","parent_id":"3450387","long":-48.70815999999999945657691569067537784576416015625},"34":{"id":"6323074","label":"Blumenau","value":"6323074","lat":-26.87416999999999944748196867294609546661376953125,"lon":-49.10226999999999719648258178494870662689208984375,"poi_name":"Blumenau","parent_id":"3450387","long":-49.10226999999999719648258178494870662689208984375},"35":{"id":"6323075","label":"Bocaina do Sul","value":"6323075","lat":-27.738910000000000621867002337239682674407958984375,"lon":-49.91707000000000249428921961225569248199462890625,"poi_name":"Bocaina do Sul","parent_id":"3450387","long":-49.91707000000000249428921961225569248199462890625},"36":{"id":"6323077","label":"Bom Jardim da Serra","value":"6323077","lat":-28.3674299999999988131094141863286495208740234375,"lon":-49.64215999999999695546648581512272357940673828125,"poi_name":"Bom Jardim da Serra","parent_id":"3450387","long":-49.64215999999999695546648581512272357940673828125},"37":{"id":"6323078","label":"Bom Jesus","value":"6323078","lat":-26.7408199999999993679011822678148746490478515625,"lon":-52.391840000000001964508555829524993896484375,"poi_name":"Bom Jesus","parent_id":"3450387","long":-52.391840000000001964508555829524993896484375},"38":{"id":"6323079","label":"Bom Jesus do Oeste","value":"6323079","lat":-26.690470000000001249418346560560166835784912109375,"lon":-53.09669000000000238514985539950430393218994140625,"poi_name":"Bom Jesus do Oeste","parent_id":"3450387","long":-53.09669000000000238514985539950430393218994140625},"39":{"id":"6323080","label":"Bom Retiro","value":"6323080","lat":-27.760459999999998359498931677080690860748291015625,"lon":-49.61963999999999685996954212896525859832763671875,"poi_name":"Bom Retiro","parent_id":"3450387","long":-49.61963999999999685996954212896525859832763671875},"40":{"id":"6323076","label":"Bombinhas","value":"6323076","lat":-27.178760000000000474074113299138844013214111328125,"lon":-48.50195000000000078443918027915060520172119140625,"poi_name":"Bombinhas","parent_id":"3450387","long":-48.50195000000000078443918027915060520172119140625},"41":{"id":"6323081","label":"Botuver\u00e1","value":"6323081","lat":-27.2045600000000007412381819449365139007568359375,"lon":-49.111750000000000682121026329696178436279296875,"poi_name":"Botuver\u00e1","parent_id":"3450387","long":-49.111750000000000682121026329696178436279296875},"42":{"id":"6323082","label":"Bra\u00e7o do Norte","value":"6323082","lat":-28.24728999999999956571627990342676639556884765625,"lon":-49.12986000000000075260686571709811687469482421875,"poi_name":"Bra\u00e7o do Norte","parent_id":"3450387","long":-49.12986000000000075260686571709811687469482421875},"43":{"id":"6323083","label":"Bra\u00e7o do Trombudo","value":"6323083","lat":-27.378879999999998773319020983763039112091064453125,"lon":-49.91378999999999876990841585211455821990966796875,"poi_name":"Bra\u00e7o do Trombudo","parent_id":"3450387","long":-49.91378999999999876990841585211455821990966796875},"44":{"id":"6323084","label":"Brun\u00f3polis","value":"6323084","lat":-27.347809999999999064357325551100075244903564453125,"lon":-50.836309999999997444319888018071651458740234375,"poi_name":"Brun\u00f3polis","parent_id":"3450387","long":-50.836309999999997444319888018071651458740234375},"45":{"id":"6323085","label":"Brusque","value":"6323085","lat":-27.113389999999998991597749409265816211700439453125,"lon":-48.90393000000000256477505899965763092041015625,"poi_name":"Brusque","parent_id":"3450387","long":-48.90393000000000256477505899965763092041015625},"46":{"id":"6323087","label":"Caibi","value":"6323087","lat":-27.034220000000001249418346560560166835784912109375,"lon":-53.2784199999999970032149576582014560699462890625,"poi_name":"Caibi","parent_id":"3450387","long":-53.2784199999999970032149576582014560699462890625},"47":{"id":"6323088","label":"Calmon","value":"6323088","lat":-26.640370000000000771933628129772841930389404296875,"lon":-51.0243899999999968031261232681572437286376953125,"poi_name":"Calmon","parent_id":"3450387","long":-51.0243899999999968031261232681572437286376953125},"48":{"id":"6323089","label":"Cambori\u00fa","value":"6323089","lat":-27.0756200000000006866684998385608196258544921875,"lon":-48.7152999999999991587174008600413799285888671875,"poi_name":"Cambori\u00fa","parent_id":"3450387","long":-48.7152999999999991587174008600413799285888671875},"49":{"id":"6323091","label":"Campo Alegre","value":"6323091","lat":-26.085319999999999396322891698218882083892822265625,"lon":-49.1874600000000015143086784519255161285400390625,"poi_name":"Campo Alegre","parent_id":"3450387","long":-49.1874600000000015143086784519255161285400390625},"50":{"id":"6323092","label":"Campo Belo do Sul","value":"6323092","lat":-27.839400000000001256239556823857128620147705078125,"lon":-50.76583000000000112095221993513405323028564453125,"poi_name":"Campo Belo do Sul","parent_id":"3450387","long":-50.76583000000000112095221993513405323028564453125},"51":{"id":"6319128","label":"Campo Er\u00ea","value":"6319128","lat":-26.45833999999999974761522025801241397857666015625,"lon":-53.18256999999999834471964277327060699462890625,"poi_name":"Campo Er\u00ea","parent_id":"3450387","long":-53.18256999999999834471964277327060699462890625},"52":{"id":"6323093","label":"Campos Novos","value":"6323093","lat":-27.377240000000000463842297904193401336669921875,"lon":-51.24161000000000143472789204679429531097412109375,"poi_name":"Campos Novos","parent_id":"3450387","long":-51.24161000000000143472789204679429531097412109375},"53":{"id":"6323094","label":"Canelinha","value":"6323094","lat":-27.248740000000001515445546829141676425933837890625,"lon":-48.78781000000000034333424991928040981292724609375,"poi_name":"Canelinha","parent_id":"3450387","long":-48.78781000000000034333424991928040981292724609375},"54":{"id":"6323095","label":"Canoinhas","value":"6323095","lat":-26.248270000000001545004124636761844158172607421875,"lon":-50.5334399999999988040144671685993671417236328125,"poi_name":"Canoinhas","parent_id":"3450387","long":-50.5334399999999988040144671685993671417236328125},"55":{"id":"6323096","label":"Capinzal","value":"6323096","lat":-27.42972999999999927922544884495437145233154296875,"lon":-51.65706000000000130967237055301666259765625,"poi_name":"Capinzal","parent_id":"3450387","long":-51.65706000000000130967237055301666259765625},"56":{"id":"6323097","label":"Capivari de Baixo","value":"6323097","lat":-28.452369999999998384510035975836217403411865234375,"lon":-48.95364000000000004320099833421409130096435546875,"poi_name":"Capivari de Baixo","parent_id":"3450387","long":-48.95364000000000004320099833421409130096435546875},"57":{"id":"6323090","label":"Cap\u00e3o Alto","value":"6323090","lat":-28.06833999999999917918103164993226528167724609375,"lon":-50.62921000000000049112713895738124847412109375,"poi_name":"Cap\u00e3o Alto","parent_id":"3450387","long":-50.62921000000000049112713895738124847412109375},"58":{"id":"6323098","label":"Catanduvas","value":"6323098","lat":-27.0538999999999987267074175179004669189453125,"lon":-51.72395000000000209183781407773494720458984375,"poi_name":"Catanduvas","parent_id":"3450387","long":-51.72395000000000209183781407773494720458984375},"59":{"id":"6323099","label":"Caxambu do Sul","value":"6323099","lat":-27.1309499999999985675458447076380252838134765625,"lon":-52.9185599999999993769961292855441570281982421875,"poi_name":"Caxambu do Sul","parent_id":"3450387","long":-52.9185599999999993769961292855441570281982421875},"60":{"id":"6323086","label":"Ca\u00e7ador","value":"6323086","lat":-26.768339999999998468638295889832079410552978515625,"lon":-51.11966000000000320824256050400435924530029296875,"poi_name":"Ca\u00e7ador","parent_id":"3450387","long":-51.11966000000000320824256050400435924530029296875},"61":{"id":"6323100","label":"Celso Ramos","value":"6323100","lat":-27.638020000000000919726517167873680591583251953125,"lon":-51.32057999999999964302332955412566661834716796875,"poi_name":"Celso Ramos","parent_id":"3450387","long":-51.32057999999999964302332955412566661834716796875},"62":{"id":"6323101","label":"Cerro Negro","value":"6323101","lat":-27.7727000000000003865352482534945011138916015625,"lon":-50.94035000000000223963070311583578586578369140625,"poi_name":"Cerro Negro","parent_id":"3450387","long":-50.94035000000000223963070311583578586578369140625},"63":{"id":"6323102","label":"Chapad\u00e3o do Lageado","value":"6323102","lat":-27.584869999999998668727130279876291751861572265625,"lon":-49.55644000000000204408934223465621471405029296875,"poi_name":"Chapad\u00e3o do Lageado","parent_id":"3450387","long":-49.55644000000000204408934223465621471405029296875},"64":{"id":"6323103","label":"Chapec\u00f3","value":"6323103","lat":-27.119180000000000063664629124104976654052734375,"lon":-52.661529999999999063220457173883914947509765625,"poi_name":"Chapec\u00f3","parent_id":"3450387","long":-52.661529999999999063220457173883914947509765625},"65":{"id":"6323104","label":"Cocal do Sul","value":"6323104","lat":-28.5998799999999988585841492749750614166259765625,"lon":-49.32582000000000022055246517993509769439697265625,"poi_name":"Cocal do Sul","parent_id":"3450387","long":-49.32582000000000022055246517993509769439697265625},"66":{"id":"3465719","label":"Conc\u00f3rdia","value":"3465719","lat":-27.2293599999999997862687450833618640899658203125,"lon":-52.00106000000000250338416662998497486114501953125,"poi_name":"Conc\u00f3rdia","parent_id":"3450387","long":-52.00106000000000250338416662998497486114501953125},"67":{"id":"6323105","label":"Cordilheira Alta","value":"6323105","lat":-26.975539999999998741486706421710550785064697265625,"lon":-52.633049999999997226041159592568874359130859375,"poi_name":"Cordilheira Alta","parent_id":"3450387","long":-52.633049999999997226041159592568874359130859375},"68":{"id":"6323106","label":"Coronel Freitas","value":"6323106","lat":-26.894310000000000826503310236148536205291748046875,"lon":-52.7632899999999978035702952183783054351806640625,"poi_name":"Coronel Freitas","parent_id":"3450387","long":-52.7632899999999978035702952183783054351806640625},"69":{"id":"6323107","label":"Coronel Martins","value":"6323107","lat":-26.547730000000001382431946694850921630859375,"lon":-52.67392000000000251702658715657889842987060546875,"poi_name":"Coronel Martins","parent_id":"3450387","long":-52.67392000000000251702658715657889842987060546875},"70":{"id":"6319129","label":"Correia Pinto","value":"6319129","lat":-27.597190000000001219859768752939999103546142578125,"lon":-50.37857999999999947249307297170162200927734375,"poi_name":"Correia Pinto","parent_id":"3450387","long":-50.37857999999999947249307297170162200927734375},"71":{"id":"6323108","label":"Corup\u00e1","value":"6323108","lat":-26.42372999999999905185177340172231197357177734375,"lon":-49.31784999999999996589394868351519107818603515625,"poi_name":"Corup\u00e1","parent_id":"3450387","long":-49.31784999999999996589394868351519107818603515625},"72":{"id":"6319130","label":"Crici\u00fama","value":"6319130","lat":-28.720960000000001599573806743137538433074951171875,"lon":-49.38721000000000316276782541535794734954833984375,"poi_name":"Crici\u00fama","parent_id":"3450387","long":-49.38721000000000316276782541535794734954833984375},"73":{"id":"6323109","label":"Cunha Por\u00e3","value":"6323109","lat":-26.866119999999998668727130279876291751861572265625,"lon":-53.2102000000000003865352482534945011138916015625,"poi_name":"Cunha Por\u00e3","parent_id":"3450387","long":-53.2102000000000003865352482534945011138916015625},"74":{"id":"6323110","label":"Cunhata\u00ed","value":"6323110","lat":-26.977419999999998623252395191229879856109619140625,"lon":-53.1078499999999991132426657713949680328369140625,"poi_name":"Cunhata\u00ed","parent_id":"3450387","long":-53.1078499999999991132426657713949680328369140625},"75":{"id":"6323111","label":"Curitibanos","value":"6323111","lat":-27.274139999999999162128005991689860820770263671875,"lon":-50.60961999999999960664354148320853710174560546875,"poi_name":"Curitibanos","parent_id":"3450387","long":-50.60961999999999960664354148320853710174560546875},"76":{"id":"6323112","label":"Descanso","value":"6323112","lat":-26.873840000000001282387529499828815460205078125,"lon":-53.484149999999999636202119290828704833984375,"poi_name":"Descanso","parent_id":"3450387","long":-53.484149999999999636202119290828704833984375},"77":{"id":"6323113","label":"Dion\u00edsio Cerqueira","value":"6323113","lat":-26.333400000000001028865881380625069141387939453125,"lon":-53.534030000000001336957211606204509735107421875,"poi_name":"Dion\u00edsio Cerqueira","parent_id":"3450387","long":-53.534030000000001336957211606204509735107421875},"78":{"id":"6323114","label":"Dona Emma","value":"6323114","lat":-26.9769399999999990313881426118314266204833984375,"lon":-49.8107600000000019235812942497432231903076171875,"poi_name":"Dona Emma","parent_id":"3450387","long":-49.8107600000000019235812942497432231903076171875},"79":{"id":"6323115","label":"Doutor Pedrinho","value":"6323115","lat":-26.711420000000000385398379876278340816497802734375,"lon":-49.55827000000000026602720026858150959014892578125,"poi_name":"Doutor Pedrinho","parent_id":"3450387","long":-49.55827000000000026602720026858150959014892578125},"80":{"id":"6323116","label":"Entre Rios","value":"6323116","lat":-26.73140000000000071622707764618098735809326171875,"lon":-52.59696999999999889041646383702754974365234375,"poi_name":"Entre Rios","parent_id":"3450387","long":-52.59696999999999889041646383702754974365234375},"81":{"id":"6323117","label":"Ermo","value":"6323117","lat":-28.974399999999999266719896695576608180999755859375,"lon":-49.6493999999999999772626324556767940521240234375,"poi_name":"Ermo","parent_id":"3450387","long":-49.6493999999999999772626324556767940521240234375},"82":{"id":"6323118","label":"Erval Velho","value":"6323118","lat":-27.29026999999999958390617393888533115386962890625,"lon":-51.38647999999999882447809795849025249481201171875,"poi_name":"Erval Velho","parent_id":"3450387","long":-51.38647999999999882447809795849025249481201171875},"83":{"id":"6323119","label":"Faxinal dos Guedes","value":"6323119","lat":-26.83149999999999835154085303656756877899169921875,"lon":-52.2621400000000022600943339057266712188720703125,"poi_name":"Faxinal dos Guedes","parent_id":"3450387","long":-52.2621400000000022600943339057266712188720703125},"84":{"id":"6323120","label":"Flor do Sert\u00e3o","value":"6323120","lat":-26.75638000000000005229594535194337368011474609375,"lon":-53.33675000000000210320649784989655017852783203125,"poi_name":"Flor do Sert\u00e3o","parent_id":"3450387","long":-53.33675000000000210320649784989655017852783203125},"85":{"id":"6323121","label":"Florian\u00f3polis","value":"6323121","lat":-27.61455000000000126192389870993793010711669921875,"lon":-48.501159999999998717612470500171184539794921875,"poi_name":"Florian\u00f3polis","parent_id":"3450387","long":-48.501159999999998717612470500171184539794921875},"86":{"id":"6323122","label":"Formosa do Sul","value":"6323122","lat":-26.646969999999999600959199597127735614776611328125,"lon":-52.804270000000002482920535840094089508056640625,"poi_name":"Formosa do Sul","parent_id":"3450387","long":-52.804270000000002482920535840094089508056640625},"87":{"id":"6323123","label":"Forquilhinha","value":"6323123","lat":-28.786049999999999471356204594485461711883544921875,"lon":-49.46703999999999723513610661029815673828125,"poi_name":"Forquilhinha","parent_id":"3450387","long":-49.46703999999999723513610661029815673828125},"88":{"id":"6323124","label":"Fraiburgo","value":"6323124","lat":-27.047899999999998499333742074668407440185546875,"lon":-50.80693999999999732608557678759098052978515625,"poi_name":"Fraiburgo","parent_id":"3450387","long":-50.80693999999999732608557678759098052978515625},"89":{"id":"6323125","label":"Frei Rog\u00e9rio","value":"6323125","lat":-27.21782999999999930196281638927757740020751953125,"lon":-50.77022000000000190311766345985233783721923828125,"poi_name":"Frei Rog\u00e9rio","parent_id":"3450387","long":-50.77022000000000190311766345985233783721923828125},"90":{"id":"6323126","label":"Galv\u00e3o","value":"6323126","lat":-26.458819999999999339479472837410867214202880859375,"lon":-52.685349999999999681676854379475116729736328125,"poi_name":"Galv\u00e3o","parent_id":"3450387","long":-52.685349999999999681676854379475116729736328125},"91":{"id":"6323127","label":"Garopaba","value":"6323127","lat":-28.0274399999999985766407917253673076629638671875,"lon":-48.61449999999999960209606797434389591217041015625,"poi_name":"Garopaba","parent_id":"3450387","long":-48.61449999999999960209606797434389591217041015625},"92":{"id":"6323128","label":"Garuva","value":"6323128","lat":-26.060469999999998691464497824199497699737548828125,"lon":-48.87082000000000192585503100417554378509521484375,"poi_name":"Garuva","parent_id":"3450387","long":-48.87082000000000192585503100417554378509521484375},"93":{"id":"6323129","label":"Gaspar","value":"6323129","lat":-26.924009999999999109832060639746487140655517578125,"lon":-48.98259999999999791953086969442665576934814453125,"poi_name":"Gaspar","parent_id":"3450387","long":-48.98259999999999791953086969442665576934814453125},"94":{"id":"6323130","label":"Governador Celso Ramos","value":"6323130","lat":-27.372009999999999507735992665402591228485107421875,"lon":-48.57907999999999759666025056503713130950927734375,"poi_name":"Governador Celso Ramos","parent_id":"3450387","long":-48.57907999999999759666025056503713130950927734375},"95":{"id":"6323132","label":"Gravatal","value":"6323132","lat":-28.31533999999999906549419392831623554229736328125,"lon":-49.043509999999997717168298549950122833251953125,"poi_name":"Gravatal","parent_id":"3450387","long":-49.043509999999997717168298549950122833251953125},"96":{"id":"6323131","label":"Gr\u00e3o Par\u00e1","value":"6323131","lat":-28.135799999999999698729880037717521190643310546875,"lon":-49.3161199999999979581843945197761058807373046875,"poi_name":"Gr\u00e3o Par\u00e1","parent_id":"3450387","long":-49.3161199999999979581843945197761058807373046875},"97":{"id":"6323133","label":"Guabiruba","value":"6323133","lat":-27.111889999999998934754330548457801342010498046875,"lon":-49.02215000000000344471118296496570110321044921875,"poi_name":"Guabiruba","parent_id":"3450387","long":-49.02215000000000344471118296496570110321044921875},"98":{"id":"6323134","label":"Guaraciaba","value":"6323134","lat":-26.573859999999999814690454513765871524810791015625,"lon":-53.597859999999997171471477486193180084228515625,"poi_name":"Guaraciaba","parent_id":"3450387","long":-53.597859999999997171471477486193180084228515625},"99":{"id":"6323135","label":"Guaramirim","value":"6323135","lat":-26.460719999999998464090822380967438220977783203125,"lon":-48.93712000000000017507773009128868579864501953125,"poi_name":"Guaramirim","parent_id":"3450387","long":-48.93712000000000017507773009128868579864501953125}}