{"success":true,"remaining_lookups":9763,"0":{"id":"6323718","label":"Alcin\u00f3polis","value":"6323718","lat":-18.199549999999998561861502821557223796844482421875,"lon":-53.758139999999997371560311876237392425537109375,"poi_name":"Alcin\u00f3polis","parent_id":"3457415","long":-53.758139999999997371560311876237392425537109375},"1":{"id":"6323719","label":"Amamba\u00ed","value":"6323719","lat":-23.1270999999999986584953148849308490753173828125,"lon":-54.95790000000000219415596802718937397003173828125,"poi_name":"Amamba\u00ed","parent_id":"3457415","long":-54.95790000000000219415596802718937397003173828125},"2":{"id":"6323720","label":"Anast\u00e1cio","value":"6323720","lat":-20.76268999999999920191839919425547122955322265625,"lon":-55.7305199999999985038812155835330486297607421875,"poi_name":"Anast\u00e1cio","parent_id":"3457415","long":-55.7305199999999985038812155835330486297607421875},"3":{"id":"6323721","label":"Anauril\u00e2ndia","value":"6323721","lat":-22.14198999999999983856469043530523777008056640625,"lon":-52.72010999999999825149643584154546260833740234375,"poi_name":"Anauril\u00e2ndia","parent_id":"3457415","long":-52.72010999999999825149643584154546260833740234375},"4":{"id":"6323722","label":"Ang\u00e9lica","value":"6323722","lat":-22.0277999999999991587174008600413799285888671875,"lon":-53.866680000000002337401383556425571441650390625,"poi_name":"Ang\u00e9lica","parent_id":"3457415","long":-53.866680000000002337401383556425571441650390625},"5":{"id":"6323723","label":"Ant\u00f4nio Jo\u00e3o","value":"6323723","lat":-22.201139999999998764224073966033756732940673828125,"lon":-55.9389699999999976398612488992512226104736328125,"poi_name":"Ant\u00f4nio Jo\u00e3o","parent_id":"3457415","long":-55.9389699999999976398612488992512226104736328125},"6":{"id":"6323724","label":"Aparecida do Taboado","value":"6323724","lat":-20.0090900000000004865796654485166072845458984375,"lon":-51.34631999999999862893673707731068134307861328125,"poi_name":"Aparecida do Taboado","parent_id":"3457415","long":-51.34631999999999862893673707731068134307861328125},"7":{"id":"6323725","label":"Aquidauana","value":"6323725","lat":-20.457899999999998641442289226688444614410400390625,"lon":-55.83800999999999703504727222025394439697265625,"poi_name":"Aquidauana","parent_id":"3457415","long":-55.83800999999999703504727222025394439697265625},"8":{"id":"6323726","label":"Aral Moreira","value":"6323726","lat":-22.909459999999999268993633450008928775787353515625,"lon":-55.37006999999999834471964277327060699462890625,"poi_name":"Aral Moreira","parent_id":"3457415","long":-55.37006999999999834471964277327060699462890625},"9":{"id":"6323727","label":"Bandeirantes","value":"6323727","lat":-19.80863000000000084810380940325558185577392578125,"lon":-54.330950000000001409716787748038768768310546875,"poi_name":"Bandeirantes","parent_id":"3457415","long":-54.330950000000001409716787748038768768310546875},"10":{"id":"6323728","label":"Bataguassu","value":"6323728","lat":-21.7854999999999989768184605054557323455810546875,"lon":-52.5654200000000031423041946254670619964599609375,"poi_name":"Bataguassu","parent_id":"3457415","long":-52.5654200000000031423041946254670619964599609375},"11":{"id":"6323729","label":"Bataypor\u00e3","value":"6323729","lat":-22.464960000000001372200131299905478954315185546875,"lon":-53.17683000000000248519427259452641010284423828125,"poi_name":"Bataypor\u00e3","parent_id":"3457415","long":-53.17683000000000248519427259452641010284423828125},"12":{"id":"6323730","label":"Bela Vista","value":"6323730","lat":-22.040620000000000544559952686540782451629638671875,"lon":-56.50822000000000144837031257338821887969970703125,"poi_name":"Bela Vista","parent_id":"3457415","long":-56.50822000000000144837031257338821887969970703125},"13":{"id":"6323731","label":"Bodoquena","value":"6323731","lat":-20.482260000000000133013600134290754795074462890625,"lon":-56.65892999999999801730155013501644134521484375,"poi_name":"Bodoquena","parent_id":"3457415","long":-56.65892999999999801730155013501644134521484375},"14":{"id":"6323732","label":"Bonito","value":"6323732","lat":-20.910430000000001626858647796325385570526123046875,"lon":-56.3385999999999995679900166578590869903564453125,"poi_name":"Bonito","parent_id":"3457415","long":-56.3385999999999995679900166578590869903564453125},"15":{"id":"6323733","label":"Brasil\u00e2ndia","value":"6323733","lat":-21.119930000000000092086338554508984088897705078125,"lon":-52.43829000000000206682670977897942066192626953125,"poi_name":"Brasil\u00e2ndia","parent_id":"3457415","long":-52.43829000000000206682670977897942066192626953125},"16":{"id":"6323734","label":"Caarap\u00f3","value":"6323734","lat":-22.610410000000001673470251262187957763671875,"lon":-54.8316200000000009140421752817928791046142578125,"poi_name":"Caarap\u00f3","parent_id":"3457415","long":-54.8316200000000009140421752817928791046142578125},"17":{"id":"6323735","label":"Camapu\u00e3","value":"6323735","lat":-19.05769000000000090722096501849591732025146484375,"lon":-53.857810000000000627551344223320484161376953125,"poi_name":"Camapu\u00e3","parent_id":"3457415","long":-53.857810000000000627551344223320484161376953125},"18":{"id":"6323736","label":"Campo Grande","value":"6323736","lat":-20.387969999999999259898686432279646396636962890625,"lon":-54.667969999999996844053384847939014434814453125,"poi_name":"Campo Grande","parent_id":"3457415","long":-54.667969999999996844053384847939014434814453125},"19":{"id":"6323737","label":"Caracol","value":"6323737","lat":-21.96712000000000131194610730744898319244384765625,"lon":-57.12671999999999883357304497621953487396240234375,"poi_name":"Caracol","parent_id":"3457415","long":-57.12671999999999883357304497621953487396240234375},"20":{"id":"6323738","label":"Cassil\u00e2ndia","value":"6323738","lat":-19.06105000000000160298441187478601932525634765625,"lon":-52.1107999999999975671016727574169635772705078125,"poi_name":"Cassil\u00e2ndia","parent_id":"3457415","long":-52.1107999999999975671016727574169635772705078125},"21":{"id":"6323739","label":"Chapad\u00e3o do Sul","value":"6323739","lat":-19.06696000000000168483893503434956073760986328125,"lon":-52.7405600000000021054802346043288707733154296875,"poi_name":"Chapad\u00e3o do Sul","parent_id":"3457415","long":-52.7405600000000021054802346043288707733154296875},"22":{"id":"6323740","label":"Corguinho","value":"6323740","lat":-19.81860999999999961573848850093781948089599609375,"lon":-55.00198999999999927013050182722508907318115234375,"poi_name":"Corguinho","parent_id":"3457415","long":-55.00198999999999927013050182722508907318115234375},"23":{"id":"6323741","label":"Coronel Sapucaia","value":"6323741","lat":-23.33758999999999872443368076346814632415771484375,"lon":-55.38898999999999972487785271368920803070068359375,"poi_name":"Coronel Sapucaia","parent_id":"3457415","long":-55.38898999999999972487785271368920803070068359375},"24":{"id":"6323742","label":"Corumb\u00e1","value":"6323742","lat":-18.647549999999998959765434847213327884674072265625,"lon":-56.82104000000000354475560015998780727386474609375,"poi_name":"Corumb\u00e1","parent_id":"3457415","long":-56.82104000000000354475560015998780727386474609375},"25":{"id":"6323743","label":"Costa Rica","value":"6323743","lat":-18.637389999999999901092451182194054126739501953125,"lon":-53.27360999999999791043592267669737339019775390625,"poi_name":"Costa Rica","parent_id":"3457415","long":-53.27360999999999791043592267669737339019775390625},"26":{"id":"6323744","label":"Coxim","value":"6323744","lat":-18.2126200000000011414158507250249385833740234375,"lon":-54.716949999999997089616954326629638671875,"poi_name":"Coxim","parent_id":"3457415","long":-54.716949999999997089616954326629638671875},"27":{"id":"6323745","label":"Deod\u00e1polis","value":"6323745","lat":-22.080400000000000915179043659009039402008056640625,"lon":-54.2032200000000017325874068774282932281494140625,"poi_name":"Deod\u00e1polis","parent_id":"3457415","long":-54.2032200000000017325874068774282932281494140625},"28":{"id":"6323746","label":"Dois Irm\u00e3os do Buriti","value":"6323746","lat":-20.571889999999999787405613460578024387359619140625,"lon":-55.36838999999999799683791934512555599212646484375,"poi_name":"Dois Irm\u00e3os do Buriti","parent_id":"3457415","long":-55.36838999999999799683791934512555599212646484375},"29":{"id":"6323747","label":"Douradina","value":"6323747","lat":-21.98525000000000062527760746888816356658935546875,"lon":-54.58144999999999669171302230097353458404541015625,"poi_name":"Douradina","parent_id":"3457415","long":-54.58144999999999669171302230097353458404541015625},"30":{"id":"6323748","label":"Dourados","value":"6323748","lat":-22.162639999999999673718775738961994647979736328125,"lon":-54.540829999999999699866748414933681488037109375,"poi_name":"Dourados","parent_id":"3457415","long":-54.540829999999999699866748414933681488037109375},"31":{"id":"6323749","label":"Eldorado","value":"6323749","lat":-23.77956999999999965211827657185494899749755859375,"lon":-54.21571999999999746933099231682717800140380859375,"poi_name":"Eldorado","parent_id":"3457415","long":-54.21571999999999746933099231682717800140380859375},"32":{"id":"6317140","label":"Figueir\u00e3o","value":"6317140","lat":-18.675000000000000710542735760100185871124267578125,"lon":-53.6424999999999982946974341757595539093017578125,"poi_name":"Figueir\u00e3o","parent_id":"3457415","long":-53.6424999999999982946974341757595539093017578125},"33":{"id":"6323750","label":"F\u00e1tima do Sul","value":"6323750","lat":-22.3442399999999992132870829664170742034912109375,"lon":-54.37064000000000163481672643683850765228271484375,"poi_name":"F\u00e1tima do Sul","parent_id":"3457415","long":-54.37064000000000163481672643683850765228271484375},"34":{"id":"6323751","label":"Gl\u00f3ria de Dourados","value":"6323751","lat":-22.483879999999999199644662439823150634765625,"lon":-54.09006000000000113914211397059261798858642578125,"poi_name":"Gl\u00f3ria de Dourados","parent_id":"3457415","long":-54.09006000000000113914211397059261798858642578125},"35":{"id":"6323752","label":"Guia Lopes da Laguna","value":"6323752","lat":-21.6108100000000007412381819449365139007568359375,"lon":-55.9345799999999968576958053745329380035400390625,"poi_name":"Guia Lopes da Laguna","parent_id":"3457415","long":-55.9345799999999968576958053745329380035400390625},"36":{"id":"6323753","label":"Iguatemi","value":"6323753","lat":-23.425959999999999894271240918897092342376708984375,"lon":-54.55843999999999738292899564839899539947509765625,"poi_name":"Iguatemi","parent_id":"3457415","long":-54.55843999999999738292899564839899539947509765625},"37":{"id":"6323754","label":"Inoc\u00eancia","value":"6323754","lat":-19.67150000000000176214598468504846096038818359375,"lon":-52.0439300000000031332092476077377796173095703125,"poi_name":"Inoc\u00eancia","parent_id":"3457415","long":-52.0439300000000031332092476077377796173095703125},"38":{"id":"6323755","label":"Itapor\u00e3","value":"6323755","lat":-21.921839999999999548663254245184361934661865234375,"lon":-54.81409000000000020236257114447653293609619140625,"poi_name":"Itapor\u00e3","parent_id":"3457415","long":-54.81409000000000020236257114447653293609619140625},"39":{"id":"6323756","label":"Itaquira\u00ed","value":"6323756","lat":-23.470800000000000551381162949837744235992431640625,"lon":-54.19281000000000148020262713544070720672607421875,"poi_name":"Itaquira\u00ed","parent_id":"3457415","long":-54.19281000000000148020262713544070720672607421875},"40":{"id":"6323757","label":"Ivinhema","value":"6323757","lat":-22.380759999999998655084709753282368183135986328125,"lon":-53.75565000000000281943357549607753753662109375,"poi_name":"Ivinhema","parent_id":"3457415","long":-53.75565000000000281943357549607753753662109375},"41":{"id":"6323758","label":"Japor\u00e3","value":"6323758","lat":-23.7941000000000002501110429875552654266357421875,"lon":-54.5440200000000032787283998914062976837158203125,"poi_name":"Japor\u00e3","parent_id":"3457415","long":-54.5440200000000032787283998914062976837158203125},"42":{"id":"6323759","label":"Jaraguari","value":"6323759","lat":-20.2723799999999982901499606668949127197265625,"lon":-54.2374300000000033605829230509698390960693359375,"poi_name":"Jaraguari","parent_id":"3457415","long":-54.2374300000000033605829230509698390960693359375},"43":{"id":"6324263","label":"Jardim","value":"6324263","lat":-21.6450999999999993406163412146270275115966796875,"lon":-56.23508000000000350837581208907067775726318359375,"poi_name":"Jardim","parent_id":"3457415","long":-56.23508000000000350837581208907067775726318359375},"44":{"id":"6323760","label":"Jate\u00ed","value":"6323760","lat":-22.739889999999999048441168270073831081390380859375,"lon":-53.8149599999999992405719240196049213409423828125,"poi_name":"Jate\u00ed","parent_id":"3457415","long":-53.8149599999999992405719240196049213409423828125},"45":{"id":"6323761","label":"Juti","value":"6323761","lat":-22.8535600000000016507328837178647518157958984375,"lon":-54.52154999999999773763192933984100818634033203125,"poi_name":"Juti","parent_id":"3457415","long":-54.52154999999999773763192933984100818634033203125},"46":{"id":"6323762","label":"Lad\u00e1rio","value":"6323762","lat":-19.10504999999999853343979339115321636199951171875,"lon":-57.5841599999999971259967423975467681884765625,"poi_name":"Lad\u00e1rio","parent_id":"3457415","long":-57.5841599999999971259967423975467681884765625},"47":{"id":"6323763","label":"Laguna Carap\u00e3","value":"6323763","lat":-22.710429999999998784687704755924642086029052734375,"lon":-55.08247999999999677811501896940171718597412109375,"poi_name":"Laguna Carap\u00e3","parent_id":"3457415","long":-55.08247999999999677811501896940171718597412109375},"48":{"id":"6323764","label":"Maracaju","value":"6323764","lat":-21.424980000000001467697074986062943935394287109375,"lon":-55.54578000000000059799276641570031642913818359375,"poi_name":"Maracaju","parent_id":"3457415","long":-55.54578000000000059799276641570031642913818359375},"49":{"id":"6323765","label":"Miranda","value":"6323765","lat":-20.208870000000000999307303573004901409149169921875,"lon":-56.5261899999999997135091689415276050567626953125,"poi_name":"Miranda","parent_id":"3457415","long":-56.5261899999999997135091689415276050567626953125},"50":{"id":"6323766","label":"Mundo Novo","value":"6323766","lat":-23.92627999999999843794284970499575138092041015625,"lon":-54.25746000000000179852577275596559047698974609375,"poi_name":"Mundo Novo","parent_id":"3457415","long":-54.25746000000000179852577275596559047698974609375},"51":{"id":"6323767","label":"Navira\u00ed","value":"6323767","lat":-23.107450000000000045474735088646411895751953125,"lon":-54.031059999999996534825186245143413543701171875,"poi_name":"Navira\u00ed","parent_id":"3457415","long":-54.031059999999996534825186245143413543701171875},"52":{"id":"6323768","label":"Nioaque","value":"6323768","lat":-21.181509999999999394049154943786561489105224609375,"lon":-55.7585600000000027876012609340250492095947265625,"poi_name":"Nioaque","parent_id":"3457415","long":-55.7585600000000027876012609340250492095947265625},"53":{"id":"6323769","label":"Nova Alvorada do Sul","value":"6323769","lat":-21.4807899999999989404386724345386028289794921875,"lon":-54.15259999999999962483343551866710186004638671875,"poi_name":"Nova Alvorada do Sul","parent_id":"3457415","long":-54.15259999999999962483343551866710186004638671875},"54":{"id":"6323770","label":"Nova Andradina","value":"6323770","lat":-21.88204999999999955662133288569748401641845703125,"lon":-53.4663699999999977308107190765440464019775390625,"poi_name":"Nova Andradina","parent_id":"3457415","long":-53.4663699999999977308107190765440464019775390625},"55":{"id":"6323771","label":"Novo Horizonte do Sul","value":"6323771","lat":-22.630680000000001683702066657133400440216064453125,"lon":-53.7364299999999985857357387430965900421142578125,"poi_name":"Novo Horizonte do Sul","parent_id":"3457415","long":-53.7364299999999985857357387430965900421142578125},"56":{"id":"6323772","label":"Parana\u00edba","value":"6323772","lat":-19.525999999999999801048033987171947956085205078125,"lon":-51.3983300000000014051693142391741275787353515625,"poi_name":"Parana\u00edba","parent_id":"3457415","long":-51.3983300000000014051693142391741275787353515625},"57":{"id":"6323773","label":"Paranhos","value":"6323773","lat":-23.721740000000000492264007334597408771514892578125,"lon":-55.35446999999999917463355814106762409210205078125,"poi_name":"Paranhos","parent_id":"3457415","long":-55.35446999999999917463355814106762409210205078125},"58":{"id":"8581577","label":"Para\u00edso das \u00c1guas","value":"8581577","lat":-19.227289999999999992041921359486877918243408203125,"lon":-53.13065000000000281943357549607753753662109375,"poi_name":"Para\u00edso das \u00c1guas","parent_id":"3457415","long":-53.13065000000000281943357549607753753662109375},"59":{"id":"6323774","label":"Pedro Gomes","value":"6323774","lat":-17.83881999999999834471964277327060699462890625,"lon":-54.1294299999999992678567650727927684783935546875,"poi_name":"Pedro Gomes","parent_id":"3457415","long":-54.1294299999999992678567650727927684783935546875},"60":{"id":"6323775","label":"Ponta Por\u00e3","value":"6323775","lat":-22.016020000000001033413354889489710330963134765625,"lon":-55.7268499999999988858689903281629085540771484375,"poi_name":"Ponta Por\u00e3","parent_id":"3457415","long":-55.7268499999999988858689903281629085540771484375},"61":{"id":"6323776","label":"Porto Murtinho","value":"6323776","lat":-21.2994699999999994588506524451076984405517578125,"lon":-57.34311999999999898136593401432037353515625,"poi_name":"Porto Murtinho","parent_id":"3457415","long":-57.34311999999999898136593401432037353515625},"62":{"id":"6323777","label":"Ribas do Rio Pardo","value":"6323777","lat":-20.69950000000000045474735088646411895751953125,"lon":-53.57563999999999992951416061259806156158447265625,"poi_name":"Ribas do Rio Pardo","parent_id":"3457415","long":-53.57563999999999992951416061259806156158447265625},"63":{"id":"6323778","label":"Rio Brilhante","value":"6323778","lat":-21.775349999999999539568307227455079555511474609375,"lon":-54.45906000000000091176843852736055850982666015625,"poi_name":"Rio Brilhante","parent_id":"3457415","long":-54.45906000000000091176843852736055850982666015625},"64":{"id":"6323779","label":"Rio Negro","value":"6323779","lat":-19.446200000000001040234565152786672115325927734375,"lon":-54.97946999999999917463355814106762409210205078125,"poi_name":"Rio Negro","parent_id":"3457415","long":-54.97946999999999917463355814106762409210205078125},"65":{"id":"6323780","label":"Rio Verde de Mato Grosso","value":"6323780","lat":-18.867219999999999657802618457935750484466552734375,"lon":-54.914659999999997808117768727242946624755859375,"poi_name":"Rio Verde de Mato Grosso","parent_id":"3457415","long":-54.914659999999997808117768727242946624755859375},"66":{"id":"6323781","label":"Rochedo","value":"6323781","lat":-19.987989999999999923829818726517260074615478515625,"lon":-54.7818400000000025329427444376051425933837890625,"poi_name":"Rochedo","parent_id":"3457415","long":-54.7818400000000025329427444376051425933837890625},"67":{"id":"6323782","label":"Santa Rita do Pardo","value":"6323782","lat":-21.35479000000000127101884572766721248626708984375,"lon":-52.69315000000000281943357549607753753662109375,"poi_name":"Santa Rita do Pardo","parent_id":"3457415","long":-52.69315000000000281943357549607753753662109375},"68":{"id":"6323785","label":"Selv\u00edria","value":"6323785","lat":-20.24958000000000168938640854321420192718505859375,"lon":-51.832279999999997244231053628027439117431640625,"poi_name":"Selv\u00edria","parent_id":"3457415","long":-51.832279999999997244231053628027439117431640625},"69":{"id":"6323784","label":"Sete Quedas","value":"6323784","lat":-23.88065999999999888814272708259522914886474609375,"lon":-55.0272700000000014597389963455498218536376953125,"poi_name":"Sete Quedas","parent_id":"3457415","long":-55.0272700000000014597389963455498218536376953125},"70":{"id":"6324215","label":"Sidrol\u00e2ndia","value":"6324215","lat":-21.02035000000000053432813729159533977508544921875,"lon":-54.99000000000000198951966012828052043914794921875,"poi_name":"Sidrol\u00e2ndia","parent_id":"3457415","long":-54.99000000000000198951966012828052043914794921875},"71":{"id":"6323786","label":"Sonora","value":"6323786","lat":-17.674029999999998352677721413783729076385498046875,"lon":-54.453260000000000218278728425502777099609375,"poi_name":"Sonora","parent_id":"3457415","long":-54.453260000000000218278728425502777099609375},"72":{"id":"6323783","label":"S\u00e3o Gabriel do Oeste","value":"6323783","lat":-19.131699999999998595967554138042032718658447265625,"lon":-54.4486500000000006593836587853729724884033203125,"poi_name":"S\u00e3o Gabriel do Oeste","parent_id":"3457415","long":-54.4486500000000006593836587853729724884033203125},"73":{"id":"6323787","label":"Tacuru","value":"6323787","lat":-23.687219999999999942019712761975824832916259765625,"lon":-54.910989999999998190105543471872806549072265625,"poi_name":"Tacuru","parent_id":"3457415","long":-54.910989999999998190105543471872806549072265625},"74":{"id":"6323788","label":"Taquarussu","value":"6323788","lat":-22.734190000000001674607119639404118061065673828125,"lon":-53.48002000000000322188498103059828281402587890625,"poi_name":"Taquarussu","parent_id":"3457415","long":-53.48002000000000322188498103059828281402587890625},"75":{"id":"6323789","label":"Terenos","value":"6323789","lat":-20.420680000000000831050783745013177394866943359375,"lon":-55.10602000000000089130480773746967315673828125,"poi_name":"Terenos","parent_id":"3457415","long":-55.10602000000000089130480773746967315673828125},"76":{"id":"6323790","label":"Tr\u00eas Lagoas","value":"6323790","lat":-20.379639999999998423163560801185667514801025390625,"lon":-52.25961000000000211684891837649047374725341796875,"poi_name":"Tr\u00eas Lagoas","parent_id":"3457415","long":-52.25961000000000211684891837649047374725341796875},"77":{"id":"6323791","label":"Vicentina","value":"6323791","lat":-22.491550000000000153477230924181640148162841796875,"lon":-54.46182999999999907458914094604551792144775390625,"poi_name":"Vicentina","parent_id":"3457415","long":-54.46182999999999907458914094604551792144775390625},"78":{"id":"6323717","label":"\u00c1gua Clara","value":"6323717","lat":-19.897870000000001056150722433812916278839111328125,"lon":-52.9508900000000011232259566895663738250732421875,"poi_name":"\u00c1gua Clara","parent_id":"3457415","long":-52.9508900000000011232259566895663738250732421875}}