{"success":true,"remaining_lookups":9766,"0":{"id":"6323890","label":"Abadia de Goi\u00e1s","value":"6323890","lat":-16.7776199999999988676790962927043437957763671875,"lon":-49.46840999999999866076905163936316967010498046875,"poi_name":"Abadia de Goi\u00e1s","parent_id":"3462372","long":-49.46840999999999866076905163936316967010498046875},"1":{"id":"6323891","label":"Abadi\u00e2nia","value":"6323891","lat":-16.2263200000000011868905858136713504791259765625,"lon":-48.62680999999999897909219725988805294036865234375,"poi_name":"Abadi\u00e2nia","parent_id":"3462372","long":-48.62680999999999897909219725988805294036865234375},"2":{"id":"6323892","label":"Acre\u00fana","value":"6323892","lat":-17.43605000000000160298441187478601932525634765625,"lon":-50.2669599999999974215825204737484455108642578125,"poi_name":"Acre\u00fana","parent_id":"3462372","long":-50.2669599999999974215825204737484455108642578125},"3":{"id":"6323893","label":"Adel\u00e2ndia","value":"6323893","lat":-16.38577000000000083446138887666165828704833984375,"lon":-50.18845999999999918372850515879690647125244140625,"poi_name":"Adel\u00e2ndia","parent_id":"3462372","long":-50.18845999999999918372850515879690647125244140625},"4":{"id":"6323896","label":"Alex\u00e2nia","value":"6323896","lat":-16.149260000000001724629328236915171146392822265625,"lon":-48.45973000000000041609382606111466884613037109375,"poi_name":"Alex\u00e2nia","parent_id":"3462372","long":-48.45973000000000041609382606111466884613037109375},"5":{"id":"6323897","label":"Alo\u00e2ndia","value":"6323897","lat":-17.694109999999998450448401854373514652252197265625,"lon":-49.449849999999997862687450833618640899658203125,"poi_name":"Alo\u00e2ndia","parent_id":"3462372","long":-49.449849999999997862687450833618640899658203125},"6":{"id":"6323898","label":"Alto Horizonte","value":"6323898","lat":-14.2023600000000005394440449890680611133575439453125,"lon":-49.43500000000000227373675443232059478759765625,"poi_name":"Alto Horizonte","parent_id":"3462372","long":-49.43500000000000227373675443232059478759765625},"7":{"id":"6319149","label":"Alto Para\u00edso de Goi\u00e1s","value":"6319149","lat":-14.181979999999999364490577136166393756866455078125,"lon":-47.45902000000000242607711697928607463836669921875,"poi_name":"Alto Para\u00edso de Goi\u00e1s","parent_id":"3462372","long":-47.45902000000000242607711697928607463836669921875},"8":{"id":"6323899","label":"Alvorada do Norte","value":"6323899","lat":-14.5242400000000007054268280626274645328521728515625,"lon":-46.64133000000000350837581208907067775726318359375,"poi_name":"Alvorada do Norte","parent_id":"3462372","long":-46.64133000000000350837581208907067775726318359375},"9":{"id":"6323900","label":"Amaralina","value":"6323900","lat":-13.813900000000000289901436190120875835418701171875,"lon":-49.63204999999999955662133288569748401641845703125,"poi_name":"Amaralina","parent_id":"3462372","long":-49.63204999999999955662133288569748401641845703125},"10":{"id":"6323901","label":"Americano do Brasil","value":"6323901","lat":-16.26498000000000132558852783404290676116943359375,"lon":-49.99407999999999674400896765291690826416015625,"poi_name":"Americano do Brasil","parent_id":"3462372","long":-49.99407999999999674400896765291690826416015625},"11":{"id":"6323902","label":"Amorin\u00f3polis","value":"6323902","lat":-16.63419999999999987494447850622236728668212890625,"lon":-51.09852000000000060708771343342959880828857421875,"poi_name":"Amorin\u00f3polis","parent_id":"3462372","long":-51.09852000000000060708771343342959880828857421875},"12":{"id":"6323903","label":"Anhanguera","value":"6323903","lat":-18.3150499999999993860910763032734394073486328125,"lon":-48.22189999999999798774297232739627361297607421875,"poi_name":"Anhanguera","parent_id":"3462372","long":-48.22189999999999798774297232739627361297607421875},"13":{"id":"6323904","label":"Anicuns","value":"6323904","lat":-16.385819999999998941575540811754763126373291015625,"lon":-49.97941999999999751480572740547358989715576171875,"poi_name":"Anicuns","parent_id":"3462372","long":-49.97941999999999751480572740547358989715576171875},"14":{"id":"6324158","label":"An\u00e1polis","value":"6324158","lat":-16.2885899999999992360244505107402801513671875,"lon":-49.016379999999998062776285223662853240966796875,"poi_name":"An\u00e1polis","parent_id":"3462372","long":-49.016379999999998062776285223662853240966796875},"15":{"id":"6323905","label":"Aparecida de Goi\u00e2nia","value":"6323905","lat":-16.8399399999999985766407917253673076629638671875,"lon":-49.24835999999999813780959811992943286895751953125,"poi_name":"Aparecida de Goi\u00e2nia","parent_id":"3462372","long":-49.24835999999999813780959811992943286895751953125},"16":{"id":"6323906","label":"Aparecida do Rio Doce","value":"6323906","lat":-18.2296300000000002228262019343674182891845703125,"lon":-51.2413999999999987267074175179004669189453125,"poi_name":"Aparecida do Rio Doce","parent_id":"3462372","long":-51.2413999999999987267074175179004669189453125},"17":{"id":"6323907","label":"Apor\u00e9","value":"6323907","lat":-18.743249999999999744204615126363933086395263671875,"lon":-52.06942000000000092541085905395448207855224609375,"poi_name":"Apor\u00e9","parent_id":"3462372","long":-52.06942000000000092541085905395448207855224609375},"18":{"id":"6323909","label":"Aragar\u00e7as","value":"6323909","lat":-15.947430000000000660520527162589132785797119140625,"lon":-52.08068999999999704186848248355090618133544921875,"poi_name":"Aragar\u00e7as","parent_id":"3462372","long":-52.08068999999999704186848248355090618133544921875},"19":{"id":"6323910","label":"Aragoi\u00e2nia","value":"6323910","lat":-16.95418000000000091631591203622519969940185546875,"lon":-49.40597999999999956344254314899444580078125,"poi_name":"Aragoi\u00e2nia","parent_id":"3462372","long":-49.40597999999999956344254314899444580078125},"20":{"id":"6323911","label":"Araguapaz","value":"6323911","lat":-15.12986000000000075260686571709811687469482421875,"lon":-50.49839999999999662350091966800391674041748046875,"poi_name":"Araguapaz","parent_id":"3462372","long":-50.49839999999999662350091966800391674041748046875},"21":{"id":"6323908","label":"Ara\u00e7u","value":"6323908","lat":-16.38304000000000115733200800605118274688720703125,"lon":-49.707819999999998117345967330038547515869140625,"poi_name":"Ara\u00e7u","parent_id":"3462372","long":-49.707819999999998117345967330038547515869140625},"22":{"id":"6323912","label":"Aren\u00f3polis","value":"6323912","lat":-16.36095999999999861529431655071675777435302734375,"lon":-51.6046400000000033969627111218869686126708984375,"poi_name":"Aren\u00f3polis","parent_id":"3462372","long":-51.6046400000000033969627111218869686126708984375},"23":{"id":"6323913","label":"Aruan\u00e3","value":"6323913","lat":-14.8102000000000000312638803734444081783294677734375,"lon":-50.94501000000000345835360349155962467193603515625,"poi_name":"Aruan\u00e3","parent_id":"3462372","long":-50.94501000000000345835360349155962467193603515625},"24":{"id":"6319150","label":"Auril\u00e2ndia","value":"6319150","lat":-16.676809999999999689634933019988238811492919921875,"lon":-50.52582000000000306272340822033584117889404296875,"poi_name":"Auril\u00e2ndia","parent_id":"3462372","long":-50.52582000000000306272340822033584117889404296875},"25":{"id":"6323914","label":"Avelin\u00f3polis","value":"6323914","lat":-16.491209999999998814246282563544809818267822265625,"lon":-49.76368000000000080262907431460916996002197265625,"poi_name":"Avelin\u00f3polis","parent_id":"3462372","long":-49.76368000000000080262907431460916996002197265625},"26":{"id":"6319151","label":"Baliza","value":"6319151","lat":-16.3667200000000008230927051045000553131103515625,"lon":-52.4361099999999993315213941968977451324462890625,"poi_name":"Baliza","parent_id":"3462372","long":-52.4361099999999993315213941968977451324462890625},"27":{"id":"6323915","label":"Barro Alto","value":"6323915","lat":-14.9127600000000004598632585839368402957916259765625,"lon":-48.87738999999999833789843250997364521026611328125,"poi_name":"Barro Alto","parent_id":"3462372","long":-48.87738999999999833789843250997364521026611328125},"28":{"id":"6323916","label":"Bela Vista de Goi\u00e1s","value":"6323916","lat":-16.974129999999998830162439844571053981781005859375,"lon":-48.915559999999999263309291563928127288818359375,"poi_name":"Bela Vista de Goi\u00e1s","parent_id":"3462372","long":-48.915559999999999263309291563928127288818359375},"29":{"id":"6323917","label":"Bom Jardim de Goi\u00e1s","value":"6323917","lat":-16.27033000000000129148247651755809783935546875,"lon":-52.0568200000000018690116121433675289154052734375,"poi_name":"Bom Jardim de Goi\u00e1s","parent_id":"3462372","long":-52.0568200000000018690116121433675289154052734375},"30":{"id":"6323918","label":"Bom Jesus de Goi\u00e1s","value":"6323918","lat":-18.19212999999999880174073041416704654693603515625,"lon":-49.8953599999999966030372888781130313873291015625,"poi_name":"Bom Jesus de Goi\u00e1s","parent_id":"3462372","long":-49.8953599999999966030372888781130313873291015625},"31":{"id":"6323919","label":"Bonfin\u00f3polis","value":"6323919","lat":-16.59725999999999856981958146207034587860107421875,"lon":-49.014859999999998763087205588817596435546875,"poi_name":"Bonfin\u00f3polis","parent_id":"3462372","long":-49.014859999999998763087205588817596435546875},"32":{"id":"6323920","label":"Bon\u00f3polis","value":"6323920","lat":-13.57724999999999937472239253111183643341064453125,"lon":-49.8970199999999977080733515322208404541015625,"poi_name":"Bon\u00f3polis","parent_id":"3462372","long":-49.8970199999999977080733515322208404541015625},"33":{"id":"6323921","label":"Brazabrantes","value":"6323921","lat":-16.379090000000001481339495512656867504119873046875,"lon":-49.3844500000000010686562745831906795501708984375,"poi_name":"Brazabrantes","parent_id":"3462372","long":-49.3844500000000010686562745831906795501708984375},"34":{"id":"6323922","label":"Brit\u00e2nia","value":"6323922","lat":-15.211149999999999948840923025272786617279052734375,"lon":-51.14784999999999826059138285927474498748779296875,"poi_name":"Brit\u00e2nia","parent_id":"3462372","long":-51.14784999999999826059138285927474498748779296875},"35":{"id":"6323923","label":"Buriti Alegre","value":"6323923","lat":-18.131060000000001508624336565844714641571044921875,"lon":-49.01342000000000354020812665112316608428955078125,"poi_name":"Buriti Alegre","parent_id":"3462372","long":-49.01342000000000354020812665112316608428955078125},"36":{"id":"6323924","label":"Buriti de Goi\u00e1s","value":"6323924","lat":-16.164390000000000924273990676738321781158447265625,"lon":-50.429180000000002337401383556425571441650390625,"poi_name":"Buriti de Goi\u00e1s","parent_id":"3462372","long":-50.429180000000002337401383556425571441650390625},"37":{"id":"6323925","label":"Buritin\u00f3polis","value":"6323925","lat":-14.40973999999999932697392068803310394287109375,"lon":-46.31759000000000270347300102002918720245361328125,"poi_name":"Buritin\u00f3polis","parent_id":"3462372","long":-46.31759000000000270347300102002918720245361328125},"38":{"id":"6323926","label":"Cabeceiras","value":"6323926","lat":-15.7374700000000000699174051987938582897186279296875,"lon":-47.03428000000000253066900768317282199859619140625,"poi_name":"Cabeceiras","parent_id":"3462372","long":-47.03428000000000253066900768317282199859619140625},"39":{"id":"6323927","label":"Cachoeira Alta","value":"6323927","lat":-18.542840000000001765556589816696941852569580078125,"lon":-50.98208000000000339468897436745464801788330078125,"poi_name":"Cachoeira Alta","parent_id":"3462372","long":-50.98208000000000339468897436745464801788330078125},"40":{"id":"6323929","label":"Cachoeira Dourada","value":"6323929","lat":-18.49515999999999849023879505693912506103515625,"lon":-49.65104000000000183945303433574736118316650390625,"poi_name":"Cachoeira Dourada","parent_id":"3462372","long":-49.65104000000000183945303433574736118316650390625},"41":{"id":"6323928","label":"Cachoeira de Goi\u00e1s","value":"6323928","lat":-16.725069999999998771045284229330718517303466796875,"lon":-50.68612999999999857436705497093498706817626953125,"poi_name":"Cachoeira de Goi\u00e1s","parent_id":"3462372","long":-50.68612999999999857436705497093498706817626953125},"42":{"id":"6323931","label":"Caiap\u00f4nia","value":"6323931","lat":-16.959869999999998668727130279876291751861572265625,"lon":-51.79147999999999996134647517465054988861083984375,"poi_name":"Caiap\u00f4nia","parent_id":"3462372","long":-51.79147999999999996134647517465054988861083984375},"43":{"id":"6323932","label":"Caldas Novas","value":"6323932","lat":-17.73125999999999891088009462691843509674072265625,"lon":-48.65478999999999842884790268726646900177001953125,"poi_name":"Caldas Novas","parent_id":"3462372","long":-48.65478999999999842884790268726646900177001953125},"44":{"id":"6323933","label":"Caldazinha","value":"6323933","lat":-16.748580000000000467252903035841882228851318359375,"lon":-49.00063999999999708734321757219731807708740234375,"poi_name":"Caldazinha","parent_id":"3462372","long":-49.00063999999999708734321757219731807708740234375},"45":{"id":"6323934","label":"Campestre de Goi\u00e1s","value":"6323934","lat":-16.783370000000001454054654459469020366668701171875,"lon":-49.7095800000000025420376914553344249725341796875,"poi_name":"Campestre de Goi\u00e1s","parent_id":"3462372","long":-49.7095800000000025420376914553344249725341796875},"46":{"id":"6323935","label":"Campina\u00e7u","value":"6323935","lat":-13.8637099999999993116261975956149399280548095703125,"lon":-48.56754000000000104364517028443515300750732421875,"poi_name":"Campina\u00e7u","parent_id":"3462372","long":-48.56754000000000104364517028443515300750732421875},"47":{"id":"6323936","label":"Campinorte","value":"6323936","lat":-14.0449999999999999289457264239899814128875732421875,"lon":-48.9752399999999994406607584096491336822509765625,"poi_name":"Campinorte","parent_id":"3462372","long":-48.9752399999999994406607584096491336822509765625},"48":{"id":"6323937","label":"Campo Alegre de Goi\u00e1s","value":"6323937","lat":-17.673359999999998848352333880029618740081787109375,"lon":-47.77801000000000186673787538893520832061767578125,"poi_name":"Campo Alegre de Goi\u00e1s","parent_id":"3462372","long":-47.77801000000000186673787538893520832061767578125},"49":{"id":"6324160","label":"Campo Limpo de Goi\u00e1s","value":"6324160","lat":-16.30048000000000030240698833949863910675048828125,"lon":-49.09040999999999854708221391774713993072509765625,"poi_name":"Campo Limpo de Goi\u00e1s","parent_id":"3462372","long":-49.09040999999999854708221391774713993072509765625},"50":{"id":"6323938","label":"Campos Belos","value":"6323938","lat":-12.9963999999999995083044268540106713771820068359375,"lon":-46.48778999999999683723217458464205265045166015625,"poi_name":"Campos Belos","parent_id":"3462372","long":-46.48778999999999683723217458464205265045166015625},"51":{"id":"6323939","label":"Campos Verdes","value":"6323939","lat":-14.190220000000000055706550483591854572296142578125,"lon":-49.6583499999999986584953148849308490753173828125,"poi_name":"Campos Verdes","parent_id":"3462372","long":-49.6583499999999986584953148849308490753173828125},"52":{"id":"6323940","label":"Carmo do Rio Verde","value":"6323940","lat":-15.416460000000000718500814400613307952880859375,"lon":-49.7237099999999969668351695872843265533447265625,"poi_name":"Carmo do Rio Verde","parent_id":"3462372","long":-49.7237099999999969668351695872843265533447265625},"53":{"id":"6323941","label":"Castel\u00e2ndia","value":"6323941","lat":-18.155809999999998893827068968676030635833740234375,"lon":-50.340000000000003410605131648480892181396484375,"poi_name":"Castel\u00e2ndia","parent_id":"3462372","long":-50.340000000000003410605131648480892181396484375},"54":{"id":"6323942","label":"Catal\u00e3o","value":"6323942","lat":-17.97715000000000173940861714072525501251220703125,"lon":-47.701920000000001209627953357994556427001953125,"poi_name":"Catal\u00e3o","parent_id":"3462372","long":-47.701920000000001209627953357994556427001953125},"55":{"id":"6323943","label":"Catura\u00ed","value":"6323943","lat":-16.469809999999998950670487829484045505523681640625,"lon":-49.59555999999999897909219725988805294036865234375,"poi_name":"Catura\u00ed","parent_id":"3462372","long":-49.59555999999999897909219725988805294036865234375},"56":{"id":"6323944","label":"Cavalcante","value":"6323944","lat":-13.595330000000000580939740757457911968231201171875,"lon":-47.7606200000000029604052542708814144134521484375,"poi_name":"Cavalcante","parent_id":"3462372","long":-47.7606200000000029604052542708814144134521484375},"57":{"id":"6323930","label":"Ca\u00e7u","value":"6323930","lat":-18.557739999999999014335116953589022159576416015625,"lon":-51.130369999999999208739609457552433013916015625,"poi_name":"Ca\u00e7u","parent_id":"3462372","long":-51.130369999999999208739609457552433013916015625},"58":{"id":"6324155","label":"Ceres","value":"6324155","lat":-15.2735000000000002984279490192420780658721923828125,"lon":-49.64455000000000239879227592609822750091552734375,"poi_name":"Ceres","parent_id":"3462372","long":-49.64455000000000239879227592609822750091552734375},"59":{"id":"6323945","label":"Cezarina","value":"6323945","lat":-17.118179999999998841531123616732656955718994140625,"lon":-49.729950000000002319211489520967006683349609375,"poi_name":"Cezarina","parent_id":"3462372","long":-49.729950000000002319211489520967006683349609375},"60":{"id":"6319152","label":"Chapad\u00e3o do C\u00e9u","value":"6319152","lat":-18.37042999999999892679625190794467926025390625,"lon":-52.5656000000000034333424991928040981292724609375,"poi_name":"Chapad\u00e3o do C\u00e9u","parent_id":"3462372","long":-52.5656000000000034333424991928040981292724609375},"61":{"id":"6323946","label":"Cidade Ocidental","value":"6323946","lat":-16.16178000000000025693225325085222721099853515625,"lon":-47.79997999999999791498339618556201457977294921875,"poi_name":"Cidade Ocidental","parent_id":"3462372","long":-47.79997999999999791498339618556201457977294921875},"62":{"id":"6323947","label":"Cocalzinho de Goi\u00e1s","value":"6323947","lat":-15.6590000000000006963318810448981821537017822265625,"lon":-48.57594999999999885176293901167809963226318359375,"poi_name":"Cocalzinho de Goi\u00e1s","parent_id":"3462372","long":-48.57594999999999885176293901167809963226318359375},"63":{"id":"6323948","label":"Colinas do Sul","value":"6323948","lat":-14.012209999999999610054146614857017993927001953125,"lon":-48.05123999999999995225152815692126750946044921875,"poi_name":"Colinas do Sul","parent_id":"3462372","long":-48.05123999999999995225152815692126750946044921875},"64":{"id":"6323951","label":"Corumba\u00edba","value":"6323951","lat":-18.166640000000001009539118967950344085693359375,"lon":-48.532049999999998135535861365497112274169921875,"poi_name":"Corumba\u00edba","parent_id":"3462372","long":-48.532049999999998135535861365497112274169921875},"65":{"id":"6323950","label":"Corumb\u00e1 de Goi\u00e1s","value":"6323950","lat":-15.92190000000000082991391536779701709747314453125,"lon":-48.6297899999999998499333742074668407440185546875,"poi_name":"Corumb\u00e1 de Goi\u00e1s","parent_id":"3462372","long":-48.6297899999999998499333742074668407440185546875},"66":{"id":"6323952","label":"Cristalina","value":"6323952","lat":-16.753710000000001656417225603945553302764892578125,"lon":-47.49756000000000000227373675443232059478759765625,"poi_name":"Cristalina","parent_id":"3462372","long":-47.49756000000000000227373675443232059478759765625},"67":{"id":"6323953","label":"Cristian\u00f3polis","value":"6323953","lat":-17.196690000000000253521648119203746318817138671875,"lon":-48.681139999999999190549715422093868255615234375,"poi_name":"Cristian\u00f3polis","parent_id":"3462372","long":-48.681139999999999190549715422093868255615234375},"68":{"id":"6323954","label":"Crix\u00e1s","value":"6323954","lat":-14.6616300000000006065192792448215186595916748046875,"lon":-50.04240999999999672809281037189066410064697265625,"poi_name":"Crix\u00e1s","parent_id":"3462372","long":-50.04240999999999672809281037189066410064697265625},"69":{"id":"6323955","label":"Crom\u00ednia","value":"6323955","lat":-17.247620000000001283524397877044975757598876953125,"lon":-49.329790000000002692104317247867584228515625,"poi_name":"Crom\u00ednia","parent_id":"3462372","long":-49.329790000000002692104317247867584228515625},"70":{"id":"6323956","label":"Cumari","value":"6323956","lat":-18.31597000000000008412825991399586200714111328125,"lon":-48.16375000000000028421709430404007434844970703125,"poi_name":"Cumari","parent_id":"3462372","long":-48.16375000000000028421709430404007434844970703125},"71":{"id":"6323949","label":"C\u00f3rrego do Ouro","value":"6323949","lat":-16.39565999999999945657691569067537784576416015625,"lon":-50.5731999999999999317878973670303821563720703125,"poi_name":"C\u00f3rrego do Ouro","parent_id":"3462372","long":-50.5731999999999999317878973670303821563720703125},"72":{"id":"6323957","label":"Damian\u00f3polis","value":"6323957","lat":-14.5494900000000004780531526193954050540924072265625,"lon":-46.1936699999999973442754708230495452880859375,"poi_name":"Damian\u00f3polis","parent_id":"3462372","long":-46.1936699999999973442754708230495452880859375},"73":{"id":"6323958","label":"Damol\u00e2ndia","value":"6323958","lat":-16.251090000000001367652657791040837764739990234375,"lon":-49.3450500000000005229594535194337368011474609375,"poi_name":"Damol\u00e2ndia","parent_id":"3462372","long":-49.3450500000000005229594535194337368011474609375},"74":{"id":"6323959","label":"Davin\u00f3polis","value":"6323959","lat":-18.136030000000001649596015340648591518402099609375,"lon":-47.5775000000000005684341886080801486968994140625,"poi_name":"Davin\u00f3polis","parent_id":"3462372","long":-47.5775000000000005684341886080801486968994140625},"75":{"id":"6323960","label":"Diorama","value":"6323960","lat":-16.2231799999999992678567650727927684783935546875,"lon":-51.3497100000000017416823538951575756072998046875,"poi_name":"Diorama","parent_id":"3462372","long":-51.3497100000000017416823538951575756072998046875},"76":{"id":"6319153","label":"Divin\u00f3polis de Goi\u00e1s","value":"6319153","lat":-13.2237799999999996458655004971660673618316650390625,"lon":-46.52703999999999950887286104261875152587890625,"poi_name":"Divin\u00f3polis de Goi\u00e1s","parent_id":"3462372","long":-46.52703999999999950887286104261875152587890625},"77":{"id":"6323961","label":"Doverl\u00e2ndia","value":"6323961","lat":-16.877669999999998395878719747997820377349853515625,"lon":-52.49916999999999944748196867294609546661376953125,"poi_name":"Doverl\u00e2ndia","parent_id":"3462372","long":-52.49916999999999944748196867294609546661376953125},"78":{"id":"6323962","label":"Edealina","value":"6323962","lat":-17.43990000000000151203494169749319553375244140625,"lon":-49.73319000000000045247361413203179836273193359375,"poi_name":"Edealina","parent_id":"3462372","long":-49.73319000000000045247361413203179836273193359375},"79":{"id":"6323963","label":"Ed\u00e9ia","value":"6323963","lat":-17.551120000000000942463884712196886539459228515625,"lon":-50.00954999999999728288457845337688922882080078125,"poi_name":"Ed\u00e9ia","parent_id":"3462372","long":-50.00954999999999728288457845337688922882080078125},"80":{"id":"6323964","label":"Estrela do Norte","value":"6323964","lat":-13.7826199999999996492761056288145482540130615234375,"lon":-49.10025999999999868350641918368637561798095703125,"poi_name":"Estrela do Norte","parent_id":"3462372","long":-49.10025999999999868350641918368637561798095703125},"81":{"id":"6323965","label":"Faina","value":"6323965","lat":-15.4369700000000005246647560852579772472381591796875,"lon":-50.3915099999999966939867590554058551788330078125,"poi_name":"Faina","parent_id":"3462372","long":-50.3915099999999966939867590554058551788330078125},"82":{"id":"6323966","label":"Fazenda Nova","value":"6323966","lat":-16.128659999999999996589394868351519107818603515625,"lon":-50.92604000000000041836756281554698944091796875,"poi_name":"Fazenda Nova","parent_id":"3462372","long":-50.92604000000000041836756281554698944091796875},"83":{"id":"6323967","label":"Firmin\u00f3polis","value":"6323967","lat":-16.63738000000000027966962079517543315887451171875,"lon":-50.32144000000000261252353084273636341094970703125,"poi_name":"Firmin\u00f3polis","parent_id":"3462372","long":-50.32144000000000261252353084273636341094970703125},"84":{"id":"6323968","label":"Flores de Goi\u00e1s","value":"6323968","lat":-14.5900300000000004985167834092862904071807861328125,"lon":-46.8785299999999978126652422361075878143310546875,"poi_name":"Flores de Goi\u00e1s","parent_id":"3462372","long":-46.8785299999999978126652422361075878143310546875},"85":{"id":"6323969","label":"Formosa","value":"6323969","lat":-15.3452900000000003188915798091329634189605712890625,"lon":-47.1906699999999972305886331014335155487060546875,"poi_name":"Formosa","parent_id":"3462372","long":-47.1906699999999972305886331014335155487060546875},"86":{"id":"6323970","label":"Formoso","value":"6323970","lat":-13.7033900000000006258460416574962437152862548828125,"lon":-48.87537999999999982492226990871131420135498046875,"poi_name":"Formoso","parent_id":"3462372","long":-48.87537999999999982492226990871131420135498046875},"87":{"id":"6319162","label":"Gameleira de Goi\u00e1s","value":"6319162","lat":-16.431309999999999860165189602412283420562744140625,"lon":-48.6745599999999996043698047287762165069580078125,"poi_name":"Gameleira de Goi\u00e1s","parent_id":"3462372","long":-48.6745599999999996043698047287762165069580078125},"88":{"id":"6323972","label":"Goiandira","value":"6323972","lat":-18.109790000000000276259015663526952266693115234375,"lon":-48.14934000000000224872565013356506824493408203125,"poi_name":"Goiandira","parent_id":"3462372","long":-48.14934000000000224872565013356506824493408203125},"89":{"id":"6323975","label":"Goianira","value":"6323975","lat":-16.502300000000001745092959026806056499481201171875,"lon":-49.4360199999999991860022419132292270660400390625,"poi_name":"Goianira","parent_id":"3462372","long":-49.4360199999999991860022419132292270660400390625},"90":{"id":"6323971","label":"Goian\u00e1polis","value":"6323971","lat":-16.530409999999999826059138285927474498748779296875,"lon":-49.08769000000000204408934223465621471405029296875,"poi_name":"Goian\u00e1polis","parent_id":"3462372","long":-49.08769000000000204408934223465621471405029296875},"91":{"id":"6323973","label":"Goian\u00e9sia","value":"6323973","lat":-15.3110400000000002052047420875169336795806884765625,"lon":-49.17407999999999645979187334887683391571044921875,"poi_name":"Goian\u00e9sia","parent_id":"3462372","long":-49.17407999999999645979187334887683391571044921875},"92":{"id":"6323977","label":"Goiatuba","value":"6323977","lat":-18.0320099999999996498445398174226284027099609375,"lon":-49.70718000000000103000274975784122943878173828125,"poi_name":"Goiatuba","parent_id":"3462372","long":-49.70718000000000103000274975784122943878173828125},"93":{"id":"6323976","label":"Goi\u00e1s","value":"6323976","lat":-15.8027700000000006497202775790356099605560302734375,"lon":-50.241320000000001755324774421751499176025390625,"poi_name":"Goi\u00e1s","parent_id":"3462372","long":-50.241320000000001755324774421751499176025390625},"94":{"id":"6323974","label":"Goi\u00e2nia","value":"6323974","lat":-16.640190000000000480895323562435805797576904296875,"lon":-49.25992999999999710780684836208820343017578125,"poi_name":"Goi\u00e2nia","parent_id":"3462372","long":-49.25992999999999710780684836208820343017578125},"95":{"id":"6323978","label":"Gouvel\u00e2ndia","value":"6323978","lat":-18.50777000000000072077455115504562854766845703125,"lon":-50.1755399999999980309439706616103649139404296875,"poi_name":"Gouvel\u00e2ndia","parent_id":"3462372","long":-50.1755399999999980309439706616103649139404296875},"96":{"id":"6323979","label":"Guap\u00f3","value":"6323979","lat":-16.911680000000000489990270580165088176727294921875,"lon":-49.60593000000000074578565545380115509033203125,"poi_name":"Guap\u00f3","parent_id":"3462372","long":-49.60593000000000074578565545380115509033203125},"97":{"id":"6323981","label":"Guarani de Goi\u00e1s","value":"6323981","lat":-13.884850000000000136424205265939235687255859375,"lon":-46.5071099999999972851583152078092098236083984375,"poi_name":"Guarani de Goi\u00e1s","parent_id":"3462372","long":-46.5071099999999972851583152078092098236083984375},"98":{"id":"6323980","label":"Guara\u00edta","value":"6323980","lat":-15.6596100000000006957634468562901020050048828125,"lon":-50.066630000000003519744495861232280731201171875,"poi_name":"Guara\u00edta","parent_id":"3462372","long":-50.066630000000003519744495861232280731201171875},"99":{"id":"6323982","label":"Guarinos","value":"6323982","lat":-14.6997599999999994935251379502005875110626220703125,"lon":-49.73100000000000164845914696343243122100830078125,"poi_name":"Guarinos","parent_id":"3462372","long":-49.73100000000000164845914696343243122100830078125}}