{"success":true,"remaining_lookups":9774,"0":{"id":"6319276","label":"Acrel\u00e2ndia","value":"6319276","lat":-9.9804499999999993775645634741522371768951416015625,"lon":-66.8438799999999986312104738317430019378662109375,"poi_name":"Acrel\u00e2ndia","parent_id":"3665474","long":-66.8438799999999986312104738317430019378662109375},"1":{"id":"6319277","label":"Assis Brasil","value":"6319277","lat":-10.883340000000000458157956018112599849700927734375,"lon":-70.0131400000000070349415182135999202728271484375,"poi_name":"Assis Brasil","parent_id":"3665474","long":-70.0131400000000070349415182135999202728271484375},"2":{"id":"6319278","label":"Brasil\u00e9ia","value":"6319278","lat":-10.7677099999999992263610693044029176235198974609375,"lon":-69.0114099999999979218046064488589763641357421875,"poi_name":"Brasil\u00e9ia","parent_id":"3665474","long":-69.0114099999999979218046064488589763641357421875},"3":{"id":"6319279","label":"Bujari","value":"6319279","lat":-9.5785900000000001597300069988705217838287353515625,"lon":-68.1719700000000017325874068774282932281494140625,"poi_name":"Bujari","parent_id":"3665474","long":-68.1719700000000017325874068774282932281494140625},"4":{"id":"6319280","label":"Capixaba","value":"6319280","lat":-10.48781999999999925421434454619884490966796875,"lon":-67.848309999999997899067238904535770416259765625,"poi_name":"Capixaba","parent_id":"3665474","long":-67.848309999999997899067238904535770416259765625},"5":{"id":"6319281","label":"Cruzeiro do Sul","value":"6319281","lat":-8.015940000000000509317032992839813232421875,"lon":-72.9297700000000048703441279940307140350341796875,"poi_name":"Cruzeiro do Sul","parent_id":"3665474","long":-72.9297700000000048703441279940307140350341796875},"6":{"id":"6319282","label":"Epitaciol\u00e2ndia","value":"6319282","lat":-10.93542000000000058435034588910639286041259765625,"lon":-68.444109999999994897734723053872585296630859375,"poi_name":"Epitaciol\u00e2ndia","parent_id":"3665474","long":-68.444109999999994897734723053872585296630859375},"7":{"id":"6324175","label":"Feij\u00f3","value":"6324175","lat":-8.9049600000000008748202162678353488445281982421875,"lon":-70.9148899999999997589839040301740169525146484375,"poi_name":"Feij\u00f3","parent_id":"3665474","long":-70.9148899999999997589839040301740169525146484375},"8":{"id":"6319283","label":"Jord\u00e3o","value":"6319283","lat":-9.0916599999999991865706761018373072147369384765625,"lon":-71.8406899999999950523488223552703857421875,"poi_name":"Jord\u00e3o","parent_id":"3665474","long":-71.8406899999999950523488223552703857421875},"9":{"id":"6324176","label":"Manoel Urbano","value":"6324176","lat":-9.489509999999999223518898361362516880035400390625,"lon":-70.0124200000000058707882999442517757415771484375,"poi_name":"Manoel Urbano","parent_id":"3665474","long":-70.0124200000000058707882999442517757415771484375},"10":{"id":"6319285","label":"Marechal Thaumaturgo","value":"6319285","lat":-9.1898900000000001142552719102241098880767822265625,"lon":-72.5685299999999955389284878037869930267333984375,"poi_name":"Marechal Thaumaturgo","parent_id":"3665474","long":-72.5685299999999955389284878037869930267333984375},"11":{"id":"6319284","label":"M\u00e2ncio Lima","value":"6319284","lat":-7.53962999999999983202769726631231606006622314453125,"lon":-73.4582599999999956708052195608615875244140625,"poi_name":"M\u00e2ncio Lima","parent_id":"3665474","long":-73.4582599999999956708052195608615875244140625},"12":{"id":"6319286","label":"Pl\u00e1cido de Castro","value":"6319286","lat":-10.2942800000000005411493475548923015594482421875,"lon":-67.26816999999999779902282170951366424560546875,"poi_name":"Pl\u00e1cido de Castro","parent_id":"3665474","long":-67.26816999999999779902282170951366424560546875},"13":{"id":"6319293","label":"Porto Acre","value":"6319293","lat":-9.6503800000000001801936377887614071369171142578125,"lon":-67.7773300000000062937033362686634063720703125,"poi_name":"Porto Acre","parent_id":"3665474","long":-67.7773300000000062937033362686634063720703125},"14":{"id":"6319287","label":"Porto Walter","value":"6319287","lat":-8.5247399999999995401367414160631597042083740234375,"lon":-72.8206500000000005456968210637569427490234375,"poi_name":"Porto Walter","parent_id":"3665474","long":-72.8206500000000005456968210637569427490234375},"15":{"id":"6319288","label":"Rio Branco","value":"6319288","lat":-10.0698899999999991194954418460838496685028076171875,"lon":-68.1553200000000032332536648027598857879638671875,"poi_name":"Rio Branco","parent_id":"3665474","long":-68.1553200000000032332536648027598857879638671875},"16":{"id":"6319289","label":"Rodrigues Alves","value":"6319289","lat":-7.85285999999999972942532622255384922027587890625,"lon":-73.236130000000002837623469531536102294921875,"poi_name":"Rodrigues Alves","parent_id":"3665474","long":-73.236130000000002837623469531536102294921875},"17":{"id":"6324177","label":"Santa Rosa do Purus","value":"6324177","lat":-9.4772999999999996134647517465054988861083984375,"lon":-70.390320000000002664819476194679737091064453125,"poi_name":"Santa Rosa do Purus","parent_id":"3665474","long":-70.390320000000002664819476194679737091064453125},"18":{"id":"6324178","label":"Sena Madureira","value":"6324178","lat":-10.035650000000000403588273911736905574798583984375,"lon":-69.5497399999999998954081092961132526397705078125,"poi_name":"Sena Madureira","parent_id":"3665474","long":-69.5497399999999998954081092961132526397705078125},"19":{"id":"6319290","label":"Senador Guiomard","value":"6319290","lat":-9.940799999999999414512785733677446842193603515625,"lon":-67.3931400000000024874680093489587306976318359375,"poi_name":"Senador Guiomard","parent_id":"3665474","long":-67.3931400000000024874680093489587306976318359375},"20":{"id":"6319291","label":"Tarauac\u00e1","value":"6319291","lat":-8.6551600000000004087041816092096269130706787109375,"lon":-71.42342999999999619831214658915996551513671875,"poi_name":"Tarauac\u00e1","parent_id":"3665474","long":-71.42342999999999619831214658915996551513671875},"21":{"id":"6319292","label":"Xapuri","value":"6319292","lat":-10.5966299999999993275423548766411840915679931640625,"lon":-68.6489100000000007639755494892597198486328125,"poi_name":"Xapuri","parent_id":"3665474","long":-68.6489100000000007639755494892597198486328125}}