{"success":true,"remaining_lookups":9753,"0":{"id":"6319229","label":"Alta Floresta d'Oeste","value":"6319229","lat":-12.4710699999999992115817804005928337574005126953125,"lon":-62.1370500000000021145751816220581531524658203125,"poi_name":"Alta Floresta d'Oeste","parent_id":"3924825","long":-62.1370500000000021145751816220581531524658203125},"1":{"id":"6319251","label":"Alto Alegre dos Parecis","value":"6319251","lat":-12.756009999999999848796505830250680446624755859375,"lon":-61.9797099999999971942088450305163860321044921875,"poi_name":"Alto Alegre dos Parecis","parent_id":"3924825","long":-61.9797099999999971942088450305163860321044921875},"2":{"id":"6319252","label":"Alto Para\u00edso","value":"6319252","lat":-9.6599599999999998800603862036950886249542236328125,"lon":-63.58718999999999965666575008071959018707275390625,"poi_name":"Alto Para\u00edso","parent_id":"3924825","long":-63.58718999999999965666575008071959018707275390625},"3":{"id":"6319250","label":"Alvorada d'Oeste","value":"6319250","lat":-11.299250000000000682121026329696178436279296875,"lon":-62.501519999999999299689079634845256805419921875,"poi_name":"Alvorada d'Oeste","parent_id":"3924825","long":-62.501519999999999299689079634845256805419921875},"4":{"id":"6319230","label":"Ariquemes","value":"6319230","lat":-9.9105199999999999960209606797434389591217041015625,"lon":-62.954880000000002837623469531536102294921875,"poi_name":"Ariquemes","parent_id":"3924825","long":-62.954880000000002837623469531536102294921875},"5":{"id":"6319253","label":"Buritis","value":"6319253","lat":-10.092150000000000176214598468504846096038818359375,"lon":-63.969639999999998281055013649165630340576171875,"poi_name":"Buritis","parent_id":"3924825","long":-63.969639999999998281055013649165630340576171875},"6":{"id":"6319231","label":"Cabixi","value":"6319231","lat":-13.5108300000000003393552105990238487720489501953125,"lon":-60.6025700000000000500222085975110530853271484375,"poi_name":"Cabixi","parent_id":"3924825","long":-60.6025700000000000500222085975110530853271484375},"7":{"id":"6319255","label":"Cacaul\u00e2ndia","value":"6319255","lat":-10.325829999999999841975295566953718662261962890625,"lon":-63.149529999999998608473106287419795989990234375,"poi_name":"Cacaul\u00e2ndia","parent_id":"3924825","long":-63.149529999999998608473106287419795989990234375},"8":{"id":"6319232","label":"Cacoal","value":"6319232","lat":-11.490420000000000300133251585066318511962890625,"lon":-61.43173999999999779220161144621670246124267578125,"poi_name":"Cacoal","parent_id":"3924825","long":-61.43173999999999779220161144621670246124267578125},"9":{"id":"6319256","label":"Campo Novo de Rond\u00f4nia","value":"6319256","lat":-10.4814600000000002211208993685431778430938720703125,"lon":-63.85191999999999978854248183779418468475341796875,"poi_name":"Campo Novo de Rond\u00f4nia","parent_id":"3924825","long":-63.85191999999999978854248183779418468475341796875},"10":{"id":"6319257","label":"Candeias do Jamari","value":"6319257","lat":-8.945119999999999294004737748764455318450927734375,"lon":-63.3573099999999982401277520693838596343994140625,"poi_name":"Candeias do Jamari","parent_id":"3924825","long":-63.3573099999999982401277520693838596343994140625},"11":{"id":"6319258","label":"Castanheiras","value":"6319258","lat":-11.426610000000000155750967678613960742950439453125,"lon":-61.88918000000000319005266646854579448699951171875,"poi_name":"Castanheiras","parent_id":"3924825","long":-61.88918000000000319005266646854579448699951171875},"12":{"id":"6319233","label":"Cerejeiras","value":"6319233","lat":-13.183189999999999741930878371931612491607666015625,"lon":-61.47518000000000171212377608753740787506103515625,"poi_name":"Cerejeiras","parent_id":"3924825","long":-61.47518000000000171212377608753740787506103515625},"13":{"id":"6319259","label":"Chupinguaia","value":"6319259","lat":-12.672399999999999664623828721232712268829345703125,"lon":-60.92622000000000070940586738288402557373046875,"poi_name":"Chupinguaia","parent_id":"3924825","long":-60.92622000000000070940586738288402557373046875},"14":{"id":"6319234","label":"Colorado do Oeste","value":"6319234","lat":-13.0825200000000005928768587182275950908660888671875,"lon":-60.4941900000000032378011383116245269775390625,"poi_name":"Colorado do Oeste","parent_id":"3924825","long":-60.4941900000000032378011383116245269775390625},"15":{"id":"6319235","label":"Corumbiara","value":"6319235","lat":-12.87592000000000069803718361072242259979248046875,"lon":-61.1199299999999965393726597540080547332763671875,"poi_name":"Corumbiara","parent_id":"3924825","long":-61.1199299999999965393726597540080547332763671875},"16":{"id":"6319236","label":"Costa Marques","value":"6319236","lat":-12.0616800000000008452616384602151811122894287109375,"lon":-64.073229999999995243342709727585315704345703125,"poi_name":"Costa Marques","parent_id":"3924825","long":-64.073229999999995243342709727585315704345703125},"17":{"id":"6319260","label":"Cujubim","value":"6319260","lat":-8.9781899999999996708766047959215939044952392578125,"lon":-62.44252000000000180079950951039791107177734375,"poi_name":"Cujubim","parent_id":"3924825","long":-62.44252000000000180079950951039791107177734375},"18":{"id":"6319237","label":"Espig\u00e3o d'Oeste","value":"6319237","lat":-11.46621999999999985675458447076380252838134765625,"lon":-60.699240000000003192326403222978115081787109375,"poi_name":"Espig\u00e3o d'Oeste","parent_id":"3924825","long":-60.699240000000003192326403222978115081787109375},"19":{"id":"6324173","label":"Governador Jorge Teixeira","value":"6324173","lat":-10.784620000000000317186277243308722972869873046875,"lon":-63.04433000000000220097717829048633575439453125,"poi_name":"Governador Jorge Teixeira","parent_id":"3924825","long":-63.04433000000000220097717829048633575439453125},"20":{"id":"3925074","label":"Guajar\u00e1-Mirim","value":"3925074","lat":-11.3310800000000000409272615797817707061767578125,"lon":-64.4409500000000008412825991399586200714111328125,"poi_name":"Guajar\u00e1-Mirim","parent_id":"3924825","long":-64.4409500000000008412825991399586200714111328125},"21":{"id":"6319261","label":"Itapu\u00e3 do Oeste","value":"6319261","lat":-9.0338899999999995316102285869419574737548828125,"lon":-63.23214999999999719193510827608406543731689453125,"poi_name":"Itapu\u00e3 do Oeste","parent_id":"3924825","long":-63.23214999999999719193510827608406543731689453125},"22":{"id":"6324172","label":"Jaru","value":"6324172","lat":-10.5922199999999993025312505778856575489044189453125,"lon":-62.5850300000000032696334528736770153045654296875,"poi_name":"Jaru","parent_id":"3924825","long":-62.5850300000000032696334528736770153045654296875},"23":{"id":"6319238","label":"Ji-Paran\u00e1","value":"6319238","lat":-10.833980000000000387672116630710661411285400390625,"lon":-61.96014000000000265799826593138277530670166015625,"poi_name":"Ji-Paran\u00e1","parent_id":"3924825","long":-61.96014000000000265799826593138277530670166015625},"24":{"id":"6319239","label":"Machadinho d'Oeste","value":"6319239","lat":-9.2395300000000002427213985356502234935760498046875,"lon":-62.1124099999999970123099046759307384490966796875,"poi_name":"Machadinho d'Oeste","parent_id":"3924825","long":-62.1124099999999970123099046759307384490966796875},"25":{"id":"6319262","label":"Ministro Andreazza","value":"6319262","lat":-11.160289999999999821511664777062833309173583984375,"lon":-61.56897000000000019781509763561189174652099609375,"poi_name":"Ministro Andreazza","parent_id":"3924825","long":-61.56897000000000019781509763561189174652099609375},"26":{"id":"6324174","label":"Mirante da Serra","value":"6324174","lat":-11.1370599999999999596411726088263094425201416015625,"lon":-62.86153999999999797410055180080235004425048828125,"poi_name":"Mirante da Serra","parent_id":"3924825","long":-62.86153999999999797410055180080235004425048828125},"27":{"id":"6319263","label":"Monte Negro","value":"6319263","lat":-10.304500000000000881072992342524230480194091796875,"lon":-63.35401999999999844703779672272503376007080078125,"poi_name":"Monte Negro","parent_id":"3924825","long":-63.35401999999999844703779672272503376007080078125},"28":{"id":"6319240","label":"Nova Brasil\u00e2ndia d'Oeste","value":"6319240","lat":-11.4911100000000008236611392931081354618072509765625,"lon":-62.16494999999999748752088635228574275970458984375,"poi_name":"Nova Brasil\u00e2ndia d'Oeste","parent_id":"3924825","long":-62.16494999999999748752088635228574275970458984375},"29":{"id":"6324274","label":"Nova Mamor\u00e9","value":"6324274","lat":-10.5383700000000004592948243953287601470947265625,"lon":-64.494290000000006557456799782812595367431640625,"poi_name":"Nova Mamor\u00e9","parent_id":"3924825","long":-64.494290000000006557456799782812595367431640625},"30":{"id":"6319264","label":"Nova Uni\u00e3o","value":"6319264","lat":-10.9493799999999996686028680414892733097076416015625,"lon":-62.5108699999999970486896927468478679656982421875,"poi_name":"Nova Uni\u00e3o","parent_id":"3924825","long":-62.5108699999999970486896927468478679656982421875},"31":{"id":"6319254","label":"Novo Horizonte do Oeste","value":"6319254","lat":-11.7076899999999994861354934982955455780029296875,"lon":-62.07988999999999890633262111805379390716552734375,"poi_name":"Novo Horizonte do Oeste","parent_id":"3924825","long":-62.07988999999999890633262111805379390716552734375},"32":{"id":"6319241","label":"Ouro Preto do Oeste","value":"6319241","lat":-10.3665900000000004155253918725065886974334716796875,"lon":-61.92239000000000004320099833421409130096435546875,"poi_name":"Ouro Preto do Oeste","parent_id":"3924825","long":-61.92239000000000004320099833421409130096435546875},"33":{"id":"6319265","label":"Parecis","value":"6319265","lat":-12.286590000000000344471118296496570110321044921875,"lon":-61.31662000000000034560798667371273040771484375,"poi_name":"Parecis","parent_id":"3924825","long":-61.31662000000000034560798667371273040771484375},"34":{"id":"6319242","label":"Pimenta Bueno","value":"6319242","lat":-11.7877899999999993241317497449927031993865966796875,"lon":-60.7497800000000012232703738845884799957275390625,"poi_name":"Pimenta Bueno","parent_id":"3924825","long":-60.7497800000000012232703738845884799957275390625},"35":{"id":"6319266","label":"Pimenteiras do Oeste","value":"6319266","lat":-13.0127299999999994639665601425804197788238525390625,"lon":-61.73761999999999972033037920482456684112548828125,"poi_name":"Pimenteiras do Oeste","parent_id":"3924825","long":-61.73761999999999972033037920482456684112548828125},"36":{"id":"6319243","label":"Porto Velho","value":"6319243","lat":-9.2078699999999997771737980656325817108154296875,"lon":-64.310640000000006466507329605519771575927734375,"poi_name":"Porto Velho","parent_id":"3924825","long":-64.310640000000006466507329605519771575927734375},"37":{"id":"6319244","label":"Presidente M\u00e9dici","value":"6319244","lat":-11.185230000000000671889210934750735759735107421875,"lon":-61.94071999999999889041646383702754974365234375,"poi_name":"Presidente M\u00e9dici","parent_id":"3924825","long":-61.94071999999999889041646383702754974365234375},"38":{"id":"6319267","label":"Primavera de Rond\u00f4nia","value":"6319267","lat":-11.9293899999999997163513398845680058002471923828125,"lon":-61.30610999999999677356754546053707599639892578125,"poi_name":"Primavera de Rond\u00f4nia","parent_id":"3924825","long":-61.30610999999999677356754546053707599639892578125},"39":{"id":"6319245","label":"Rio Crespo","value":"6319245","lat":-9.7187999999999998834709913353435695171356201171875,"lon":-62.746409999999997353370417840778827667236328125,"poi_name":"Rio Crespo","parent_id":"3924825","long":-62.746409999999997353370417840778827667236328125},"40":{"id":"6319246","label":"Rolim de Moura","value":"6319246","lat":-11.7525999999999992695620676386170089244842529296875,"lon":-61.7896700000000009822542779147624969482421875,"poi_name":"Rolim de Moura","parent_id":"3924825","long":-61.7896700000000009822542779147624969482421875},"41":{"id":"6319247","label":"Santa Luzia d'Oeste","value":"6319247","lat":-12.1046700000000004848743628826923668384552001953125,"lon":-61.79440000000000310365066980011761188507080078125,"poi_name":"Santa Luzia d'Oeste","parent_id":"3924825","long":-61.79440000000000310365066980011761188507080078125},"42":{"id":"6319270","label":"Seringueiras","value":"6319270","lat":-11.924910000000000565023583476431667804718017578125,"lon":-63.189379999999999881765688769519329071044921875,"poi_name":"Seringueiras","parent_id":"3924825","long":-63.189379999999999881765688769519329071044921875},"43":{"id":"6319268","label":"S\u00e3o Felipe d'Oeste","value":"6319268","lat":-11.8977400000000006485834092018194496631622314453125,"lon":-61.4773899999999997589839040301740169525146484375,"poi_name":"S\u00e3o Felipe d'Oeste","parent_id":"3924825","long":-61.4773899999999997589839040301740169525146484375},"44":{"id":"6319269","label":"S\u00e3o Francisco do Guapor\u00e9","value":"6319269","lat":-12.3831299999999995264943208894692361354827880859375,"lon":-63.1264800000000008139977580867707729339599609375,"poi_name":"S\u00e3o Francisco do Guapor\u00e9","parent_id":"3924825","long":-63.1264800000000008139977580867707729339599609375},"45":{"id":"6319249","label":"S\u00e3o Miguel do Guapor\u00e9","value":"6319249","lat":-11.7078299999999995151256371173076331615447998046875,"lon":-62.93531999999999726469468441791832447052001953125,"poi_name":"S\u00e3o Miguel do Guapor\u00e9","parent_id":"3924825","long":-62.93531999999999726469468441791832447052001953125},"46":{"id":"6319271","label":"Teixeir\u00f3polis","value":"6319271","lat":-10.9926600000000007639755494892597198486328125,"lon":-62.2473499999999972942532622255384922027587890625,"poi_name":"Teixeir\u00f3polis","parent_id":"3924825","long":-62.2473499999999972942532622255384922027587890625},"47":{"id":"6319272","label":"Theobroma","value":"6319272","lat":-10.1015899999999998470912032644264400005340576171875,"lon":-62.2809400000000010777512216009199619293212890625,"poi_name":"Theobroma","parent_id":"3924825","long":-62.2809400000000010777512216009199619293212890625},"48":{"id":"6319273","label":"Urup\u00e1","value":"6319273","lat":-11.0791699999999995185362422489561140537261962890625,"lon":-62.381270000000000663931132294237613677978515625,"poi_name":"Urup\u00e1","parent_id":"3924825","long":-62.381270000000000663931132294237613677978515625},"49":{"id":"6319274","label":"Vale do Anari","value":"6319274","lat":-9.732440000000000424051904701627790927886962890625,"lon":-61.93919000000000352201823261566460132598876953125,"poi_name":"Vale do Anari","parent_id":"3924825","long":-61.93919000000000352201823261566460132598876953125},"50":{"id":"6319275","label":"Vale do Para\u00edso","value":"6319275","lat":-10.2065199999999993707433532108552753925323486328125,"lon":-62.0699299999999993815436027944087982177734375,"poi_name":"Vale do Para\u00edso","parent_id":"3924825","long":-62.0699299999999993815436027944087982177734375},"51":{"id":"6319248","label":"Vilhena","value":"6319248","lat":-12.0206199999999991945287547423504292964935302734375,"lon":-60.2752600000000029467628337442874908447265625,"poi_name":"Vilhena","parent_id":"3924825","long":-60.2752600000000029467628337442874908447265625}}