{"success":true,"remaining_lookups":9088,"0":{"id":"3615252","label":"Alianza","value":"3615252","lat":13.5,"lon":-87.6833299999999979945641825906932353973388671875,"poi_name":"Alianza","parent_id":"3600456","long":-87.6833299999999979945641825906932353973388671875},"1":{"id":"3615214","label":"Amapala","value":"3615214","lat":13.28332999999999941564965411089360713958740234375,"lon":-87.6333300000000008367351256310939788818359375,"poi_name":"Amapala","parent_id":"3600456","long":-87.6333300000000008367351256310939788818359375},"2":{"id":"3615116","label":"Aramecina","value":"3615116","lat":13.71667000000000058435034588910639286041259765625,"lon":-87.6833299999999979945641825906932353973388671875,"poi_name":"Aramecina","parent_id":"3600456","long":-87.6833299999999979945641825906932353973388671875},"3":{"id":"3614096","label":"Caridad","value":"3614096","lat":13.78332999999999941564965411089360713958740234375,"lon":-87.650000000000005684341886080801486968994140625,"poi_name":"Caridad","parent_id":"3600456","long":-87.650000000000005684341886080801486968994140625},"4":{"id":"3609609","label":"Goascor\u00e1n","value":"3609609","lat":13.589999999999999857891452847979962825775146484375,"lon":-87.7000000000000028421709430404007434844970703125,"poi_name":"Goascor\u00e1n","parent_id":"3600456","long":-87.7000000000000028421709430404007434844970703125},"5":{"id":"3607295","label":"Langue","value":"3607295","lat":13.6166699999999991632648743689060211181640625,"lon":-87.6333300000000008367351256310939788818359375,"poi_name":"Langue","parent_id":"3600456","long":-87.6333300000000008367351256310939788818359375},"6":{"id":"3604523","label":"Nacaome","value":"3604523","lat":13.5166699999999995185362422489561140537261962890625,"lon":-87.5,"poi_name":"Nacaome","parent_id":"3600456","long":-87.5},"7":{"id":"3602285","label":"San Francisco de Coray","value":"3602285","lat":13.6500000000000003552713678800500929355621337890625,"lon":-87.533330000000006521077011711895465850830078125,"poi_name":"San Francisco de Coray","parent_id":"3600456","long":-87.533330000000006521077011711895465850830078125},"8":{"id":"3601978","label":"San Lorenzo","value":"3601978","lat":13.416669999999999873807610129006206989288330078125,"lon":-87.4500000000000028421709430404007434844970703125,"poi_name":"San Lorenzo","parent_id":"3600456","long":-87.4500000000000028421709430404007434844970703125}}