{"success":true,"remaining_lookups":9089,"0":{"id":"3615127","label":"Arada","value":"3615127","lat":14.833330000000000126192389870993793010711669921875,"lon":-88.2999999999999971578290569595992565155029296875,"poi_name":"Arada","parent_id":"3601689","long":-88.2999999999999971578290569595992565155029296875},"1":{"id":"3615029","label":"Atima","value":"3615029","lat":14.9333299999999997709210219909437000751495361328125,"lon":-88.5,"poi_name":"Atima","parent_id":"3601689","long":-88.5},"2":{"id":"3614991","label":"Azacualpa","value":"3614991","lat":15.3666699999999991632648743689060211181640625,"lon":-88.5499999999999971578290569595992565155029296875,"poi_name":"Azacualpa","parent_id":"3601689","long":-88.5499999999999971578290569595992565155029296875},"3":{"id":"3613901","label":"Ceguaca","value":"3613901","lat":14.800000000000000710542735760100185871124267578125,"lon":-88.2000000000000028421709430404007434844970703125,"poi_name":"Ceguaca","parent_id":"3601689","long":-88.2000000000000028421709430404007434844970703125},"4":{"id":"3613602","label":"Chinda","value":"3613602","lat":15.1166699999999991632648743689060211181640625,"lon":-88.2000000000000028421709430404007434844970703125,"poi_name":"Chinda","parent_id":"3601689","long":-88.2000000000000028421709430404007434844970703125},"5":{"id":"3613284","label":"Concepci\u00f3n del Norte","value":"3613284","lat":15.1833299999999997709210219909437000751495361328125,"lon":-88.1333300000000008367351256310939788818359375,"poi_name":"Concepci\u00f3n del Norte","parent_id":"3601689","long":-88.1333300000000008367351256310939788818359375},"6":{"id":"3613282","label":"Concepci\u00f3n del Sur","value":"3613282","lat":14.800000000000000710542735760100185871124267578125,"lon":-88.150000000000005684341886080801486968994140625,"poi_name":"Concepci\u00f3n del Sur","parent_id":"3601689","long":-88.150000000000005684341886080801486968994140625},"7":{"id":"3611147","label":"El N\u00edspero","value":"3611147","lat":14.7666699999999995185362422489561140537261962890625,"lon":-88.3333300000000036789060686714947223663330078125,"poi_name":"El N\u00edspero","parent_id":"3601689","long":-88.3333300000000036789060686714947223663330078125},"8":{"id":"3609387","label":"Gualala","value":"3609387","lat":14.980000000000000426325641456060111522674560546875,"lon":-88.1700000000000017053025658242404460906982421875,"poi_name":"Gualala","parent_id":"3601689","long":-88.1700000000000017053025658242404460906982421875},"9":{"id":"3608861","label":"Ilama","value":"3608861","lat":15.0299999999999993605115378159098327159881591796875,"lon":-88.1099999999999994315658113919198513031005859375,"poi_name":"Ilama","parent_id":"3601689","long":-88.1099999999999994315658113919198513031005859375},"10":{"id":"8062439","label":"Las Vegas","value":"8062439","lat":14.8663600000000002410160959698259830474853515625,"lon":-88.072329999999993788151186890900135040283203125,"poi_name":"Las Vegas","parent_id":"3601689","long":-88.072329999999993788151186890900135040283203125},"11":{"id":"3605192","label":"Macuelizo","value":"3605192","lat":15.2599999999999997868371792719699442386627197265625,"lon":-88.659999999999996589394868351519107818603515625,"poi_name":"Macuelizo","parent_id":"3601689","long":-88.659999999999996589394868351519107818603515625},"12":{"id":"3604480","label":"Naranjito","value":"3604480","lat":14.96000000000000085265128291212022304534912109375,"lon":-88.599999999999994315658113919198513031005859375,"poi_name":"Naranjito","parent_id":"3601689","long":-88.599999999999994315658113919198513031005859375},"13":{"id":"8062438","label":"Nueva Frontera","value":"8062438","lat":15.21000000000000085265128291212022304534912109375,"lon":-88.56000000000000227373675443232059478759765625,"poi_name":"Nueva Frontera","parent_id":"3601689","long":-88.56000000000000227373675443232059478759765625},"14":{"id":"3604377","label":"Nuevo Celilac","value":"3604377","lat":15,"lon":-88.3333300000000036789060686714947223663330078125,"poi_name":"Nuevo Celilac","parent_id":"3601689","long":-88.3333300000000036789060686714947223663330078125},"15":{"id":"3603800","label":"Petoa","value":"3603800","lat":15.2599999999999997868371792719699442386627197265625,"lon":-88.2399999999999948840923025272786617279052734375,"poi_name":"Petoa","parent_id":"3601689","long":-88.2399999999999948840923025272786617279052734375},"16":{"id":"3603258","label":"Protecci\u00f3n","value":"3603258","lat":15.0166699999999995185362422489561140537261962890625,"lon":-88.650000000000005684341886080801486968994140625,"poi_name":"Protecci\u00f3n","parent_id":"3601689","long":-88.650000000000005684341886080801486968994140625},"17":{"id":"3602953","label":"Quimist\u00e1n","value":"3602953","lat":15.3499999999999996447286321199499070644378662109375,"lon":-88.400000000000005684341886080801486968994140625,"poi_name":"Quimist\u00e1n","parent_id":"3601689","long":-88.400000000000005684341886080801486968994140625},"18":{"id":"3602276","label":"San Francisco de Ojuera","value":"3602276","lat":14.6699999999999999289457264239899814128875732421875,"lon":-88.2099999999999937472239253111183643341064453125,"poi_name":"San Francisco de Ojuera","parent_id":"3601689","long":-88.2099999999999937472239253111183643341064453125},"19":{"id":"3602098","label":"San Jos\u00e9 de Colinas","value":"3602098","lat":15.03332999999999941564965411089360713958740234375,"lon":-88.2999999999999971578290569595992565155029296875,"poi_name":"San Jos\u00e9 de Colinas","parent_id":"3601689","long":-88.2999999999999971578290569595992565155029296875},"20":{"id":"3601942","label":"San Luis","value":"3601942","lat":15.089999999999999857891452847979962825775146484375,"lon":-88.469999999999998863131622783839702606201171875,"poi_name":"San Luis","parent_id":"3601689","long":-88.469999999999998863131622783839702606201171875},"21":{"id":"3601916","label":"San Marcos","value":"3601916","lat":15.2400000000000002131628207280300557613372802734375,"lon":-88.3900000000000005684341886080801486968994140625,"poi_name":"San Marcos","parent_id":"3601689","long":-88.3900000000000005684341886080801486968994140625},"22":{"id":"3601847","label":"San Nicol\u00e1s","value":"3601847","lat":14.9333299999999997709210219909437000751495361328125,"lon":-88.3333300000000036789060686714947223663330078125,"poi_name":"San Nicol\u00e1s","parent_id":"3601689","long":-88.3333300000000036789060686714947223663330078125},"23":{"id":"3601781","label":"San Pedro Zacapa","value":"3601781","lat":14.75,"lon":-88.1166699999999991632648743689060211181640625,"poi_name":"San Pedro Zacapa","parent_id":"3601689","long":-88.1166699999999991632648743689060211181640625},"24":{"id":"3601437","label":"San Vicente Centenario","value":"3601437","lat":14.8833300000000008367351256310939788818359375,"lon":-88.266670000000004847606760449707508087158203125,"poi_name":"San Vicente Centenario","parent_id":"3601689","long":-88.266670000000004847606760449707508087158203125},"25":{"id":"3601695","label":"Santa B\u00e1rbara","value":"3601695","lat":14.9000000000000003552713678800500929355621337890625,"lon":-88.159999999999996589394868351519107818603515625,"poi_name":"Santa B\u00e1rbara","parent_id":"3601689","long":-88.159999999999996589394868351519107818603515625},"26":{"id":"3601532","label":"Santa Rita","value":"3601532","lat":14.7666699999999995185362422489561140537261962890625,"lon":-88.266670000000004847606760449707508087158203125,"poi_name":"Santa Rita","parent_id":"3601689","long":-88.266670000000004847606760449707508087158203125},"27":{"id":"3600610","label":"Trinidad","value":"3600610","lat":15.1400000000000005684341886080801486968994140625,"lon":-88.2699999999999960209606797434389591217041015625,"poi_name":"Trinidad","parent_id":"3601689","long":-88.2699999999999960209606797434389591217041015625}}