{"success":true,"remaining_lookups":9090,"0":{"id":"3614321","label":"Campamento","value":"3614321","lat":14.5666700000000002290789780090562999248504638671875,"lon":-86.6333300000000008367351256310939788818359375,"poi_name":"Campamento","parent_id":"3604249","long":-86.6333300000000008367351256310939788818359375},"1":{"id":"3613975","label":"Catacamas","value":"3613975","lat":14.833330000000000126192389870993793010711669921875,"lon":-85.900000000000005684341886080801486968994140625,"poi_name":"Catacamas","parent_id":"3604249","long":-85.900000000000005684341886080801486968994140625},"2":{"id":"3613265","label":"Concordia","value":"3613265","lat":14.666669999999999873807610129006206989288330078125,"lon":-86.650000000000005684341886080801486968994140625,"poi_name":"Concordia","parent_id":"3604249","long":-86.650000000000005684341886080801486968994140625},"3":{"id":"3612811","label":"Dulce Nombre de Culm\u00ed","value":"3612811","lat":15.050000000000000710542735760100185871124267578125,"lon":-85.2699999999999960209606797434389591217041015625,"poi_name":"Dulce Nombre de Culm\u00ed","parent_id":"3604249","long":-85.2699999999999960209606797434389591217041015625},"4":{"id":"3610388","label":"El Rosario","value":"3610388","lat":14.916669999999999873807610129006206989288330078125,"lon":-86.7000000000000028421709430404007434844970703125,"poi_name":"El Rosario","parent_id":"3604249","long":-86.7000000000000028421709430404007434844970703125},"5":{"id":"3609735","label":"Esquipulas del Norte","value":"3609735","lat":15.28332999999999941564965411089360713958740234375,"lon":-86.5499999999999971578290569595992565155029296875,"poi_name":"Esquipulas del Norte","parent_id":"3604249","long":-86.5499999999999971578290569595992565155029296875},"6":{"id":"3609390","label":"Gualaco","value":"3609390","lat":15,"lon":-86,"poi_name":"Gualaco","parent_id":"3604249","long":-86},"7":{"id":"3609232","label":"Guarizama","value":"3609232","lat":14.916669999999999873807610129006206989288330078125,"lon":-86.2999999999999971578290569595992565155029296875,"poi_name":"Guarizama","parent_id":"3604249","long":-86.2999999999999971578290569595992565155029296875},"8":{"id":"3609153","label":"Guayape","value":"3609153","lat":14.78999999999999914734871708787977695465087890625,"lon":-86.849999999999994315658113919198513031005859375,"poi_name":"Guayape","parent_id":"3604249","long":-86.849999999999994315658113919198513031005859375},"9":{"id":"3608736","label":"Jano","value":"3608736","lat":15.0666700000000002290789780090562999248504638671875,"lon":-86.5,"poi_name":"Jano","parent_id":"3604249","long":-86.5},"10":{"id":"3608504","label":"Juticalpa","value":"3608504","lat":14.550000000000000710542735760100185871124267578125,"lon":-86.2999999999999971578290569595992565155029296875,"poi_name":"Juticalpa","parent_id":"3604249","long":-86.2999999999999971578290569595992565155029296875},"11":{"id":"3607831","label":"La Guata","value":"3607831","lat":15.0999999999999996447286321199499070644378662109375,"lon":-86.400000000000005684341886080801486968994140625,"poi_name":"La Guata","parent_id":"3604249","long":-86.400000000000005684341886080801486968994140625},"12":{"id":"3606177","label":"La Uni\u00f3n","value":"3606177","lat":15.083330000000000126192389870993793010711669921875,"lon":-86.716669999999993478922988288104534149169921875,"poi_name":"La Uni\u00f3n","parent_id":"3604249","long":-86.716669999999993478922988288104534149169921875},"13":{"id":"3605054","label":"Mangulile","value":"3605054","lat":15.083330000000000126192389870993793010711669921875,"lon":-86.7999999999999971578290569595992565155029296875,"poi_name":"Mangulile","parent_id":"3604249","long":-86.7999999999999971578290569595992565155029296875},"14":{"id":"3605043","label":"Manto","value":"3605043","lat":14.9333299999999997709210219909437000751495361328125,"lon":-86.3666699999999991632648743689060211181640625,"poi_name":"Manto","parent_id":"3604249","long":-86.3666699999999991632648743689060211181640625},"15":{"id":"8062434","label":"Patuca","value":"8062434","lat":14.3599999999999994315658113919198513031005859375,"lon":-85.969999999999998863131622783839702606201171875,"poi_name":"Patuca","parent_id":"3604249","long":-85.969999999999998863131622783839702606201171875},"16":{"id":"3602604","label":"Salam\u00e1","value":"3602604","lat":14.833330000000000126192389870993793010711669921875,"lon":-86.599999999999994315658113919198513031005859375,"poi_name":"Salam\u00e1","parent_id":"3604249","long":-86.599999999999994315658113919198513031005859375},"17":{"id":"3602357","label":"San Esteban","value":"3602357","lat":15.25,"lon":-85.75,"poi_name":"San Esteban","parent_id":"3604249","long":-85.75},"18":{"id":"3602288","label":"San Francisco de Becerra","value":"3602288","lat":14.666669999999999873807610129006206989288330078125,"lon":-86.099999999999994315658113919198513031005859375,"poi_name":"San Francisco de Becerra","parent_id":"3604249","long":-86.099999999999994315658113919198513031005859375},"19":{"id":"3602282","label":"San Francisco de la Paz","value":"3602282","lat":14.916669999999999873807610129006206989288330078125,"lon":-86.1666699999999963210939313285052776336669921875,"poi_name":"San Francisco de la Paz","parent_id":"3604249","long":-86.1666699999999963210939313285052776336669921875},"20":{"id":"3601544","label":"Santa Mar\u00eda del Real","value":"3601544","lat":14.800000000000000710542735760100185871124267578125,"lon":-85.9333299999999979945641825906932353973388671875,"poi_name":"Santa Mar\u00eda del Real","parent_id":"3604249","long":-85.9333299999999979945641825906932353973388671875},"21":{"id":"3601303","label":"Silca","value":"3601303","lat":14.833330000000000126192389870993793010711669921875,"lon":-86.5,"poi_name":"Silca","parent_id":"3604249","long":-86.5},"22":{"id":"3600213","label":"Yoc\u00f3n","value":"3600213","lat":14.949999999999999289457264239899814128875732421875,"lon":-86.81999999999999317878973670303821563720703125,"poi_name":"Yoc\u00f3n","parent_id":"3604249","long":-86.81999999999999317878973670303821563720703125}}