{"success":true,"remaining_lookups":9091,"0":{"id":"3614798","label":"Bel\u00e9n Gualcho","value":"3614798","lat":14.4833300000000004814637577510438859462738037109375,"lon":-88.783330000000006521077011711895465850830078125,"poi_name":"Bel\u00e9n Gualcho","parent_id":"3604318","long":-88.783330000000006521077011711895465850830078125},"1":{"id":"3613300","label":"Concepci\u00f3n","value":"3613300","lat":14.5,"lon":-89.1833299999999979945641825906932353973388671875,"poi_name":"Concepci\u00f3n","parent_id":"3604318","long":-89.1833299999999979945641825906932353973388671875},"2":{"id":"3612833","label":"Dolores Merend\u00f3n","value":"3612833","lat":14.53332999999999941564965411089360713958740234375,"lon":-89.1166699999999991632648743689060211181640625,"poi_name":"Dolores Merend\u00f3n","parent_id":"3604318","long":-89.1166699999999991632648743689060211181640625},"3":{"id":"3609671","label":"Fraternidad","value":"3609671","lat":14.53332999999999941564965411089360713958740234375,"lon":-89.0666700000000020054358174093067646026611328125,"poi_name":"Fraternidad","parent_id":"3604318","long":-89.0666700000000020054358174093067646026611328125},"4":{"id":"3607994","label":"La Encarnaci\u00f3n","value":"3607994","lat":14.666669999999999873807610129006206989288330078125,"lon":-89.0833300000000036789060686714947223663330078125,"poi_name":"La Encarnaci\u00f3n","parent_id":"3604318","long":-89.0833300000000036789060686714947223663330078125},"5":{"id":"3607645","label":"La Labor","value":"3607645","lat":14.4833300000000004814637577510438859462738037109375,"lon":-89,"poi_name":"La Labor","parent_id":"3604318","long":-89},"6":{"id":"3605223","label":"Lucerna","value":"3605223","lat":14.550000000000000710542735760100185871124267578125,"lon":-88.9166699999999963210939313285052776336669921875,"poi_name":"Lucerna","parent_id":"3604318","long":-88.9166699999999963210939313285052776336669921875},"7":{"id":"3604857","label":"Mercedes","value":"3604857","lat":14.3166700000000002290789780090562999248504638671875,"lon":-88.983329999999995152393239550292491912841796875,"poi_name":"Mercedes","parent_id":"3604318","long":-88.983329999999995152393239550292491912841796875},"8":{"id":"3604385","label":"Nueva Ocotepeque","value":"3604385","lat":14.4333299999999997709210219909437000751495361328125,"lon":-89.1833299999999979945641825906932353973388671875,"poi_name":"Nueva Ocotepeque","parent_id":"3604318","long":-89.1833299999999979945641825906932353973388671875},"9":{"id":"3602340","label":"San Fernando","value":"3602340","lat":14.6833299999999997709210219909437000751495361328125,"lon":-89.099999999999994315658113919198513031005859375,"poi_name":"San Fernando","parent_id":"3604318","long":-89.099999999999994315658113919198513031005859375},"10":{"id":"3602278","label":"San Francisco del Valle","value":"3602278","lat":14.410000000000000142108547152020037174224853515625,"lon":-88.9899999999999948840923025272786617279052734375,"poi_name":"San Francisco del Valle","parent_id":"3604318","long":-88.9899999999999948840923025272786617279052734375},"11":{"id":"3602165","label":"San Jorge","value":"3602165","lat":14.6500000000000003552713678800500929355621337890625,"lon":-89.0833300000000036789060686714947223663330078125,"poi_name":"San Jorge","parent_id":"3604318","long":-89.0833300000000036789060686714947223663330078125},"12":{"id":"3601917","label":"San Marcos","value":"3601917","lat":14.3800000000000007815970093361102044582366943359375,"lon":-88.9200000000000017053025658242404460906982421875,"poi_name":"San Marcos","parent_id":"3604318","long":-88.9200000000000017053025658242404460906982421875},"13":{"id":"3601602","label":"Santa Fe","value":"3601602","lat":14.5,"lon":-89.233329999999995152393239550292491912841796875,"poi_name":"Santa Fe","parent_id":"3604318","long":-89.233329999999995152393239550292491912841796875},"14":{"id":"3601368","label":"Sensenti","value":"3601368","lat":14.480000000000000426325641456060111522674560546875,"lon":-88.900000000000005684341886080801486968994140625,"poi_name":"Sensenti","parent_id":"3604318","long":-88.900000000000005684341886080801486968994140625},"15":{"id":"3601283","label":"Sinuapa","value":"3601283","lat":14.449999999999999289457264239899814128875732421875,"lon":-89.216669999999993478922988288104534149169921875,"poi_name":"Sinuapa","parent_id":"3604318","long":-89.216669999999993478922988288104534149169921875}}