{"success":true,"remaining_lookups":9098,"0":{"id":"3615267","label":"Alauca","value":"3615267","lat":13.8499999999999996447286321199499070644378662109375,"lon":-86.6666699999999963210939313285052776336669921875,"poi_name":"Alauca","parent_id":"3610942","long":-86.6666699999999963210939313285052776336669921875},"1":{"id":"3612908","label":"Danl\u00ed","value":"3612908","lat":14.089999999999999857891452847979962825775146484375,"lon":-86.3700000000000045474735088646411895751953125,"poi_name":"Danl\u00ed","parent_id":"3610942","long":-86.3700000000000045474735088646411895751953125},"2":{"id":"3610967","label":"El Para\u00edso","value":"3610967","lat":13.8499999999999996447286321199499070644378662109375,"lon":-86.5499999999999971578290569595992565155029296875,"poi_name":"El Para\u00edso","parent_id":"3610942","long":-86.5499999999999971578290569595992565155029296875},"3":{"id":"3609113","label":"G\u00fcinope","value":"3609113","lat":13.8666699999999991632648743689060211181640625,"lon":-86.9166699999999963210939313285052776336669921875,"poi_name":"G\u00fcinope","parent_id":"3610942","long":-86.9166699999999963210939313285052776336669921875},"4":{"id":"3608799","label":"Jacaleapa","value":"3608799","lat":14.0166699999999995185362422489561140537261962890625,"lon":-86.6666699999999963210939313285052776336669921875,"poi_name":"Jacaleapa","parent_id":"3610942","long":-86.6666699999999963210939313285052776336669921875},"5":{"id":"3605951","label":"Liure","value":"3605951","lat":13.5,"lon":-87.0833300000000036789060686714947223663330078125,"poi_name":"Liure","parent_id":"3610942","long":-87.0833300000000036789060686714947223663330078125},"6":{"id":"3604580","label":"Morocel\u00ed","value":"3604580","lat":14.1166699999999991632648743689060211181640625,"lon":-86.8333300000000036789060686714947223663330078125,"poi_name":"Morocel\u00ed","parent_id":"3610942","long":-86.8333300000000036789060686714947223663330078125},"7":{"id":"3604182","label":"Oropol\u00ed","value":"3604182","lat":13.800000000000000710542735760100185871124267578125,"lon":-86.7999999999999971578290569595992565155029296875,"poi_name":"Oropol\u00ed","parent_id":"3610942","long":-86.7999999999999971578290569595992565155029296875},"8":{"id":"3603367","label":"Potrerillos","value":"3603367","lat":14,"lon":-86.766670000000004847606760449707508087158203125,"poi_name":"Potrerillos","parent_id":"3610942","long":-86.766670000000004847606760449707508087158203125},"9":{"id":"3602441","label":"San Antonio de Flores","value":"3602441","lat":13.699999999999999289457264239899814128875732421875,"lon":-86.8166700000000020054358174093067646026611328125,"poi_name":"San Antonio de Flores","parent_id":"3610942","long":-86.8166700000000020054358174093067646026611328125},"10":{"id":"3601952","label":"San Lucas","value":"3601952","lat":13.7333300000000004814637577510438859462738037109375,"lon":-86.9500000000000028421709430404007434844970703125,"poi_name":"San Lucas","parent_id":"3610942","long":-86.9500000000000028421709430404007434844970703125},"11":{"id":"3601876","label":"San Mat\u00edas","value":"3601876","lat":13.96667000000000058435034588910639286041259765625,"lon":-86.6166699999999991632648743689060211181640625,"poi_name":"San Mat\u00edas","parent_id":"3610942","long":-86.6166699999999991632648743689060211181640625},"12":{"id":"3601239","label":"Soledad","value":"3601239","lat":13.583330000000000126192389870993793010711669921875,"lon":-87.1166699999999991632648743689060211181640625,"poi_name":"Soledad","parent_id":"3610942","long":-87.1166699999999991632648743689060211181640625},"13":{"id":"3600842","label":"Teupasenti","value":"3600842","lat":14.28999999999999914734871708787977695465087890625,"lon":-86.7000000000000028421709430404007434844970703125,"poi_name":"Teupasenti","parent_id":"3610942","long":-86.7000000000000028421709430404007434844970703125},"14":{"id":"3600839","label":"Tex\u00edguat","value":"3600839","lat":13.666669999999999873807610129006206989288330078125,"lon":-87,"poi_name":"Tex\u00edguat","parent_id":"3610942","long":-87},"15":{"id":"8062441","label":"Trojes","value":"8062441","lat":14.0596599999999991581489666714332997798919677734375,"lon":-86.0016600000000011050360626541078090667724609375,"poi_name":"Trojes","parent_id":"3610942","long":-86.0016600000000011050360626541078090667724609375},"16":{"id":"3600470","label":"Vado Ancho","value":"3600470","lat":13.71667000000000058435034588910639286041259765625,"lon":-86.966669999999993478922988288104534149169921875,"poi_name":"Vado Ancho","parent_id":"3610942","long":-86.966669999999993478922988288104534149169921875},"17":{"id":"3600223","label":"Yauyupe","value":"3600223","lat":13.7333300000000004814637577510438859462738037109375,"lon":-87.0666700000000020054358174093067646026611328125,"poi_name":"Yauyupe","parent_id":"3610942","long":-87.0666700000000020054358174093067646026611328125},"18":{"id":"3600166","label":"Yuscar\u00e1n","value":"3600166","lat":13.949999999999999289457264239899814128875732421875,"lon":-86.8333300000000036789060686714947223663330078125,"poi_name":"Yuscar\u00e1n","parent_id":"3610942","long":-86.8333300000000036789060686714947223663330078125}}