{"success":true,"remaining_lookups":9100,"0":{"id":"3614539","label":"Caba\u00f1as","value":"3614539","lat":14.7599999999999997868371792719699442386627197265625,"lon":-89.06000000000000227373675443232059478759765625,"poi_name":"Caba\u00f1as","parent_id":"3613229","long":-89.06000000000000227373675443232059478759765625},"1":{"id":"3613299","label":"Concepci\u00f3n","value":"3613299","lat":14.833330000000000126192389870993793010711669921875,"lon":-88.8333300000000036789060686714947223663330078125,"poi_name":"Concepci\u00f3n","parent_id":"3613229","long":-88.8333300000000036789060686714947223663330078125},"2":{"id":"3613227","label":"Cop\u00e1n Ruinas","value":"3613227","lat":14.9199999999999999289457264239899814128875732421875,"lon":-89.150000000000005684341886080801486968994140625,"poi_name":"Cop\u00e1n Ruinas","parent_id":"3613229","long":-89.150000000000005684341886080801486968994140625},"3":{"id":"3613172","label":"Corqu\u00edn","value":"3613172","lat":14.550000000000000710542735760100185871124267578125,"lon":-88.840000000000003410605131648480892181396484375,"poi_name":"Corqu\u00edn","parent_id":"3613229","long":-88.840000000000003410605131648480892181396484375},"4":{"id":"3613016","label":"Cucuyagua","value":"3613016","lat":14.6500000000000003552713678800500929355621337890625,"lon":-88.8333300000000036789060686714947223663330078125,"poi_name":"Cucuyagua","parent_id":"3613229","long":-88.8333300000000036789060686714947223663330078125},"5":{"id":"3612844","label":"Dolores","value":"3612844","lat":14.8833300000000008367351256310939788818359375,"lon":-88.8166700000000020054358174093067646026611328125,"poi_name":"Dolores","parent_id":"3613229","long":-88.8166700000000020054358174093067646026611328125},"6":{"id":"3612816","label":"Dulce Nombre","value":"3612816","lat":14.8499999999999996447286321199499070644378662109375,"lon":-88.8166700000000020054358174093067646026611328125,"poi_name":"Dulce Nombre","parent_id":"3613229","long":-88.8166700000000020054358174093067646026611328125},"7":{"id":"3610966","label":"El Para\u00edso","value":"3610966","lat":15,"lon":-89,"poi_name":"El Para\u00edso","parent_id":"3613229","long":-89},"8":{"id":"3609683","label":"Florida","value":"3609683","lat":15.1699999999999999289457264239899814128875732421875,"lon":-88.81000000000000227373675443232059478759765625,"poi_name":"Florida","parent_id":"3613229","long":-88.81000000000000227373675443232059478759765625},"9":{"id":"3607680","label":"La Jigua","value":"3607680","lat":15.0999999999999996447286321199499070644378662109375,"lon":-88.7600000000000051159076974727213382720947265625,"poi_name":"La Jigua","parent_id":"3613229","long":-88.7600000000000051159076974727213382720947265625},"10":{"id":"3606179","label":"La Uni\u00f3n","value":"3606179","lat":14.666669999999999873807610129006206989288330078125,"lon":-88.9166699999999963210939313285052776336669921875,"poi_name":"La Uni\u00f3n","parent_id":"3613229","long":-88.9166699999999963210939313285052776336669921875},"11":{"id":"3604400","label":"Nueva Arcadia","value":"3604400","lat":15.0800000000000000710542735760100185871124267578125,"lon":-88.68999999999999772626324556767940521240234375,"poi_name":"Nueva Arcadia","parent_id":"3613229","long":-88.68999999999999772626324556767940521240234375},"12":{"id":"3602550","label":"San Agust\u00edn","value":"3602550","lat":14.8166700000000002290789780090562999248504638671875,"lon":-88.9333299999999979945641825906932353973388671875,"poi_name":"San Agust\u00edn","parent_id":"3613229","long":-88.9333299999999979945641825906932353973388671875},"13":{"id":"3602522","label":"San Antonio","value":"3602522","lat":15.03999999999999914734871708787977695465087890625,"lon":-88.8799999999999954525264911353588104248046875,"poi_name":"San Antonio","parent_id":"3613229","long":-88.8799999999999954525264911353588104248046875},"14":{"id":"3602207","label":"San Jer\u00f3nimo","value":"3602207","lat":14.96667000000000058435034588910639286041259765625,"lon":-88.8666699999999991632648743689060211181640625,"poi_name":"San Jer\u00f3nimo","parent_id":"3613229","long":-88.8666699999999991632648743689060211181640625},"15":{"id":"3602093","label":"San Jos\u00e9 de Cop\u00e1n","value":"3602093","lat":14.9000000000000003552713678800500929355621337890625,"lon":-88.716669999999993478922988288104534149169921875,"poi_name":"San Jos\u00e9 de Cop\u00e1n","parent_id":"3613229","long":-88.716669999999993478922988288104534149169921875},"16":{"id":"3601994","label":"San Juan de Opoa","value":"3601994","lat":14.78332999999999941564965411089360713958740234375,"lon":-88.6833299999999979945641825906932353973388671875,"poi_name":"San Juan de Opoa","parent_id":"3613229","long":-88.6833299999999979945641825906932353973388671875},"17":{"id":"3601846","label":"San Nicol\u00e1s","value":"3601846","lat":14.980000000000000426325641456060111522674560546875,"lon":-88.7300000000000039790393202565610408782958984375,"poi_name":"San Nicol\u00e1s","parent_id":"3613229","long":-88.7300000000000039790393202565610408782958984375},"18":{"id":"3601815","label":"San Pedro de Cop\u00e1n","value":"3601815","lat":14.6166699999999991632648743689060211181640625,"lon":-88.7999999999999971578290569595992565155029296875,"poi_name":"San Pedro de Cop\u00e1n","parent_id":"3613229","long":-88.7999999999999971578290569595992565155029296875},"19":{"id":"3601531","label":"Santa Rita","value":"3601531","lat":14.8800000000000007815970093361102044582366943359375,"lon":-89.0100000000000051159076974727213382720947265625,"poi_name":"Santa Rita","parent_id":"3613229","long":-89.0100000000000051159076974727213382720947265625},"20":{"id":"3601495","label":"Santa Rosa de Cop\u00e1n","value":"3601495","lat":14.7666699999999995185362422489561140537261962890625,"lon":-88.783330000000006521077011711895465850830078125,"poi_name":"Santa Rosa de Cop\u00e1n","parent_id":"3613229","long":-88.783330000000006521077011711895465850830078125},"21":{"id":"3600606","label":"Trinidad de Cop\u00e1n","value":"3600606","lat":14.949999999999999289457264239899814128875732421875,"lon":-88.75,"poi_name":"Trinidad de Cop\u00e1n","parent_id":"3613229","long":-88.75},"22":{"id":"3600387","label":"Veracruz","value":"3600387","lat":14.9000000000000003552713678800500929355621337890625,"lon":-88.783330000000006521077011711895465850830078125,"poi_name":"Veracruz","parent_id":"3613229","long":-88.783330000000006521077011711895465850830078125}}