{"success":true,"remaining_lookups":8571,"0":{"id":"6693322","label":"Boulaide","value":"6693322","lat":49.88777999999999934743755147792398929595947265625,"lon":5.8163900000000001710986907710321247577667236328125,"poi_name":"Boulaide","parent_id":"2959975","long":5.8163900000000001710986907710321247577667236328125},"1":{"id":"6693323","label":"Esch-sur-S\u00fbre","value":"6693323","lat":49.9113899999999972578734741546213626861572265625,"lon":5.93639000000000027768010113504715263843536376953125,"poi_name":"Esch-sur-S\u00fbre","parent_id":"2959975","long":5.93639000000000027768010113504715263843536376953125},"2":{"id":"6693325","label":"Goesdorf","value":"6693325","lat":49.92166999999999887904778006486594676971435546875,"lon":5.9683299999999999130295691429637372493743896484375,"poi_name":"Goesdorf","parent_id":"2959975","long":5.9683299999999999130295691429637372493743896484375},"3":{"id":"8641289","label":"Kiischpelt","value":"8641289","lat":49.97834999999999894271240918897092342376708984375,"lon":6.007600000000000051159076974727213382720947265625,"poi_name":"Kiischpelt","parent_id":"2959975","long":6.007600000000000051159076974727213382720947265625},"4":{"id":"3285198","label":"Lac de la Haute-S\u00fbre","value":"3285198","lat":49.91667000000000342652128892950713634490966796875,"lon":5.833330000000000126192389870993793010711669921875,"poi_name":"Lac de la Haute-S\u00fbre","parent_id":"2959975","long":5.833330000000000126192389870993793010711669921875},"5":{"id":"2959978","label":"Wiltz","value":"2959978","lat":49.97887999999999664169081370346248149871826171875,"lon":5.9397999999999999687361196265555918216705322265625,"poi_name":"Wiltz","parent_id":"2959975","long":5.9397999999999999687361196265555918216705322265625},"6":{"id":"6693330","label":"Winseler","value":"6693330","lat":49.96777999999999764213498565368354320526123046875,"lon":5.89027999999999973823605614597909152507781982421875,"poi_name":"Winseler","parent_id":"2959975","long":5.89027999999999973823605614597909152507781982421875}}