{"success":true,"remaining_lookups":8581,"0":{"id":"2960778","label":"Bettembourg","value":"2960778","lat":49.523449999999996862243278883397579193115234375,"lon":6.08307000000000019923618310713209211826324462890625,"poi_name":"Bettembourg","parent_id":"2960599","long":6.08307000000000019923618310713209211826324462890625},"1":{"id":"2960652","label":"Differdange","value":"2960652","lat":49.521670000000000300133251585066318511962890625,"lon":5.8828800000000001091393642127513885498046875,"poi_name":"Differdange","parent_id":"2960599","long":5.8828800000000001091393642127513885498046875},"2":{"id":"2960635","label":"Dudelange","value":"2960635","lat":49.48084000000000060026650317013263702392578125,"lon":6.08772999999999964160224408260546624660491943359375,"poi_name":"Dudelange","parent_id":"2960599","long":6.08772999999999964160224408260546624660491943359375},"3":{"id":"6693269","label":"Esch-sur-Alzette","value":"6693269","lat":49.4958299999999979945641825906932353973388671875,"lon":5.98055999999999965410779623198322951793670654296875,"poi_name":"Esch-sur-Alzette","parent_id":"2960599","long":5.98055999999999965410779623198322951793670654296875},"4":{"id":"6693270","label":"Frisange","value":"6693270","lat":49.5150000000000005684341886080801486968994140625,"lon":6.1916700000000002290789780090562999248504638671875,"poi_name":"Frisange","parent_id":"2960599","long":6.1916700000000002290789780090562999248504638671875},"5":{"id":"2960392","label":"Kayl","value":"2960392","lat":49.47912000000000176669345819391310214996337890625,"lon":6.03099999999999969446662362315692007541656494140625,"poi_name":"Kayl","parent_id":"2960599","long":6.03099999999999969446662362315692007541656494140625},"6":{"id":"6693271","label":"Leudelange","value":"6693271","lat":49.56833000000000311047188006341457366943359375,"lon":6.0652799999999995606003722059540450572967529296875,"poi_name":"Leudelange","parent_id":"2960599","long":6.0652799999999995606003722059540450572967529296875},"7":{"id":"6693272","label":"Mondercange","value":"6693272","lat":49.53305999999999897909219725988805294036865234375,"lon":5.98833000000000037488234738702885806560516357421875,"poi_name":"Mondercange","parent_id":"2960599","long":5.98833000000000037488234738702885806560516357421875},"8":{"id":"2960188","label":"P\u00e9tange","value":"2960188","lat":49.55049999999999954525264911353588104248046875,"lon":5.8553300000000003677769200294278562068939208984375,"poi_name":"P\u00e9tange","parent_id":"2960599","long":5.8553300000000003677769200294278562068939208984375},"9":{"id":"6693273","label":"Reckange-sur-Mess","value":"6693273","lat":49.5625,"lon":6.00889000000000006451728040701709687709808349609375,"poi_name":"Reckange-sur-Mess","parent_id":"2960599","long":6.00889000000000006451728040701709687709808349609375},"10":{"id":"6693274","label":"Roeser","value":"6693274","lat":49.5422200000000003683453542180359363555908203125,"lon":6.1500000000000003552713678800500929355621337890625,"poi_name":"Roeser","parent_id":"2960599","long":6.1500000000000003552713678800500929355621337890625},"11":{"id":"2960124","label":"Rumelange","value":"2960124","lat":49.4613700000000022782842279411852359771728515625,"lon":6.01138999999999956713736537494696676731109619140625,"poi_name":"Rumelange","parent_id":"2960599","long":6.01138999999999956713736537494696676731109619140625},"12":{"id":"2960116","label":"Sanem","value":"2960116","lat":49.53311999999999670762917958199977874755859375,"lon":5.93630000000000013216094885137863457202911376953125,"poi_name":"Sanem","parent_id":"2960599","long":5.93630000000000013216094885137863457202911376953125},"13":{"id":"2960103","label":"Schifflange","value":"2960103","lat":49.50556000000000267391442321240901947021484375,"lon":6.01489000000000029189095585024915635585784912109375,"poi_name":"Schifflange","parent_id":"2960599","long":6.01489000000000029189095585024915635585784912109375}}