{"success":true,"remaining_lookups":8573,"0":{"id":"6693348","label":"Bous","value":"6693348","lat":49.55389000000000265799826593138277530670166015625,"lon":6.32917000000000040671466194908134639263153076171875,"poi_name":"Bous","parent_id":"2960152","long":6.32917000000000040671466194908134639263153076171875},"1":{"id":"6693350","label":"Dalheim","value":"6693350","lat":49.540829999999999699866748414933681488037109375,"lon":6.2597199999999997288568920339457690715789794921875,"poi_name":"Dalheim","parent_id":"2960152","long":6.2597199999999997288568920339457690715789794921875},"2":{"id":"6693351","label":"Lenningen","value":"6693351","lat":49.59861000000000075260686571709811687469482421875,"lon":6.3680599999999998317434801720082759857177734375,"poi_name":"Lenningen","parent_id":"2960152","long":6.3680599999999998317434801720082759857177734375},"3":{"id":"6693352","label":"Mondorf-les-Bains","value":"6693352","lat":49.50500000000000255795384873636066913604736328125,"lon":6.2811099999999999710098563809879124164581298828125,"poi_name":"Mondorf-les-Bains","parent_id":"2960152","long":6.2811099999999999710098563809879124164581298828125},"4":{"id":"6693354","label":"Remich","value":"6693354","lat":49.5450000000000017053025658242404460906982421875,"lon":6.3669399999999995998223312199115753173828125,"poi_name":"Remich","parent_id":"2960152","long":6.3669399999999995998223312199115753173828125},"5":{"id":"6693353","label":"Schengen","value":"6693353","lat":49.48861000000000132104105432517826557159423828125,"lon":6.3516700000000003711875251610763370990753173828125,"poi_name":"Schengen","parent_id":"2960152","long":6.3516700000000003711875251610763370990753173828125},"6":{"id":"6693355","label":"Stadtbredimus","value":"6693355","lat":49.56277999999999650526660843752324581146240234375,"lon":6.3644400000000000972022462519817054271697998046875,"poi_name":"Stadtbredimus","parent_id":"2960152","long":6.3644400000000000972022462519817054271697998046875},"7":{"id":"6693356","label":"Waldbredimus","value":"6693356","lat":49.55499999999999971578290569595992565155029296875,"lon":6.2874999999999996447286321199499070644378662109375,"poi_name":"Waldbredimus","parent_id":"2960152","long":6.2874999999999996447286321199499070644378662109375}}