{"success":true,"remaining_lookups":8576,"0":{"id":"6693275","label":"Bertrange","value":"6693275","lat":49.61110999999999648935045115649700164794921875,"lon":6.04999999999999982236431605997495353221893310546875,"poi_name":"Bertrange","parent_id":"2960315","long":6.04999999999999982236431605997495353221893310546875},"1":{"id":"6693276","label":"Contern","value":"6693276","lat":49.581940000000003010427462868392467498779296875,"lon":6.2266700000000003711875251610763370990753173828125,"poi_name":"Contern","parent_id":"2960315","long":6.2266700000000003711875251610763370990753173828125},"2":{"id":"6693277","label":"Hesperange","value":"6693277","lat":49.56806000000000267391442321240901947021484375,"lon":6.15139000000000013557155398302711546421051025390625,"poi_name":"Hesperange","parent_id":"2960315","long":6.15139000000000013557155398302711546421051025390625},"3":{"id":"6693278","label":"Niederanven","value":"6693278","lat":49.64750000000000085265128291212022304534912109375,"lon":6.2599999999999997868371792719699442386627197265625,"poi_name":"Niederanven","parent_id":"2960315","long":6.2599999999999997868371792719699442386627197265625},"4":{"id":"6693279","label":"Sandweiler","value":"6693279","lat":49.61332999999999771034708828665316104888916015625,"lon":6.2188900000000000289901436190120875835418701171875,"poi_name":"Sandweiler","parent_id":"2960315","long":6.2188900000000000289901436190120875835418701171875},"5":{"id":"6693280","label":"Schuttrange","value":"6693280","lat":49.6205599999999975580067257396876811981201171875,"lon":6.26860999999999979337417244096286594867706298828125,"poi_name":"Schuttrange","parent_id":"2960315","long":6.26860999999999979337417244096286594867706298828125},"6":{"id":"6693281","label":"Steinsel","value":"6693281","lat":49.67694000000000187355908565223217010498046875,"lon":6.12389000000000027768010113504715263843536376953125,"poi_name":"Steinsel","parent_id":"2960315","long":6.12389000000000027768010113504715263843536376953125},"7":{"id":"6693282","label":"Strassen","value":"6693282","lat":49.6205599999999975580067257396876811981201171875,"lon":6.0733300000000003393552105990238487720489501953125,"poi_name":"Strassen","parent_id":"2960315","long":6.0733300000000003393552105990238487720489501953125},"8":{"id":"2960317","label":"Ville de Luxembourg","value":"2960317","lat":49.60929999999999751025825389660894870758056640625,"lon":6.132039999999999935198502498678863048553466796875,"poi_name":"Ville de Luxembourg","parent_id":"2960315","long":6.132039999999999935198502498678863048553466796875},"9":{"id":"6693283","label":"Walferdange","value":"6693283","lat":49.65832999999999941564965411089360713958740234375,"lon":6.13722000000000011965539670200087130069732666015625,"poi_name":"Walferdange","parent_id":"2960315","long":6.13722000000000011965539670200087130069732666015625},"10":{"id":"6693284","label":"Weiler-la-Tour","value":"6693284","lat":49.540829999999999699866748414933681488037109375,"lon":6.200829999999999841975295566953718662261962890625,"poi_name":"Weiler-la-Tour","parent_id":"2960315","long":6.200829999999999841975295566953718662261962890625}}